$GPGGA,030456.00,3722.860756,N,12640.713359,E,1,33,0.4,15.4,M,17.8,M,,*57
$PGLOR,10,STA,030456.00,0.002,0.000,178,1,4,0,P,D,L,0,C,3,S,00300002,30,5,R,000833F4,TPEF,54,62134,LC,,,DR,0,*6B
$PGLOR,1,UNC,030456.00,0.010,4.0,3.0,0.05,180.00,4.0,4.0,0.0*23
$PSSGR,GSA,A,3,02,05,13,15,20,21,29,,,,,,1.5,0.8,1.3,1,1*49
$PSSGR,GSA,A,3,24,,,,,,,,,,,,1.5,0.8,1.3,1,8*4D
$PSSGR,GSA,A,3,66,67,75,76,,,,,,,,,1.5,0.8,1.3,2,1*43
$PSSGR,GSA,A,3,01,02,03,,,,,,,,,,1.5,0.8,1.3,5,1*46
$PSSGR,GSA,A,3,01,02,03,,,,,,,,,,1.5,0.8,1.3,5,8*4F
$PSSGR,GSA,A,3,206,213,216,220,223,229,230,237,,,,,1.5,0.8,1.3,4,3*49
$PSSGR,GSA,A,3,,,,,,,,,,,,,1.5,0.8,1.3,4,5*43
$PSSGR,GSA,A,3,112,121,136,,,,,,,,,,1.5,0.8,1.3,3,7*72
$PSSGR,GSA,A,3,109,112,121,136,,,,,,,,,1.5,0.8,1.3,3,1*4C
$PSSGR,GSA,A,3,,,,,,,,,,,,,1.5,0.8,1.3,6,1*45
$GPGSV,4,1,10,15,69,277,40,13,67,034,32,05,48,084,40,21,32,311,31*77
$GPGSV,4,2,10,24,21,188,19,29,21,240,35,30,19,046,30,02,15,157,28*7F
$GPGSV,4,3,10,20,09,297,23*49
$GPGSV,4,4,10,24,,,26,8*6E
$GLGSV,2,1,08,66,47,031,37,67,45,306,29,81,36,211,32,76,32,089,37*6F
$GLGSV,2,2,08,75,17,037,25,83,17,331,20,77,15,145,17,65,00,074,*66
$QZGSV,2,1,07,01,77,069,32,07,47,179,29,02,23,152,28,03,15,182,23*6C
$QZGSV,2,2,07,01,,,30,02,,,25,03,,,26,8*76
$BDGSV,5,1,17,213,73,260,30,206,68,262,35,208,63,179,23,232,62,038,36*6B
$BDGSV,5,2,17,216,62,259,32,220,44,297,33,209,40,244,31,223,37,095,38*64
$BDGSV,5,3,17,230,31,226,33,229,29,289,35,237,25,155,27,203,44,206,*6A
$BDGSV,5,4,17,225,15,044,,205,10,258,,227,05,181,,235,01,330,*68
$BDGSV,5,5,17,202,25,234,*6C
$GAGSV,4,1,13,104,72,344,33,109,33,265,33,112,31,180,27,119,27,059,28*63
$GAGSV,4,2,13,136,27,315,27,121,16,067,31,101,16,118,19,131,00,163,*69
$GAGSV,4,3,13,109,,,31,112,,,32,136,,,24,121,,,28,1*73
$GAGSV,4,4,13,101,,,21,1*44
$GPGSA,A,3,02,05,13,15,20,21,29,,,,,,1.5,0.8,1.3*37
$GPGSA,A,3,24,,,,,,,,,,,,1.5,0.8,1.3,8*2E
$QZGSA,A,3,01,02,03,,,,,,,,,,1.5,0.8,1.3*20
$QZGSA,A,3,01,02,03,,,,,,,,,,1.5,0.8,1.3,8*34
$BDGSA,A,3,206,213,216,220,223,229,230,237,,,,,1.5,0.8,1.3*21
$BDGSA,A,3,,,,,,,,,,,,,1.5,0.8,1.3,5*34
$GAGSA,A,3,112,121,136,,,,,,,,,,1.5,0.8,1.3*19
$GAGSA,A,3,109,112,121,136,,,,,,,,,1.5,0.8,1.3,1*3C
$NCGSA,A,3,,,,,,,,,,,,,1.5,0.8,1.3,1*3B
$GNGSA,A,3,02,05,13,15,20,21,29,,,,,,1.5,0.8,1.3*29
$GNGSA,A,3,66,67,75,76,,,,,,,,,1.5,0.8,1.3*20
$GPRMC,030456.00,A,3722.860756,N,12640.713359,E,000.0,219.5,231119,,,A*59
$GPGGA,030457.00,3722.860756,N,12640.713359,E,1,32,0.4,15.3,M,17.8,M,,*50
$PGLOR,10,STA,030457.00,0.002,0.000,178,1,4,0,P,D,L,0,C,2,S,00300002,30,5,R,000833F4,TPEF,54,63134,LC,,,DR,0,*6A
$PGLOR,1,UNC,030457.00,0.010,4.0,3.0,0.04,180.00,4.0,4.0,0.0*23
$PSSGR,GSA,A,3,02,05,13,15,20,21,29,,,,,,1.5,0.8,1.3,1,1*49
$PSSGR,GSA,A,3,,,,,,,,,,,,,1.5,0.8,1.3,1,8*4B
$PSSGR,GSA,A,3,66,67,75,76,,,,,,,,,1.5,0.8,1.3,2,1*43
$PSSGR,GSA,A,3,01,02,03,,,,,,,,,,1.5,0.8,1.3,5,1*46
$PSSGR,GSA,A,3,01,02,03,,,,,,,,,,1.5,0.8,1.3,5,8*4F
$PSSGR,GSA,A,3,206,213,216,220,223,229,230,237,,,,,1.5,0.8,1.3,4,3*49
$PSSGR,GSA,A,3,,,,,,,,,,,,,1.5,0.8,1.3,4,5*43
$PSSGR,GSA,A,3,109,112,121,136,,,,,,,,,1.5,0.8,1.3,3,7*4A
$PSSGR,GSA,A,3,109,112,121,,,,,,,,,,1.5,0.8,1.3,3,1*78
$PSSGR,GSA,A,3,,,,,,,,,,,,,1.5,0.8,1.3,6,1*45
$GPGSV,4,1,10,15,69,277,39,13,67,034,32,05,48,084,40,21,32,311,31*79
$GPGSV,4,2,10,24,21,188,19,29,21,240,34,30,19,046,30,02,15,157,28*7E
$GPGSV,4,3,10,20,09,297,24*4E
$GPGSV,4,4,10,24,,,26,8*6E
$GLGSV,2,1,08,66,47,031,37,67,45,306,29,81,36,211,32,76,32,089,37*6F
$GLGSV,2,2,08,75,17,037,26,83,17,331,19,77,15,145,17,65,00,074,*6F
$QZGSV,2,1,07,01,77,069,34,07,47,179,29,02,23,152,28,03,15,182,23*6A
$QZGSV,2,2,07,01,,,30,02,,,24,03,,,26,8*77
$BDGSV,5,1,17,213,73,260,29,206,68,262,35,208,63,180,23,232,62,038,36*65
$BDGSV,5,2,17,216,62,259,32,220,44,297,33,209,40,244,30,223,37,095,38*65
$BDGSV,5,3,17,230,31,226,33,229,29,289,34,237,25,155,27,203,44,206,*6B
$BDGSV,5,4,17,225,15,044,,205,10,258,,227,05,181,,235,01,330,*68
$BDGSV,5,5,17,202,25,234,*6C
$GAGSV,4,1,13,104,72,344,33,109,33,265,32,112,31,180,27,119,27,059,27*6D
$GAGSV,4,2,13,136,27,315,27,121,16,067,30,101,16,118,19,131,00,163,*68
$GAGSV,4,3,13,109,,,31,112,,,32,136,,,24,121,,,28,1*73
$GAGSV,4,4,13,101,,,22,1*47
$GPGSA,A,3,02,05,13,15,20,21,29,,,,,,1.5,0.8,1.3*37
$GPGSA,A,3,,,,,,,,,,,,,1.5,0.8,1.3,8*28
$QZGSA,A,3,01,02,03,,,,,,,,,,1.5,0.8,1.3*20
$QZGSA,A,3,01,02,03,,,,,,,,,,1.5,0.8,1.3,8*34
$BDGSA,A,3,206,213,216,220,223,229,230,237,,,,,1.5,0.8,1.3*21
$BDGSA,A,3,,,,,,,,,,,,,1.5,0.8,1.3,5*34
$GAGSA,A,3,109,112,121,136,,,,,,,,,1.5,0.8,1.3*21
$GAGSA,A,3,109,112,121,,,,,,,,,,1.5,0.8,1.3,1*08
$NCGSA,A,3,,,,,,,,,,,,,1.5,0.8,1.3,1*3B
$GNGSA,A,3,02,05,13,15,20,21,29,,,,,,1.5,0.8,1.3*29
$GNGSA,A,3,66,67,75,76,,,,,,,,,1.5,0.8,1.3*20
$GPRMC,030457.00,A,3722.860756,N,12640.713359,E,000.0,219.5,231119,,,A*58
$GPGGA,030458.00,3722.860823,N,12640.712880,E,1,30,0.4,15.5,M,17.8,M,,*58
$PGLOR,10,STA,030458.00,0.002,0.000,178,1,4,0,P,D,L,0,C,2,S,00300002,30,5,R,000833F4,TPEF,54,64134,LC,,,DR,0,*62
$PGLOR,1,UNC,030458.00,0.010,4.0,3.0,0.04,84.81,4.0,4.0,0.0*10
$PSSGR,GSA,A,3,02,05,15,20,21,29,,,,,,,1.4,0.7,1.2,1,1*44
$PSSGR,GSA,A,3,24,,,,,,,,,,,,1.4,0.7,1.2,1,8*42
$PSSGR,GSA,A,3,66,67,75,76,,,,,,,,,1.4,0.7,1.2,2,1*4C
$PSSGR,GSA,A,3,01,02,,,,,,,,,,,1.4,0.7,1.2,5,1*4A
$PSSGR,GSA,A,3,01,02,03,,,,,,,,,,1.4,0.7,1.2,5,8*40
$PSSGR,GSA,A,3,206,213,216,220,223,229,230,237,,,,,1.4,0.7,1.2,4,3*46
$PSSGR,GSA,A,3,,,,,,,,,,,,,1.4,0.7,1.2,4,5*4C
$PSSGR,GSA,A,3,109,112,121,,,,,,,,,,1.4,0.7,1.2,3,7*71
$PSSGR,GSA,A,3,109,112,121,,,,,,,,,,1.4,0.7,1.2,3,1*77
$PSSGR,GSA,A,3,,,,,,,,,,,,,1.4,0.7,1.2,6,1*4A
$GPGSV,4,1,10,15,69,277,40,13,67,034,31,05,48,084,40,21,32,311,33*76
$GPGSV,4,2,10,24,21,188,23,29,21,240,33,30,19,046,,02,15,157,28*73
$GPGSV,4,3,10,20,09,297,24*4E
$GPGSV,4,4,10,24,,,27,8*6F
$GLGSV,2,1,08,66,47,031,36,67,45,306,29,81,36,211,33,76,32,089,39*61
$GLGSV,2,2,08,75,17,037,25,83,17,331,22,77,16,145,17,65,00,074,*67
$QZGSV,2,1,07,01,77,069,34,07,47,179,29,02,23,152,27,03,15,182,22*64
$QZGSV,2,2,07,01,,,30,02,,,26,03,,,26,8*75
$BDGSV,5,1,17,213,73,260,29,206,68,262,34,208,63,180,25,232,62,038,35*61
$BDGSV,5,2,17,216,62,259,31,220,44,297,32,209,40,244,29,223,37,095,38*6F
$BDGSV,5,3,17,230,31,226,33,229,29,289,34,237,25,155,26,203,44,206,*6A
$BDGSV,5,4,17,225,15,044,,205,10,258,,227,04,181,,235,01,330,*69
$BDGSV,5,5,17,202,25,234,*6C
$GAGSV,4,1,13,104,72,344,33,109,33,265,32,112,31,180,27,119,27,059,29*63
$GAGSV,4,2,13,136,27,315,29,121,16,067,29,101,16,118,27,131,00,163,*63
$GAGSV,4,3,13,109,,,31,112,,,33,136,,,23,121,,,27,1*7A
$GAGSV,4,4,13,101,,,26,1*43
$GPGSA,A,3,02,05,15,20,21,29,,,,,,,1.4,0.7,1.2*3A
$GPGSA,A,3,24,,,,,,,,,,,,1.4,0.7,1.2,8*21
$QZGSA,A,3,01,02,,,,,,,,,,,1.4,0.7,1.2*2C
$QZGSA,A,3,01,02,03,,,,,,,,,,1.4,0.7,1.2,8*3B
$BDGSA,A,3,206,213,216,220,223,229,230,237,,,,,1.4,0.7,1.2*2E
$BDGSA,A,3,,,,,,,,,,,,,1.4,0.7,1.2,5*3B
$GAGSA,A,3,109,112,121,,,,,,,,,,1.4,0.7,1.2*1A
$GAGSA,A,3,109,112,121,,,,,,,,,,1.4,0.7,1.2,1*07
$NCGSA,A,3,,,,,,,,,,,,,1.4,0.7,1.2,1*34
$GNGSA,A,3,02,05,15,20,21,29,,,,,,,1.4,0.7,1.2*24
$GNGSA,A,3,66,67,75,76,,,,,,,,,1.4,0.7,1.2*2F
$GPRMC,030458.00,A,3722.860823,N,12640.712880,E,000.4,227.2,231119,,,A*5A
$GPGGA,030459.00,3722.859294,N,12640.711641,E,1,35,0.4,15.7,M,17.8,M,,*52
$PGLOR,10,STA,030459.00,0.002,0.000,178,1,4,0,P,D,L,0,C,2,S,00300002,33,5,R,000833F4,TPEF,54,65134,LC,,,DR,0,*61
$PGLOR,1,UNC,030459.00,0.010,4.0,3.0,0.17,38.43,4.0,4.0,0.0*1A
$PSSGR,GSA,A,3,02,05,13,15,20,21,24,29,,,,,1.6,0.9,1.4,1,1*4A
$PSSGR,GSA,A,3,24,,,,,,,,,,,,1.6,0.9,1.4,1,8*48
$PSSGR,GSA,A,3,66,67,75,76,,,,,,,,,1.6,0.9,1.4,2,1*46
$PSSGR,GSA,A,3,01,02,,,,,,,,,,,1.6,0.9,1.4,5,1*40
$PSSGR,GSA,A,3,01,02,03,,,,,,,,,,1.6,0.9,1.4,5,8*4A
$PSSGR,GSA,A,3,206,208,213,216,220,223,229,237,,,,,1.6,0.9,1.4,4,3*47
$PSSGR,GSA,A,3,,,,,,,,,,,,,1.6,0.9,1.4,4,5*46
$PSSGR,GSA,A,3,101,109,112,121,136,,,,,,,,1.6,0.9,1.4,3,7*7F
$PSSGR,GSA,A,3,101,109,112,121,,,,,,,,,1.6,0.9,1.4,3,1*4D
$PSSGR,GSA,A,3,,,,,,,,,,,,,1.6,0.9,1.4,6,1*40
$GPGSV,4,1,10,15,69,277,41,13,67,034,31,05,48,084,40,21,32,311,33*77
$GPGSV,4,2,10,24,21,188,24,29,21,240,33,30,19,046,30,02,15,157,29*76
$GPGSV,4,3,10,20,09,297,23*49
$GPGSV,4,4,10,24,,,28,8*60
$GLGSV,2,1,08,66,47,031,36,67,45,306,29,81,36,211,33,76,32,089,39*61
$GLGSV,2,2,08,75,17,037,28,83,17,331,,77,16,145,17,65,00,074,*6A
$QZGSV,2,1,07,01,77,069,34,07,47,179,29,02,23,152,27,03,15,182,22*64
$QZGSV,2,2,07,01,,,30,02,,,28,03,,,28,8*75
$BDGSV,5,1,17,213,73,260,29,206,68,262,34,208,63,180,26,232,62,038,*64
$BDGSV,5,2,17,216,62,259,31,220,44,297,33,209,40,244,29,223,37,095,38*6E
$BDGSV,5,3,17,230,31,226,32,229,29,289,34,237,25,155,26,203,44,206,*6B
$BDGSV,5,4,17,225,15,044,,205,10,258,,227,04,181,,235,01,330,*69
$BDGSV,5,5,17,202,25,234,*6C
$GAGSV,4,1,13,104,72,344,32,109,33,265,32,112,31,180,26,119,27,059,29*63
$GAGSV,4,2,13,136,27,315,29,121,16,067,28,101,16,118,31,131,00,163,*65
$GAGSV,4,3,13,109,,,31,112,,,33,136,,,24,121,,,27,1*7D
$GAGSV,4,4,13,101,,,28,1*4D
$GPGSA,A,3,02,05,13,15,20,21,24,29,,,,,1.6,0.9,1.4*34
$GPGSA,A,3,24,,,,,,,,,,,,1.6,0.9,1.4,8*2B
$QZGSA,A,3,01,02,,,,,,,,,,,1.6,0.9,1.4*26
$QZGSA,A,3,01,02,03,,,,,,,,,,1.6,0.9,1.4,8*31
$BDGSA,A,3,206,208,213,216,220,223,229,237,,,,,1.6,0.9,1.4*2F
$BDGSA,A,3,,,,,,,,,,,,,1.6,0.9,1.4,5*31
$GAGSA,A,3,101,109,112,121,136,,,,,,,,1.6,0.9,1.4*14
$GAGSA,A,3,101,109,112,121,,,,,,,,,1.6,0.9,1.4,1*3D
$NCGSA,A,3,,,,,,,,,,,,,1.6,0.9,1.4,1*3E
$GNGSA,A,3,02,05,13,15,20,21,24,29,,,,,1.6,0.9,1.4*2A
$GNGSA,A,3,66,67,75,76,,,,,,,,,1.6,0.9,1.4*25
$GPRMC,030459.00,A,3722.859294,N,12640.711641,E,003.6,215.5,231119,,,A*50
$GPGGA,030500.00,3722.857185,N,12640.709692,E,1,31,0.3,15.6,M,17.8,M,,*57
$PGLOR,10,STA,030500.00,0.002,0.000,178,1,3,0,P,D,L,0,C,2,S,00100002,38,5,R,000833F4,TPEF,54,66134,LC,,,DR,0,*61
$PGLOR,1,UNC,030500.00,0.010,3.0,3.0,0.55,27.44,3.0,3.0,0.0*1F
$PSSGR,GSA,A,3,02,05,13,15,21,29,,,,,,,2.0,1.0,1.7,1,1*40
$PSSGR,GSA,A,3,24,,,,,,,,,,,,2.0,1.0,1.7,1,8*46
$PSSGR,GSA,A,3,66,67,75,76,,,,,,,,,2.0,1.0,1.7,2,1*48
$PSSGR,GSA,A,3,01,02,,,,,,,,,,,2.0,1.0,1.7,5,1*4E
$PSSGR,GSA,A,3,01,,,,,,,,,,,,2.0,1.0,1.7,5,8*45
$PSSGR,GSA,A,3,206,213,216,220,223,229,230,237,,,,,2.0,1.0,1.7,4,3*42
$PSSGR,GSA,A,3,,,,,,,,,,,,,2.0,1.0,1.7,4,5*48
$PSSGR,GSA,A,3,109,112,121,136,,,,,,,,,2.0,1.0,1.7,3,7*41
$PSSGR,GSA,A,3,101,109,112,121,136,,,,,,,,2.0,1.0,1.7,3,1*77
$PSSGR,GSA,A,3,,,,,,,,,,,,,2.0,1.0,1.7,6,1*4E
$GPGSV,4,1,10,15,69,277,40,13,67,034,35,05,48,084,39,21,32,311,33*7C
$GPGSV,4,2,10,24,21,188,28,29,21,240,33,30,19,046,30,02,15,157,29*7A
$GPGSV,4,3,10,20,09,297,23*49
$GPGSV,4,4,10,24,,,28,8*60
$GLGSV,2,1,08,66,47,031,36,67,45,306,29,81,36,211,32,76,32,089,39*60
$GLGSV,2,2,08,75,17,037,28,83,17,331,,77,16,145,17,65,00,074,*6A
$QZGSV,2,1,07,01,77,069,34,07,47,179,28,02,23,152,26,03,15,182,22*64
$QZGSV,2,2,07,01,,,30,02,,,29,03,,,28,8*74
$BDGSV,5,1,17,213,73,260,29,206,68,262,33,208,63,180,27,232,62,038,31*60
$BDGSV,5,2,17,216,62,259,31,220,44,297,33,209,40,244,28,223,37,095,38*6F
$BDGSV,5,3,17,230,31,226,31,229,29,289,34,237,25,155,30,203,44,206,*6F
$BDGSV,5,4,17,225,15,044,,205,10,258,,227,04,181,,235,01,330,*69
$BDGSV,5,5,17,202,25,234,*6C
$GAGSV,4,1,13,104,72,344,,109,33,265,32,112,31,180,25,119,27,059,27*6F
$GAGSV,4,2,13,136,27,315,29,121,16,067,28,101,16,118,30,131,00,163,*64
$GAGSV,4,3,13,109,,,30,112,,,32,136,,,26,121,,,28,1*70
$GAGSV,4,4,13,101,,,28,1*4D
$GPGSA,A,3,02,05,13,15,21,29,,,,,,,2.0,1.0,1.7*3E
$GPGSA,A,3,24,,,,,,,,,,,,2.0,1.0,1.7,8*25
$QZGSA,A,3,01,02,,,,,,,,,,,2.0,1.0,1.7*28
$QZGSA,A,3,01,,,,,,,,,,,,2.0,1.0,1.7,8*3E
$BDGSA,A,3,206,213,216,220,223,229,230,237,,,,,2.0,1.0,1.7*2A
$BDGSA,A,3,,,,,,,,,,,,,2.0,1.0,1.7,5*3F
$GAGSA,A,3,109,112,121,136,,,,,,,,,2.0,1.0,1.7*2A
$GAGSA,A,3,101,109,112,121,136,,,,,,,,2.0,1.0,1.7,1*07
$NCGSA,A,3,,,,,,,,,,,,,2.0,1.0,1.7,1*30
$GNGSA,A,3,02,05,13,15,21,29,,,,,,,2.0,1.0,1.7*20
$GNGSA,A,3,66,67,75,76,,,,,,,,,2.0,1.0,1.7*2B
$GPRMC,030500.00,A,3722.857185,N,12640.709692,E,007.6,212.6,231119,,,A*57
$GPGGA,030501.00,3722.853399,N,12640.706736,E,1,28,0.4,15.8,M,17.8,M,,*5C
$PGLOR,10,STA,030501.00,0.002,0.000,178,1,4,0,P,D,L,0,C,2,S,00100002,47,5,R,000833F4,TPEF,54,67134,LC,,,DR,0,*6E
$PGLOR,1,UNC,030501.00,0.010,4.0,3.0,0.72,4.46,4.0,4.0,0.0*2F
$PSSGR,GSA,A,3,02,05,13,15,21,24,29,,,,,,2.0,1.0,1.7,1,1*46
$PSSGR,GSA,A,3,24,,,,,,,,,,,,2.0,1.0,1.7,1,8*46
$PSSGR,GSA,A,3,66,67,76,,,,,,,,,,2.0,1.0,1.7,2,1*4A
$PSSGR,GSA,A,3,01,,,,,,,,,,,,2.0,1.0,1.7,5,1*4C
$PSSGR,GSA,A,3,01,02,,,,,,,,,,,2.0,1.0,1.7,5,8*47
$PSSGR,GSA,A,3,206,208,213,216,220,223,229,230,237,,,,2.0,1.0,1.7,4,3*78
$PSSGR,GSA,A,3,,,,,,,,,,,,,2.0,1.0,1.7,4,5*48
$PSSGR,GSA,A,3,109,136,,,,,,,,,,,2.0,1.0,1.7,3,7*41
$PSSGR,GSA,A,3,109,112,121,,,,,,,,,,2.0,1.0,1.7,3,1*73
$PSSGR,GSA,A,3,,,,,,,,,,,,,2.0,1.0,1.7,6,1*4E
$GPGSV,4,1,10,15,69,277,40,13,67,034,38,05,48,084,38,21,32,311,33*70
$GPGSV,4,2,10,24,21,188,28,29,21,240,33,30,19,046,29,02,15,157,28*73
$GPGSV,4,3,10,20,09,297,22*48
$GPGSV,4,4,10,24,,,27,8*6F
$GLGSV,2,1,08,66,47,031,36,67,45,306,31,81,36,211,32,76,32,089,39*69
$GLGSV,2,2,08,75,17,037,29,83,17,331,,77,16,145,17,65,00,074,*6B
$QZGSV,2,1,07,01,77,069,35,07,47,179,27,02,23,152,26,03,15,182,22*6A
$QZGSV,2,2,07,01,,,30,02,,,29,03,,,27,8*7B
$BDGSV,5,1,17,213,73,260,29,206,68,262,32,208,63,180,27,232,62,038,30*60
$BDGSV,5,2,17,216,62,259,31,220,44,297,33,209,40,244,28,223,37,095,37*60
$BDGSV,5,3,17,230,31,226,30,229,29,289,34,237,25,155,31,203,44,206,*6F
$BDGSV,5,4,17,225,15,044,,205,10,258,,227,04,181,,235,01,330,*69
$BDGSV,5,5,17,202,25,234,*6C
$GAGSV,4,1,13,104,72,344,29,109,33,265,31,112,31,180,25,119,27,059,27*67
$GAGSV,4,2,13,136,27,315,29,121,16,067,27,101,16,118,29,131,00,163,*63
$GAGSV,4,3,13,109,,,30,112,,,32,136,,,27,121,,,28,1*71
$GAGSV,4,4,13,101,,,27,1*42
$GPGSA,A,3,02,05,13,15,21,24,29,,,,,,2.0,1.0,1.7*38
$GPGSA,A,3,24,,,,,,,,,,,,2.0,1.0,1.7,8*25
$QZGSA,A,3,01,,,,,,,,,,,,2.0,1.0,1.7*2A
$QZGSA,A,3,01,02,,,,,,,,,,,2.0,1.0,1.7,8*3C
$BDGSA,A,3,206,208,213,216,220,223,229,230,237,,,,2.0,1.0,1.7*10
$BDGSA,A,3,,,,,,,,,,,,,2.0,1.0,1.7,5*3F
$GAGSA,A,3,109,136,,,,,,,,,,,2.0,1.0,1.7*2A
$GAGSA,A,3,109,112,121,,,,,,,,,,2.0,1.0,1.7,1*03
$NCGSA,A,3,,,,,,,,,,,,,2.0,1.0,1.7,1*30
$GNGSA,A,3,02,05,13,15,21,24,29,,,,,,2.0,1.0,1.7*26
$GNGSA,A,3,66,67,76,,,,,,,,,,2.0,1.0,1.7*29
$GPRMC,030501.00,A,3722.853399,N,12640.706736,E,011.9,213.5,231119,,,A*57
$GPGGA,030502.00,3722.848080,N,12640.702206,E,1,29,0.6,16.1,M,17.8,M,,*55
$PGLOR,10,STA,030502.00,0.002,0.000,180,1,6,0,P,D,L,0,C,2,S,00100002,58,5,R,000833F4,TPEF,54,68134,LC,,,DR,0,*69
$PGLOR,1,UNC,030502.00,0.011,6.0,3.1,0.75,1.47,6.0,6.0,0.0*2D
$PSSGR,GSA,A,3,02,05,13,15,21,24,29,,,,,,1.5,0.8,1.3,1,1*4D
$PSSGR,GSA,A,3,,,,,,,,,,,,,1.5,0.8,1.3,1,8*4B
$PSSGR,GSA,A,3,66,67,75,76,,,,,,,,,1.5,0.8,1.3,2,1*43
$PSSGR,GSA,A,3,01,02,,,,,,,,,,,1.5,0.8,1.3,5,1*45
$PSSGR,GSA,A,3,01,02,,,,,,,,,,,1.5,0.8,1.3,5,8*4C
$PSSGR,GSA,A,3,206,208,213,216,220,223,229,237,,,,,1.5,0.8,1.3,4,3*42
$PSSGR,GSA,A,3,,,,,,,,,,,,,1.5,0.8,1.3,4,5*43
$PSSGR,GSA,A,3,101,109,112,136,,,,,,,,,1.5,0.8,1.3,3,7*48
$PSSGR,GSA,A,3,121,136,,,,,,,,,,,1.5,0.8,1.3,3,1*46
$PSSGR,GSA,A,3,,,,,,,,,,,,,1.5,0.8,1.3,6,1*45
$GPGSV,4,1,10,15,69,277,39,13,67,034,38,05,48,084,38,21,32,311,32*7F
$GPGSV,4,2,10,24,21,188,27,29,21,240,33,30,19,046,29,02,15,157,28*7C
$GPGSV,4,3,10,20,09,297,22*48
$GPGSV,4,4,10,24,,,27,8*6F
$GLGSV,2,1,08,66,47,031,36,67,45,306,33,81,36,211,32,76,32,089,39*6B
$GLGSV,2,2,08,75,17,037,30,83,17,331,20,77,16,145,17,65,00,074,*61
$QZGSV,2,1,07,01,77,069,35,07,47,179,27,02,23,152,26,03,15,182,21*69
$QZGSV,2,2,07,01,,,29,02,,,29,03,,,26,8*72
$BDGSV,5,1,17,213,73,260,29,206,68,262,32,208,63,180,26,232,62,038,*62
$BDGSV,5,2,17,216,62,259,31,220,44,297,36,209,40,244,28,223,37,095,37*65
$BDGSV,5,3,17,230,31,226,28,229,29,289,33,237,25,155,30,203,44,206,*60
$BDGSV,5,4,17,225,15,044,,205,10,258,,227,04,181,,235,01,330,*69
$BDGSV,5,5,17,202,25,234,*6C
$GAGSV,4,1,13,104,72,344,30,109,33,265,31,112,31,180,24,119,27,059,27*6E
$GAGSV,4,2,13,136,27,315,29,121,16,067,26,101,16,118,28,131,00,163,*63
$GAGSV,4,3,13,109,,,29,112,,,31,136,,,26,121,,,28,1*7B
$GAGSV,4,4,13,101,,,26,1*43
$GPGSA,A,3,02,05,13,15,21,24,29,,,,,,1.5,0.8,1.3*33
$GPGSA,A,3,,,,,,,,,,,,,1.5,0.8,1.3,8*28
$QZGSA,A,3,01,02,,,,,,,,,,,1.5,0.8,1.3*23
$QZGSA,A,3,01,02,,,,,,,,,,,1.5,0.8,1.3,8*37
$BDGSA,A,3,206,208,213,216,220,223,229,237,,,,,1.5,0.8,1.3*2A
$BDGSA,A,3,,,,,,,,,,,,,1.5,0.8,1.3,5*34
$GAGSA,A,3,101,109,112,136,,,,,,,,,1.5,0.8,1.3*23
$GAGSA,A,3,121,136,,,,,,,,,,,1.5,0.8,1.3,1*36
$NCGSA,A,3,,,,,,,,,,,,,1.5,0.8,1.3,1*3B
$GNGSA,A,3,02,05,13,15,21,24,29,,,,,,1.5,0.8,1.3*2D
$GNGSA,A,3,66,67,75,76,,,,,,,,,1.5,0.8,1.3*20
$GPRMC,030502.00,A,3722.848080,N,12640.702206,E,016.6,214.6,231119,,,A*5B
$GPGGA,030503.00,3722.838978,N,12640.695349,E,1,25,0.6,15.4,M,17.8,M,,*52
$PGLOR,10,STA,030503.00,0.002,0.000,180,1,6,0,P,D,L,0,C,2,S,00300002,78,5,R,000833F4,TPEF,54,69134,LC,,,DR,0,*69
$PGLOR,1,UNC,030503.00,0.011,6.0,3.0,0.10,2.84,6.0,6.0,0.0*22
$PSSGR,GSA,A,3,02,05,13,15,21,24,29,,,,,,1.5,0.8,1.3,1,1*4D
$PSSGR,GSA,A,3,,,,,,,,,,,,,1.5,0.8,1.3,1,8*4B
$PSSGR,GSA,A,3,66,67,75,76,,,,,,,,,1.5,0.8,1.3,2,1*43
$PSSGR,GSA,A,3,01,02,,,,,,,,,,,1.5,0.8,1.3,5,1*45
$PSSGR,GSA,A,3,01,02,,,,,,,,,,,1.5,0.8,1.3,5,8*4C
$PSSGR,GSA,A,3,206,213,216,220,223,229,237,,,,,,1.5,0.8,1.3,4,3*78
$PSSGR,GSA,A,3,,,,,,,,,,,,,1.5,0.8,1.3,4,5*43
$PSSGR,GSA,A,3,101,109,,,,,,,,,,,1.5,0.8,1.3,3,7*4E
$PSSGR,GSA,A,3,121,,,,,,,,,,,,1.5,0.8,1.3,3,1*72
$PSSGR,GSA,A,3,,,,,,,,,,,,,1.5,0.8,1.3,6,1*45
$GPGSV,4,1,10,15,69,277,38,13,67,034,38,05,48,084,40,21,32,311,32*71
$GPGSV,4,2,10,24,21,188,27,29,21,240,36,30,19,046,29,02,15,157,27*76
$GPGSV,4,3,10,20,09,297,22*48
$GPGSV,4,4,10,24,,,26,8*6E
$GLGSV,2,1,08,66,47,031,36,67,45,306,33,81,36,211,32,76,32,089,38*6A
$GLGSV,2,2,08,75,17,037,29,83,17,331,20,77,16,145,28,65,00,074,*65
$QZGSV,2,1,07,01,77,069,35,07,47,179,,02,23,152,26,03,15,182,21*6C
$QZGSV,2,2,07,01,,,29,02,,,28,03,,,25,8*70
$BDGSV,5,1,17,213,73,260,31,206,68,262,32,208,63,180,26,232,62,038,28*61
$BDGSV,5,2,17,216,62,259,36,220,44,297,37,209,40,244,31,223,37,095,36*6A
$BDGSV,5,3,17,230,31,226,,229,29,289,33,237,25,155,30,203,44,206,*6A
$BDGSV,5,4,17,225,15,044,,205,10,258,,227,04,181,,235,02,330,*6A
$BDGSV,5,5,17,202,25,234,*6C
$GAGSV,4,1,13,104,72,344,30,109,33,265,31,112,31,180,23,119,27,059,*6C
$GAGSV,4,2,13,136,27,315,28,121,16,067,25,101,16,118,27,131,00,163,*6E
$GAGSV,4,3,13,109,,,28,112,,,30,136,,,26,121,,,27,1*74
$GAGSV,4,4,13,101,,,25,1*40
$GPGSA,A,3,02,05,13,15,21,24,29,,,,,,1.5,0.8,1.3*33
$GPGSA,A,3,,,,,,,,,,,,,1.5,0.8,1.3,8*28
$QZGSA,A,3,01,02,,,,,,,,,,,1.5,0.8,1.3*23
$QZGSA,A,3,01,02,,,,,,,,,,,1.5,0.8,1.3,8*37
$BDGSA,A,3,206,213,216,220,223,229,237,,,,,,1.5,0.8,1.3*10
$BDGSA,A,3,,,,,,,,,,,,,1.5,0.8,1.3,5*34
$GAGSA,A,3,101,109,,,,,,,,,,,1.5,0.8,1.3*25
$GAGSA,A,3,121,,,,,,,,,,,,1.5,0.8,1.3,1*02
$NCGSA,A,3,,,,,,,,,,,,,1.5,0.8,1.3,1*3B
$GNGSA,A,3,02,05,13,15,21,24,29,,,,,,1.5,0.8,1.3*2D
$GNGSA,A,3,66,67,75,76,,,,,,,,,1.5,0.8,1.3*20
$GPRMC,030503.00,A,3722.838978,N,12640.695349,E,034.6,212.1,231119,,,A*57
$GPGGA,030504.00,3722.829620,N,12640.687466,E,1,24,0.6,15.3,M,17.8,M,,*58
$PGLOR,10,STA,030504.00,0.002,0.000,178,1,6,0,P,D,L,0,C,2,S,00300002,99,5,R,000833F4,TPEF,54,70134,LC,,,DR,0,*6E
$PGLOR,1,UNC,030504.00,0.010,6.0,3.0,0.07,1.25,6.0,6.0,0.0*2A
$PSSGR,GSA,A,3,02,05,13,15,21,24,29,,,,,,1.5,0.8,1.3,1,1*4D
$PSSGR,GSA,A,3,,,,,,,,,,,,,1.5,0.8,1.3,1,8*4B
$PSSGR,GSA,A,3,66,67,75,76,,,,,,,,,1.5,0.8,1.3,2,1*43
$PSSGR,GSA,A,3,01,02,,,,,,,,,,,1.5,0.8,1.3,5,1*45
$PSSGR,GSA,A,3,01,,,,,,,,,,,,1.5,0.8,1.3,5,8*4E
$PSSGR,GSA,A,3,206,208,213,216,220,223,229,237,,,,,1.5,0.8,1.3,4,3*42
$PSSGR,GSA,A,3,,,,,,,,,,,,,1.5,0.8,1.3,4,5*43
$PSSGR,GSA,A,3,109,,,,,,,,,,,,1.5,0.8,1.3,3,7*7E
$PSSGR,GSA,A,3,109,,,,,,,,,,,,1.5,0.8,1.3,3,1*78
$PSSGR,GSA,A,3,,,,,,,,,,,,,1.5,0.8,1.3,6,1*45
$GPGSV,4,1,10,15,69,277,38,13,67,034,38,05,48,084,40,21,32,311,32*71
$GPGSV,4,2,10,24,21,188,26,29,21,240,39,30,19,046,29,02,15,157,26*79
$GPGSV,4,3,10,20,09,297,21*4B
$GPGSV,4,4,10,24,,,25,8*6D
$GLGSV,2,1,08,66,47,031,35,67,45,306,32,81,36,211,31,76,32,089,38*6B
$GLGSV,2,2,08,75,17,037,32,83,17,331,20,77,16,145,28,65,00,074,*6F
$QZGSV,2,1,07,01,77,069,35,07,47,179,25,02,23,152,26,03,15,182,20*6A
$QZGSV,2,2,07,01,,,30,02,,,28,03,,,25,8*78
$BDGSV,5,1,17,213,73,260,30,206,68,262,32,208,63,180,27,232,62,038,27*6E
$BDGSV,5,2,17,216,62,259,36,220,44,297,37,209,40,244,31,223,37,095,35*69
$BDGSV,5,3,17,230,31,226,,229,29,289,33,237,25,155,29,203,44,206,*62
$BDGSV,5,4,17,225,15,044,,205,10,258,,227,04,181,,235,02,330,*6A
$BDGSV,5,5,17,202,25,234,*6C
$GAGSV,4,1,13,104,72,344,30,109,33,265,33,112,31,180,23,119,27,059,25*69
$GAGSV,4,2,13,136,27,315,28,121,16,067,24,101,16,118,27,131,00,163,*6F
$GAGSV,4,3,13,109,,,28,112,,,29,136,,,26,121,,,27,1*7C
$GAGSV,4,4,13,101,,,24,1*41
$GPGSA,A,3,02,05,13,15,21,24,29,,,,,,1.5,0.8,1.3*33
$GPGSA,A,3,,,,,,,,,,,,,1.5,0.8,1.3,8*28
$QZGSA,A,3,01,02,,,,,,,,,,,1.5,0.8,1.3*23
$QZGSA,A,3,01,,,,,,,,,,,,1.5,0.8,1.3,8*35
$BDGSA,A,3,206,208,213,216,220,223,229,237,,,,,1.5,0.8,1.3*2A
$BDGSA,A,3,,,,,,,,,,,,,1.5,0.8,1.3,5*34
$GAGSA,A,3,109,,,,,,,,,,,,1.5,0.8,1.3*15
$GAGSA,A,3,109,,,,,,,,,,,,1.5,0.8,1.3,1*08
$NCGSA,A,3,,,,,,,,,,,,,1.5,0.8,1.3,1*3B
$GNGSA,A,3,02,05,13,15,21,24,29,,,,,,1.5,0.8,1.3*2D
$GNGSA,A,3,66,67,75,76,,,,,,,,,1.5,0.8,1.3*20
$GPRMC,030504.00,A,3722.829620,N,12640.687466,E,039.6,213.7,231119,,,A*51
$GPGGA,030505.00,3722.819317,N,12640.678674,E,1,25,0.6,15.3,M,17.8,M,,*5B
$PGLOR,10,STA,030505.00,0.002,0.000,178,1,6,0,P,D,L,0,C,2,S,00300002,122,5,R,000833F4,TPEF,54,71134,LC,,,DR,0,*5F
$PGLOR,1,UNC,030505.00,0.010,6.0,3.0,0.04,1.00,6.0,6.0,0.0*2F
$PSSGR,GSA,A,3,02,05,13,15,21,29,,,,,,,1.5,0.8,1.3,1,1*4B
$PSSGR,GSA,A,3,,,,,,,,,,,,,1.5,0.8,1.3,1,8*4B
$PSSGR,GSA,A,3,66,75,76,81,,,,,,,,,1.5,0.8,1.3,2,1*4B
$PSSGR,GSA,A,3,01,02,,,,,,,,,,,1.5,0.8,1.3,5,1*45
$PSSGR,GSA,A,3,01,,,,,,,,,,,,1.5,0.8,1.3,5,8*4E
$PSSGR,GSA,A,3,206,208,213,216,220,223,229,237,,,,,1.5,0.8,1.3,4,3*42
$PSSGR,GSA,A,3,,,,,,,,,,,,,1.5,0.8,1.3,4,5*43
$PSSGR,GSA,A,3,101,109,136,,,,,,,,,,1.5,0.8,1.3,3,7*7A
$PSSGR,GSA,A,3,109,,,,,,,,,,,,1.5,0.8,1.3,3,1*78
$PSSGR,GSA,A,3,,,,,,,,,,,,,1.5,0.8,1.3,6,1*45
$GPGSV,4,1,10,15,69,277,38,13,67,034,38,05,48,084,40,21,32,311,34*77
$GPGSV,4,2,10,24,21,188,25,29,21,240,40,30,19,046,30,02,15,157,25*7F
$GPGSV,4,3,10,20,09,297,21*4B
$GPGSV,4,4,10,24,,,,8*6A
$GLGSV,2,1,08,66,47,031,34,67,45,306,31,81,36,211,30,76,32,089,38*68
$GLGSV,2,2,08,75,17,037,32,83,17,331,22,77,16,145,27,65,00,074,*62
$QZGSV,2,1,07,01,77,069,35,07,47,179,25,02,23,152,25,03,15,182,20*69
$QZGSV,2,2,07,01,,,29,02,,,27,03,,,24,8*7E
$BDGSV,5,1,17,213,73,260,30,206,68,262,31,208,63,180,26,232,62,038,*69
$BDGSV,5,2,17,216,62,259,35,220,44,297,37,209,40,244,30,223,37,095,35*6B
$BDGSV,5,3,17,230,31,226,,229,29,289,33,237,25,155,28,203,44,206,*63
$BDGSV,5,4,17,225,15,044,,205,10,258,,227,04,181,,235,02,330,*6A
$BDGSV,5,5,17,202,25,234,*6C
$GAGSV,4,1,13,104,72,344,29,109,33,265,34,112,31,180,22,119,27,059,25*67
$GAGSV,4,2,13,136,27,315,28,121,16,067,23,101,16,118,27,131,00,163,*68
$GAGSV,4,3,13,109,,,28,112,,,28,136,,,25,121,,,26,1*7F
$GAGSV,4,4,13,101,,,23,1*46
$GPGSA,A,3,02,05,13,15,21,29,,,,,,,1.5,0.8,1.3*35
$GPGSA,A,3,,,,,,,,,,,,,1.5,0.8,1.3,8*28
$QZGSA,A,3,01,02,,,,,,,,,,,1.5,0.8,1.3*23
$QZGSA,A,3,01,,,,,,,,,,,,1.5,0.8,1.3,8*35
$BDGSA,A,3,206,208,213,216,220,223,229,237,,,,,1.5,0.8,1.3*2A
$BDGSA,A,3,,,,,,,,,,,,,1.5,0.8,1.3,5*34
$GAGSA,A,3,101,109,136,,,,,,,,,,1.5,0.8,1.3*11
$GAGSA,A,3,109,,,,,,,,,,,,1.5,0.8,1.3,1*08
$NCGSA,A,3,,,,,,,,,,,,,1.5,0.8,1.3,1*3B
$GNGSA,A,3,02,05,13,15,21,29,,,,,,,1.5,0.8,1.3*2B
$GNGSA,A,3,66,75,76,81,,,,,,,,,1.5,0.8,1.3*28
$GPRMC,030505.00,A,3722.819317,N,12640.678674,E,044.0,214.3,231119,,,A*5C
$GPGGA,030506.00,3722.808492,N,12640.669256,E,1,29,0.6,15.3,M,17.8,M,,*5A
$PGLOR,10,STA,030506.00,0.002,0.000,178,1,6,0,P,D,L,0,C,2,S,00300002,146,5,R,000833F4,TPEF,54,72134,LC,,,DR,0,*5D
$PGLOR,1,UNC,030506.00,0.010,6.0,3.0,0.04,1.00,6.0,6.0,0.0*2C
$PSSGR,GSA,A,3,02,05,13,15,21,29,,,,,,,1.5,0.8,1.3,1,1*4B
$PSSGR,GSA,A,3,,,,,,,,,,,,,1.5,0.8,1.3,1,8*4B
$PSSGR,GSA,A,3,66,67,75,76,81,,,,,,,,1.5,0.8,1.3,2,1*4A
$PSSGR,GSA,A,3,01,03,,,,,,,,,,,1.5,0.8,1.3,5,1*44
$PSSGR,GSA,A,3,01,03,,,,,,,,,,,1.5,0.8,1.3,5,8*4D
$PSSGR,GSA,A,3,206,208,213,216,220,223,229,237,,,,,1.5,0.8,1.3,4,3*42
$PSSGR,GSA,A,3,,,,,,,,,,,,,1.5,0.8,1.3,4,5*43
$PSSGR,GSA,A,3,101,109,112,136,,,,,,,,,1.5,0.8,1.3,3,7*48
$PSSGR,GSA,A,3,109,112,,,,,,,,,,,1.5,0.8,1.3,3,1*4A
$PSSGR,GSA,A,3,,,,,,,,,,,,,1.5,0.8,1.3,6,1*45
$GPGSV,4,1,10,15,69,277,38,13,67,034,37,05,48,084,40,21,32,311,35*79
$GPGSV,4,2,10,24,21,188,24,29,21,240,40,30,19,046,30,02,15,157,25*7E
$GPGSV,4,3,10,20,09,297,21*4B
$GPGSV,4,4,10,24,,,23,8*6B
$GLGSV,2,1,08,66,47,031,34,67,45,306,30,81,36,211,29,76,32,089,37*6E
$GLGSV,2,2,08,75,17,037,31,83,17,331,22,77,16,145,27,65,00,074,*61
$QZGSV,2,1,07,01,77,069,35,07,47,179,25,02,23,152,25,03,15,182,25*6C
$QZGSV,2,2,07,01,,,30,02,,,26,03,,,24,8*77
$BDGSV,5,1,17,213,73,260,29,206,68,262,31,208,63,180,26,232,62,038,25*66
$BDGSV,5,2,17,216,62,259,34,220,44,297,36,209,40,244,30,223,37,095,35*6B
$BDGSV,5,3,17,230,31,226,24,229,29,289,33,237,25,155,28,203,44,206,*65
$BDGSV,5,4,17,225,15,044,,205,10,258,,227,04,181,,235,02,330,*6A
$BDGSV,5,5,17,202,25,234,*6C
$GAGSV,4,1,13,104,72,344,28,109,33,265,34,112,31,180,22,119,27,059,25*66
$GAGSV,4,2,13,136,27,315,29,121,16,067,23,101,16,118,26,131,00,163,*68
$GAGSV,4,3,13,109,,,27,112,,,28,136,,,25,121,,,25,1*73
$GAGSV,4,4,13,101,,,22,1*47
$GPGSA,A,3,02,05,13,15,21,29,,,,,,,1.5,0.8,1.3*35
$GPGSA,A,3,,,,,,,,,,,,,1.5,0.8,1.3,8*28
$QZGSA,A,3,01,03,,,,,,,,,,,1.5,0.8,1.3*22
$QZGSA,A,3,01,03,,,,,,,,,,,1.5,0.8,1.3,8*36
$BDGSA,A,3,206,208,213,216,220,223,229,237,,,,,1.5,0.8,1.3*2A
$BDGSA,A,3,,,,,,,,,,,,,1.5,0.8,1.3,5*34
$GAGSA,A,3,101,109,112,136,,,,,,,,,1.5,0.8,1.3*23
$GAGSA,A,3,109,112,,,,,,,,,,,1.5,0.8,1.3,1*3A
$NCGSA,A,3,,,,,,,,,,,,,1.5,0.8,1.3,1*3B
$GNGSA,A,3,02,05,13,15,21,29,,,,,,,1.5,0.8,1.3*2B
$GNGSA,A,3,66,67,75,76,81,,,,,,,,1.5,0.8,1.3*29
$GPRMC,030506.00,A,3722.808492,N,12640.669256,E,046.5,214.9,231119,,,A*5C
$GPGGA,030507.00,3722.797555,N,12640.659456,E,1,28,0.4,15.2,M,17.8,M,,*5F
$PGLOR,10,STA,030507.00,0.002,0.000,178,1,4,0,P,D,L,0,C,2,S,00300002,171,5,R,000833F4,TPEF,54,73134,LC,,,DR,0,*5B
$PGLOR,1,UNC,030507.00,0.010,4.0,3.0,0.04,1.00,4.0,4.0,0.0*2F
$PSSGR,GSA,A,3,02,05,13,15,21,29,,,,,,,1.5,0.8,1.3,1,1*4B
$PSSGR,GSA,A,3,,,,,,,,,,,,,1.5,0.8,1.3,1,8*4B
$PSSGR,GSA,A,3,66,67,75,76,,,,,,,,,1.5,0.8,1.3,2,1*43
$PSSGR,GSA,A,3,01,02,03,,,,,,,,,,1.5,0.8,1.3,5,1*46
$PSSGR,GSA,A,3,01,03,,,,,,,,,,,1.5,0.8,1.3,5,8*4D
$PSSGR,GSA,A,3,206,208,213,216,220,223,229,230,,,,,1.5,0.8,1.3,4,3*45
$PSSGR,GSA,A,3,,,,,,,,,,,,,1.5,0.8,1.3,4,5*43
$PSSGR,GSA,A,3,109,112,136,,,,,,,,,,1.5,0.8,1.3,3,7*78
$PSSGR,GSA,A,3,112,136,,,,,,,,,,,1.5,0.8,1.3,3,1*46
$PSSGR,GSA,A,3,,,,,,,,,,,,,1.5,0.8,1.3,6,1*45
$GPGSV,4,1,10,15,69,277,39,13,67,034,37,05,48,084,40,21,32,311,36*7B
$GPGSV,4,2,10,24,21,188,23,29,21,240,39,30,19,046,29,02,15,157,30*7B
$GPGSV,4,3,10,20,09,297,21*4B
$GPGSV,4,4,10,24,,,26,8*6E
$GLGSV,2,1,08,66,47,031,33,67,45,306,30,81,36,211,29,76,32,089,37*69
$GLGSV,2,2,08,75,17,037,31,83,17,331,22,77,16,145,26,65,00,074,*60
$QZGSV,2,1,07,01,77,069,34,07,47,179,25,02,23,152,25,03,15,182,26*6E
$QZGSV,2,2,07,01,,,32,02,,,26,03,,,25,8*74
$BDGSV,5,1,17,213,73,260,29,206,68,262,30,208,63,180,26,232,62,038,31*62
$BDGSV,5,2,17,216,62,259,33,220,44,297,36,209,40,244,30,223,37,095,37*6E
$BDGSV,5,3,17,230,31,226,26,229,29,289,35,237,25,155,27,203,44,206,*6E
$BDGSV,5,4,17,225,15,044,,205,10,258,,227,04,181,,235,02,330,*6A
$BDGSV,5,5,17,202,25,234,*6C
$GAGSV,4,1,13,104,72,344,28,109,33,265,34,112,31,180,26,119,27,059,25*62
$GAGSV,4,2,13,136,27,315,32,121,16,067,22,101,16,118,27,131,00,163,*62
$GAGSV,4,3,13,109,,,27,112,,,31,136,,,25,121,,,24,1*7A
$GAGSV,4,4,13,101,,,22,1*47
$GPGSA,A,3,02,05,13,15,21,29,,,,,,,1.5,0.8,1.3*35
$GPGSA,A,3,,,,,,,,,,,,,1.5,0.8,1.3,8*28
$QZGSA,A,3,01,02,03,,,,,,,,,,1.5,0.8,1.3*20
$QZGSA,A,3,01,03,,,,,,,,,,,1.5,0.8,1.3,8*36
$BDGSA,A,3,206,208,213,216,220,223,229,230,,,,,1.5,0.8,1.3*2D
$BDGSA,A,3,,,,,,,,,,,,,1.5,0.8,1.3,5*34
$GAGSA,A,3,109,112,136,,,,,,,,,,1.5,0.8,1.3*13
$GAGSA,A,3,112,136,,,,,,,,,,,1.5,0.8,1.3,1*36
$NCGSA,A,3,,,,,,,,,,,,,1.5,0.8,1.3,1*3B
$GNGSA,A,3,02,05,13,15,21,29,,,,,,,1.5,0.8,1.3*2B
$GNGSA,A,3,66,67,75,76,,,,,,,,,1.5,0.8,1.3*20
$GPRMC,030507.00,A,3722.797555,N,12640.659456,E,047.2,215.8,231119,,,A*5D
$GPGGA,030508.00,3722.786720,N,12640.649501,E,1,32,0.4,15.0,M,17.8,M,,*5B
$PGLOR,10,STA,030508.00,0.002,0.000,178,1,4,0,P,D,L,0,C,2,S,00300002,196,5,R,000833F4,TPEF,54,74134,LC,,,DR,0,*5A
$PGLOR,1,UNC,030508.00,0.010,4.0,3.0,0.04,1.00,4.0,4.0,0.0*20
$PSSGR,GSA,A,3,02,05,13,15,21,29,,,,,,,1.5,0.8,1.3,1,1*4B
$PSSGR,GSA,A,3,24,,,,,,,,,,,,1.5,0.8,1.3,1,8*4D
$PSSGR,GSA,A,3,66,67,75,76,81,,,,,,,,1.5,0.8,1.3,2,1*4A
$PSSGR,GSA,A,3,01,02,03,,,,,,,,,,1.5,0.8,1.3,5,1*46
$PSSGR,GSA,A,3,01,03,,,,,,,,,,,1.5,0.8,1.3,5,8*4D
$PSSGR,GSA,A,3,206,208,213,216,220,223,229,230,237,,,,1.5,0.8,1.3,4,3*73
$PSSGR,GSA,A,3,,,,,,,,,,,,,1.5,0.8,1.3,4,5*43
$PSSGR,GSA,A,3,101,109,112,136,,,,,,,,,1.5,0.8,1.3,3,7*48
$PSSGR,GSA,A,3,112,136,,,,,,,,,,,1.5,0.8,1.3,3,1*46
$PSSGR,GSA,A,3,,,,,,,,,,,,,1.5,0.8,1.3,6,1*45
$GPGSV,4,1,10,15,69,277,40,13,67,034,37,05,48,084,40,21,32,311,36*75
$GPGSV,4,2,10,24,21,188,23,29,21,240,39,30,19,046,,02,15,157,30*70
$GPGSV,4,3,10,20,09,297,21*4B
$GPGSV,4,4,10,24,,,27,8*6F
$GLGSV,2,1,08,66,47,031,35,67,45,306,29,81,36,211,29,76,32,089,37*67
$GLGSV,2,2,08,75,17,037,31,83,17,331,25,77,16,145,25,65,00,074,*64
$QZGSV,2,1,07,01,77,069,34,07,47,179,25,02,23,152,25,03,15,182,26*6E
$QZGSV,2,2,07,01,,,33,02,,,25,03,,,26,8*75
$BDGSV,5,1,17,213,73,260,28,206,68,262,29,208,63,180,26,232,62,038,31*6B
$BDGSV,5,2,17,216,62,259,33,220,44,297,35,209,40,244,30,223,37,095,38*62
$BDGSV,5,3,17,230,31,226,26,229,29,289,35,237,25,155,27,203,44,206,*6E
$BDGSV,5,4,17,225,15,044,,205,10,258,,227,04,181,,235,02,330,*6A
$BDGSV,5,5,17,202,25,234,*6C
$GAGSV,4,1,13,104,72,344,28,109,33,265,33,112,31,180,26,119,27,059,25*65
$GAGSV,4,2,13,136,27,315,33,121,16,067,22,101,16,118,28,131,00,163,*6C
$GAGSV,4,3,13,109,,,27,112,,,32,136,,,25,121,,,23,1*7E
$GAGSV,4,4,13,101,,,22,1*47
$GPGSA,A,3,02,05,13,15,21,29,,,,,,,1.5,0.8,1.3*35
$GPGSA,A,3,24,,,,,,,,,,,,1.5,0.8,1.3,8*2E
$QZGSA,A,3,01,02,03,,,,,,,,,,1.5,0.8,1.3*20
$QZGSA,A,3,01,03,,,,,,,,,,,1.5,0.8,1.3,8*36
$BDGSA,A,3,206,208,213,216,220,223,229,230,237,,,,1.5,0.8,1.3*1B
$BDGSA,A,3,,,,,,,,,,,,,1.5,0.8,1.3,5*34
$GAGSA,A,3,101,109,112,136,,,,,,,,,1.5,0.8,1.3*23
$GAGSA,A,3,112,136,,,,,,,,,,,1.5,0.8,1.3,1*36
$NCGSA,A,3,,,,,,,,,,,,,1.5,0.8,1.3,1*3B
$GNGSA,A,3,02,05,13,15,21,29,,,,,,,1.5,0.8,1.3*2B
$GNGSA,A,3,66,67,75,76,81,,,,,,,,1.5,0.8,1.3*29
$GPRMC,030508.00,A,3722.786720,N,12640.649501,E,047.5,216.7,231119,,,A*5B
$GPGGA,030509.00,3722.775967,N,12640.639509,E,1,31,0.4,15.0,M,17.8,M,,*57
$PGLOR,10,STA,030509.00,0.002,0.000,178,1,4,0,P,D,L,0,C,2,S,00300002,221,5,R,000833F4,TPEF,54,75134,LC,,,DR,0,*55
$PGLOR,1,UNC,030509.00,0.010,4.0,3.0,0.03,1.00,4.0,4.0,0.0*26
$PSSGR,GSA,A,3,02,05,13,15,21,29,,,,,,,1.6,0.8,1.4,1,1*4F
$PSSGR,GSA,A,3,24,,,,,,,,,,,,1.6,0.8,1.4,1,8*49
$PSSGR,GSA,A,3,66,67,75,76,81,,,,,,,,1.6,0.8,1.4,2,1*4E
$PSSGR,GSA,A,3,01,02,03,,,,,,,,,,1.6,0.8,1.4,5,1*42
$PSSGR,GSA,A,3,01,03,,,,,,,,,,,1.6,0.8,1.4,5,8*49
$PSSGR,GSA,A,3,206,213,216,220,223,229,230,237,,,,,1.6,0.8,1.4,4,3*4D
$PSSGR,GSA,A,3,,,,,,,,,,,,,1.6,0.8,1.4,4,5*47
$PSSGR,GSA,A,3,101,112,136,,,,,,,,,,1.6,0.8,1.4,3,7*74
$PSSGR,GSA,A,3,109,112,136,,,,,,,,,,1.6,0.8,1.4,3,1*7A
$PSSGR,GSA,A,3,,,,,,,,,,,,,1.6,0.8,1.4,6,1*41
$GPGSV,4,1,10,15,69,277,40,13,67,034,37,05,48,084,39,21,32,311,36*7B
$GPGSV,4,2,10,24,21,188,22,29,21,240,39,30,19,046,26,02,15,157,30*75
$GPGSV,4,3,10,20,09,297,21*4B
$GPGSV,4,4,10,24,,,27,8*6F
$GLGSV,2,1,08,66,47,031,35,67,45,306,29,81,36,211,31,76,32,089,37*6E
$GLGSV,2,2,08,75,17,037,31,83,17,331,25,77,16,145,,65,00,074,*63
$QZGSV,2,1,07,01,77,069,34,07,47,179,25,02,23,152,25,03,15,182,25*6D
$QZGSV,2,2,07,01,,,33,02,,,25,03,,,26,8*75
$BDGSV,5,1,17,213,73,260,28,206,68,262,29,208,63,180,25,232,62,038,31*68
$BDGSV,5,2,17,216,62,259,33,220,44,297,35,209,40,244,31,223,37,095,39*62
$BDGSV,5,3,17,230,31,226,26,229,29,289,35,237,25,155,26,203,44,206,*6F
$BDGSV,5,4,17,225,15,044,,205,10,258,,227,04,181,,235,02,330,*6A
$BDGSV,5,5,17,202,25,234,*6C
$GAGSV,4,1,13,104,72,344,27,109,33,265,33,112,31,180,26,119,27,059,28*67
$GAGSV,4,2,13,136,27,315,34,121,16,067,21,101,16,118,28,131,00,163,*68
$GAGSV,4,3,13,109,,,27,112,,,32,136,,,24,121,,,23,1*7F
$GAGSV,4,4,13,101,,,22,1*47
$GPGSA,A,3,02,05,13,15,21,29,,,,,,,1.6,0.8,1.4*31
$GPGSA,A,3,24,,,,,,,,,,,,1.6,0.8,1.4,8*2A
$QZGSA,A,3,01,02,03,,,,,,,,,,1.6,0.8,1.4*24
$QZGSA,A,3,01,03,,,,,,,,,,,1.6,0.8,1.4,8*32
$BDGSA,A,3,206,213,216,220,223,229,230,237,,,,,1.6,0.8,1.4*25
$BDGSA,A,3,,,,,,,,,,,,,1.6,0.8,1.4,5*30
$GAGSA,A,3,101,112,136,,,,,,,,,,1.6,0.8,1.4*1F
$GAGSA,A,3,109,112,136,,,,,,,,,,1.6,0.8,1.4,1*0A
$NCGSA,A,3,,,,,,,,,,,,,1.6,0.8,1.4,1*3F
$GNGSA,A,3,02,05,13,15,21,29,,,,,,,1.6,0.8,1.4*2F
$GNGSA,A,3,66,67,75,76,81,,,,,,,,1.6,0.8,1.4*2D
$GPRMC,030509.00,A,3722.775967,N,12640.639509,E,047.3,217.1,231119,,,A*55
$GPGGA,030510.00,3722.765236,N,12640.629419,E,1,31,0.4,14.8,M,17.8,M,,*59
$PGLOR,10,STA,030510.00,0.002,0.000,178,1,4,0,P,D,L,0,C,2,S,00300002,246,5,R,000833F4,TPEF,54,76134,LC,,,DR,0,*5F
$PGLOR,1,UNC,030510.00,0.009,4.0,3.0,0.04,1.00,4.0,4.0,0.0*21
$PSSGR,GSA,A,3,02,05,13,15,21,29,,,,,,,1.9,0.9,1.7,1,1*42
$PSSGR,GSA,A,3,24,,,,,,,,,,,,1.9,0.9,1.7,1,8*44
$PSSGR,GSA,A,3,66,67,75,76,81,,,,,,,,1.9,0.9,1.7,2,1*43
$PSSGR,GSA,A,3,01,02,03,,,,,,,,,,1.9,0.9,1.7,5,1*4F
$PSSGR,GSA,A,3,01,03,,,,,,,,,,,1.9,0.9,1.7,5,8*44
$PSSGR,GSA,A,3,206,213,216,220,223,229,230,237,,,,,1.9,0.9,1.7,4,3*40
$PSSGR,GSA,A,3,,,,,,,,,,,,,1.9,0.9,1.7,4,5*4A
$PSSGR,GSA,A,3,101,112,121,136,,,,,,,,,1.9,0.9,1.7,3,7*4B
$PSSGR,GSA,A,3,109,112,,,,,,,,,,,1.9,0.9,1.7,3,1*43
$PSSGR,GSA,A,3,,,,,,,,,,,,,1.9,0.9,1.7,6,1*4C
$GPGSV,4,1,10,15,69,277,40,13,67,034,36,05,48,084,39,21,32,311,36*7A
$GPGSV,4,2,10,24,21,188,22,29,21,240,39,30,19,046,26,02,15,157,29*7D
$GPGSV,4,3,10,20,09,297,21*4B
$GPGSV,4,4,10,24,,,27,8*6F
$GLGSV,2,1,08,66,47,031,35,67,45,306,29,81,36,211,32,76,32,089,37*6D
$GLGSV,2,2,08,75,17,037,31,83,17,331,24,77,16,145,23,65,00,074,*63
$QZGSV,2,1,07,01,77,069,34,07,47,179,25,02,23,152,25,03,15,182,25*6D
$QZGSV,2,2,07,01,,,33,02,,,24,03,,,26,8*74
$BDGSV,5,1,17,213,73,260,27,206,68,262,28,208,63,180,,232,62,038,31*61
$BDGSV,5,2,17,216,62,259,32,220,44,297,34,209,40,244,32,223,37,095,40*6F
$BDGSV,5,3,17,230,31,226,26,229,29,289,35,237,25,155,26,203,44,206,*6F
$BDGSV,5,4,17,225,15,044,,205,10,258,,227,04,181,,235,02,330,*6A
$BDGSV,5,5,17,202,25,234,*6C
$GAGSV,4,1,13,104,72,344,27,109,33,265,32,112,31,180,25,119,27,059,28*65
$GAGSV,4,2,13,136,27,315,34,121,16,067,21,101,16,118,28,131,00,163,*68
$GAGSV,4,3,13,109,,,27,112,,,31,136,,,24,121,,,22,1*7D
$GAGSV,4,4,13,101,,,21,1*44
$GPGSA,A,3,02,05,13,15,21,29,,,,,,,1.9,0.9,1.7*3C
$GPGSA,A,3,24,,,,,,,,,,,,1.9,0.9,1.7,8*27
$QZGSA,A,3,01,02,03,,,,,,,,,,1.9,0.9,1.7*29
$QZGSA,A,3,01,03,,,,,,,,,,,1.9,0.9,1.7,8*3F
$BDGSA,A,3,206,213,216,220,223,229,230,237,,,,,1.9,0.9,1.7*28
$BDGSA,A,3,,,,,,,,,,,,,1.9,0.9,1.7,5*3D
$GAGSA,A,3,101,112,121,136,,,,,,,,,1.9,0.9,1.7*20
$GAGSA,A,3,109,112,,,,,,,,,,,1.9,0.9,1.7,1*33
$NCGSA,A,3,,,,,,,,,,,,,1.9,0.9,1.7,1*32
$GNGSA,A,3,02,05,13,15,21,29,,,,,,,1.9,0.9,1.7*22
$GNGSA,A,3,66,67,75,76,81,,,,,,,,1.9,0.9,1.7*20
$GPRMC,030510.00,A,3722.765236,N,12640.629419,E,047.3,217.5,231119,,,A*56
$GPGGA,030511.00,3722.754549,N,12640.619252,E,1,31,0.4,14.9,M,17.8,M,,*5E
$PGLOR,10,STA,030511.00,0.002,0.000,178,1,4,0,P,D,L,0,C,2,S,00300002,270,5,R,000833F4,TPEF,54,77134,LC,,,DR,0,*5A
$PGLOR,1,UNC,030511.00,0.009,4.0,3.0,0.03,1.00,4.0,4.0,0.0*27
$PSSGR,GSA,A,3,02,05,13,15,21,29,,,,,,,1.5,0.8,1.3,1,1*4B
$PSSGR,GSA,A,3,24,,,,,,,,,,,,1.5,0.8,1.3,1,8*4D
$PSSGR,GSA,A,3,66,67,75,76,81,,,,,,,,1.5,0.8,1.3,2,1*4A
$PSSGR,GSA,A,3,01,02,03,,,,,,,,,,1.5,0.8,1.3,5,1*46
$PSSGR,GSA,A,3,01,,,,,,,,,,,,1.5,0.8,1.3,5,8*4E
$PSSGR,GSA,A,3,206,213,216,220,223,229,230,237,,,,,1.5,0.8,1.3,4,3*49
$PSSGR,GSA,A,3,,,,,,,,,,,,,1.5,0.8,1.3,4,5*43
$PSSGR,GSA,A,3,101,109,112,121,136,,,,,,,,1.5,0.8,1.3,3,7*7A
$PSSGR,GSA,A,3,109,112,,,,,,,,,,,1.5,0.8,1.3,3,1*4A
$PSSGR,GSA,A,3,,,,,,,,,,,,,1.5,0.8,1.3,6,1*45
$GPGSV,4,1,10,15,69,277,40,13,67,034,36,05,48,084,39,21,32,311,36*7A
$GPGSV,4,2,10,24,21,188,21,29,21,240,40,30,19,046,26,02,15,157,29*70
$GPGSV,4,3,10,20,09,297,21*4B
$GPGSV,4,4,10,24,,,27,8*6F
$GLGSV,2,1,08,66,47,031,37,67,45,306,29,81,36,211,34,76,32,089,38*66
$GLGSV,2,2,08,75,17,037,31,83,17,331,24,77,16,145,22,65,00,074,*62
$QZGSV,2,1,07,01,77,069,34,07,47,179,25,02,23,152,26,03,15,182,25*6E
$QZGSV,2,2,07,01,,,33,02,,,23,03,,,27,8*72
$BDGSV,5,1,17,213,73,260,27,206,68,262,28,208,63,180,,232,62,038,31*61
$BDGSV,5,2,17,216,62,259,32,220,44,297,33,209,40,244,31,223,37,095,40*6B
$BDGSV,5,3,17,230,31,226,26,229,29,289,35,237,25,155,26,203,44,206,*6F
$BDGSV,5,4,17,225,15,044,,205,10,258,,227,04,181,,235,02,330,*6A
$BDGSV,5,5,17,202,25,234,*6C
$GAGSV,4,1,13,104,72,344,26,109,33,265,32,112,31,180,25,119,27,059,28*64
$GAGSV,4,2,13,136,27,315,35,121,16,067,21,101,16,118,29,131,00,163,*68
$GAGSV,4,3,13,109,,,27,112,,,32,136,,,24,121,,,22,1*7E
$GAGSV,4,4,13,101,,,21,1*44
$GPGSA,A,3,02,05,13,15,21,29,,,,,,,1.5,0.8,1.3*35
$GPGSA,A,3,24,,,,,,,,,,,,1.5,0.8,1.3,8*2E
$QZGSA,A,3,01,02,03,,,,,,,,,,1.5,0.8,1.3*20
$QZGSA,A,3,01,,,,,,,,,,,,1.5,0.8,1.3,8*35
$BDGSA,A,3,206,213,216,220,223,229,230,237,,,,,1.5,0.8,1.3*21
$BDGSA,A,3,,,,,,,,,,,,,1.5,0.8,1.3,5*34
$GAGSA,A,3,101,109,112,121,136,,,,,,,,1.5,0.8,1.3*11
$GAGSA,A,3,109,112,,,,,,,,,,,1.5,0.8,1.3,1*3A
$NCGSA,A,3,,,,,,,,,,,,,1.5,0.8,1.3,1*3B
$GNGSA,A,3,02,05,13,15,21,29,,,,,,,1.5,0.8,1.3*2B
$GNGSA,A,3,66,67,75,76,81,,,,,,,,1.5,0.8,1.3*29
$GPRMC,030511.00,A,3722.754549,N,12640.619252,E,047.5,217.5,231119,,,A*56
$GPGGA,030512.00,3722.743840,N,12640.609240,E,1,32,0.4,14.8,M,17.8,M,,*5F
$PGLOR,10,STA,030512.00,0.002,0.000,178,1,4,0,P,D,L,0,C,2,S,00300002,295,5,R,000833F4,TPEF,54,78134,LC,,,DR,0,*5D
$PGLOR,1,UNC,030512.00,0.009,4.0,3.0,0.03,1.00,4.0,4.0,0.0*24
$PSSGR,GSA,A,3,02,05,13,15,21,29,,,,,,,1.5,0.8,1.3,1,1*4B
$PSSGR,GSA,A,3,24,,,,,,,,,,,,1.5,0.8,1.3,1,8*4D
$PSSGR,GSA,A,3,66,67,75,76,81,,,,,,,,1.5,0.8,1.3,2,1*4A
$PSSGR,GSA,A,3,01,02,03,,,,,,,,,,1.5,0.8,1.3,5,1*46
$PSSGR,GSA,A,3,01,03,,,,,,,,,,,1.5,0.8,1.3,5,8*4D
$PSSGR,GSA,A,3,206,213,216,220,223,229,230,237,,,,,1.5,0.8,1.3,4,3*49
$PSSGR,GSA,A,3,,,,,,,,,,,,,1.5,0.8,1.3,4,5*43
$PSSGR,GSA,A,3,101,109,112,121,136,,,,,,,,1.5,0.8,1.3,3,7*7A
$PSSGR,GSA,A,3,109,112,,,,,,,,,,,1.5,0.8,1.3,3,1*4A
$PSSGR,GSA,A,3,,,,,,,,,,,,,1.5,0.8,1.3,6,1*45
$GPGSV,4,1,10,15,69,277,40,13,67,034,36,05,48,084,38,21,32,311,36*7B
$GPGSV,4,2,10,24,21,188,21,29,21,240,40,30,19,046,26,02,15,157,28*71
$GPGSV,4,3,10,20,09,297,21*4B
$GPGSV,4,4,10,24,,,27,8*6F
$GLGSV,2,1,08,66,47,031,37,67,45,306,29,81,36,211,34,76,32,089,38*66
$GLGSV,2,2,08,75,17,037,30,83,17,331,25,77,16,145,,65,00,074,*62
$QZGSV,2,1,07,01,77,069,33,07,47,179,25,02,23,152,25,03,15,182,24*6B
$QZGSV,2,2,07,01,,,33,02,,,23,03,,,27,8*72
$BDGSV,5,1,17,213,73,260,27,206,68,262,27,208,63,180,,232,62,038,30*6F
$BDGSV,5,2,17,216,62,259,32,220,44,297,33,209,40,244,31,223,37,095,40*6B
$BDGSV,5,3,17,230,31,226,26,229,29,289,34,237,25,155,25,203,44,206,*6D
$BDGSV,5,4,17,225,15,044,,205,10,258,,227,04,181,,235,02,330,*6A
$BDGSV,5,5,17,202,25,234,*6C
$GAGSV,4,1,13,104,72,344,,109,33,265,32,112,31,180,25,119,27,059,28*60
$GAGSV,4,2,13,136,27,315,35,121,16,067,21,101,16,118,29,131,00,163,*68
$GAGSV,4,3,13,109,,,28,112,,,32,136,,,24,121,,,21,1*72
$GAGSV,4,4,13,101,,,21,1*44
$GPGSA,A,3,02,05,13,15,21,29,,,,,,,1.5,0.8,1.3*35
$GPGSA,A,3,24,,,,,,,,,,,,1.5,0.8,1.3,8*2E
$QZGSA,A,3,01,02,03,,,,,,,,,,1.5,0.8,1.3*20
$QZGSA,A,3,01,03,,,,,,,,,,,1.5,0.8,1.3,8*36
$BDGSA,A,3,206,213,216,220,223,229,230,237,,,,,1.5,0.8,1.3*21
$BDGSA,A,3,,,,,,,,,,,,,1.5,0.8,1.3,5*34
$GAGSA,A,3,101,109,112,121,136,,,,,,,,1.5,0.8,1.3*11
$GAGSA,A,3,109,112,,,,,,,,,,,1.5,0.8,1.3,1*3A
$NCGSA,A,3,,,,,,,,,,,,,1.5,0.8,1.3,1*3B
$GNGSA,A,3,02,05,13,15,21,29,,,,,,,1.5,0.8,1.3*2B
$GNGSA,A,3,66,67,75,76,81,,,,,,,,1.5,0.8,1.3*29
$GPRMC,030512.00,A,3722.743840,N,12640.609240,E,047.5,217.2,231119,,,A*52
$GPGGA,030513.00,3722.733054,N,12640.599514,E,1,31,0.4,14.9,M,17.8,M,,*5A
$PGLOR,10,STA,030513.00,0.002,0.000,177,1,4,0,P,D,L,0,C,2,S,00300002,320,5,R,000833F4,TPEF,54,79134,LC,,,DR,0,*5D
$PGLOR,1,UNC,030513.00,0.009,4.0,3.0,0.04,1.00,4.0,4.0,0.0*22
$PSSGR,GSA,A,3,02,05,13,15,21,29,,,,,,,1.9,0.9,1.7,1,1*42
$PSSGR,GSA,A,3,24,,,,,,,,,,,,1.9,0.9,1.7,1,8*44
$PSSGR,GSA,A,3,66,67,75,76,81,,,,,,,,1.9,0.9,1.7,2,1*43
$PSSGR,GSA,A,3,01,02,03,,,,,,,,,,1.9,0.9,1.7,5,1*4F
$PSSGR,GSA,A,3,01,03,,,,,,,,,,,1.9,0.9,1.7,5,8*44
$PSSGR,GSA,A,3,206,216,220,223,229,230,237,,,,,,1.9,0.9,1.7,4,3*70
$PSSGR,GSA,A,3,,,,,,,,,,,,,1.9,0.9,1.7,4,5*4A
$PSSGR,GSA,A,3,101,109,121,136,,,,,,,,,1.9,0.9,1.7,3,7*41
$PSSGR,GSA,A,3,109,112,136,,,,,,,,,,1.9,0.9,1.7,3,1*77
$PSSGR,GSA,A,3,,,,,,,,,,,,,1.9,0.9,1.7,6,1*4C
$GPGSV,4,1,10,15,69,277,40,13,67,034,36,05,48,084,38,21,32,311,37*7A
$GPGSV,4,2,10,24,21,188,21,29,21,240,40,30,19,046,26,02,15,157,28*71
$GPGSV,4,3,10,20,09,297,21*4B
$GPGSV,4,4,10,24,,,27,8*6F
$GLGSV,2,1,08,66,47,031,37,67,45,306,28,81,36,211,33,76,32,089,37*6F
$GLGSV,2,2,08,75,17,037,31,83,17,331,26,77,16,145,26,65,00,074,*64
$QZGSV,2,1,07,01,77,069,33,07,47,179,24,02,23,152,25,03,15,182,24*6A
$QZGSV,2,2,07,01,,,33,02,,,23,03,,,27,8*72
$BDGSV,5,1,17,213,73,260,27,206,68,262,28,208,63,180,20,232,62,038,30*62
$BDGSV,5,2,17,216,62,259,32,220,44,297,33,209,40,244,31,223,37,095,40*6B
$BDGSV,5,3,17,230,31,226,27,229,29,289,34,237,25,155,25,203,44,206,*6C
$BDGSV,5,4,17,225,15,044,,205,10,258,,227,04,181,,235,02,330,*6A
$BDGSV,5,5,17,202,25,234,*6C
$GAGSV,4,1,13,104,72,344,25,109,33,265,33,112,31,180,25,119,27,059,27*69
$GAGSV,4,2,13,136,27,315,35,121,16,067,20,101,16,118,29,131,00,163,*69
$GAGSV,4,3,13,109,,,30,112,,,32,136,,,24,121,,,21,1*7B
$GAGSV,4,4,13,101,,,20,1*45
$GPGSA,A,3,02,05,13,15,21,29,,,,,,,1.9,0.9,1.7*3C
$GPGSA,A,3,24,,,,,,,,,,,,1.9,0.9,1.7,8*27
$QZGSA,A,3,01,02,03,,,,,,,,,,1.9,0.9,1.7*29
$QZGSA,A,3,01,03,,,,,,,,,,,1.9,0.9,1.7,8*3F
$BDGSA,A,3,206,216,220,223,229,230,237,,,,,,1.9,0.9,1.7*18
$BDGSA,A,3,,,,,,,,,,,,,1.9,0.9,1.7,5*3D
$GAGSA,A,3,101,109,121,136,,,,,,,,,1.9,0.9,1.7*2A
$GAGSA,A,3,109,112,136,,,,,,,,,,1.9,0.9,1.7,1*07
$NCGSA,A,3,,,,,,,,,,,,,1.9,0.9,1.7,1*32
$GNGSA,A,3,02,05,13,15,21,29,,,,,,,1.9,0.9,1.7*22
$GNGSA,A,3,66,67,75,76,81,,,,,,,,1.9,0.9,1.7*20
$GPRMC,030513.00,A,3722.733054,N,12640.599514,E,047.5,215.7,231119,,,A*52
$GPGGA,030514.00,3722.722173,N,12640.589874,E,1,30,0.4,14.9,M,17.8,M,,*52
$PGLOR,10,STA,030514.00,0.002,0.000,178,1,4,0,P,D,L,0,C,2,S,00300002,344,5,R,000833F4,TPEF,54,80134,LC,,,DR,0,*51
$PGLOR,1,UNC,030514.00,0.009,4.0,3.0,0.04,1.00,4.0,4.0,0.0*25
$PSSGR,GSA,A,3,02,05,13,15,21,29,,,,,,,1.5,0.8,1.3,1,1*4B
$PSSGR,GSA,A,3,,,,,,,,,,,,,1.5,0.8,1.3,1,8*4B
$PSSGR,GSA,A,3,66,67,75,76,81,,,,,,,,1.5,0.8,1.3,2,1*4A
$PSSGR,GSA,A,3,01,02,03,,,,,,,,,,1.5,0.8,1.3,5,1*46
$PSSGR,GSA,A,3,01,03,,,,,,,,,,,1.5,0.8,1.3,5,8*4D
$PSSGR,GSA,A,3,206,213,216,220,223,229,230,,,,,,1.5,0.8,1.3,4,3*7F
$PSSGR,GSA,A,3,,,,,,,,,,,,,1.5,0.8,1.3,4,5*43
$PSSGR,GSA,A,3,101,109,112,136,,,,,,,,,1.5,0.8,1.3,3,7*48
$PSSGR,GSA,A,3,109,112,136,,,,,,,,,,1.5,0.8,1.3,3,1*7E
$PSSGR,GSA,A,3,,,,,,,,,,,,,1.5,0.8,1.3,6,1*45
$GPGSV,4,1,10,15,69,277,41,13,67,034,36,05,48,084,38,21,32,311,37*7B
$GPGSV,4,2,10,24,21,188,21,29,21,240,40,30,19,046,27,02,15,157,29*71
$GPGSV,4,3,10,20,09,297,21*4B
$GPGSV,4,4,10,24,,,27,8*6F
$GLGSV,2,1,08,66,47,031,38,67,45,306,28,81,36,211,32,76,32,089,37*61
$GLGSV,2,2,08,75,17,037,31,83,17,331,26,77,16,145,26,65,00,074,*64
$QZGSV,2,1,07,01,77,069,33,07,47,179,24,02,23,152,25,03,15,182,24*6A
$QZGSV,2,2,07,01,,,34,02,,,23,03,,,26,8*74
$BDGSV,5,1,17,213,73,260,26,206,68,262,27,208,63,180,20,232,62,038,30*6C
$BDGSV,5,2,17,216,62,259,32,220,44,297,32,209,40,244,31,223,37,095,40*6A
$BDGSV,5,3,17,230,31,226,27,229,29,289,35,237,25,155,24,203,44,206,*6C
$BDGSV,5,4,17,225,15,044,,205,10,258,,227,04,181,,235,02,330,*6A
$BDGSV,5,5,17,202,25,234,*6C
$GAGSV,4,1,13,104,72,344,25,109,33,265,34,112,31,180,26,119,27,059,26*6C
$GAGSV,4,2,13,136,27,315,34,121,16,067,20,101,16,118,28,131,00,163,*69
$GAGSV,4,3,13,109,,,30,112,,,31,136,,,24,121,,,20,1*79
$GAGSV,4,4,13,101,,,20,1*45
$GPGSA,A,3,02,05,13,15,21,29,,,,,,,1.5,0.8,1.3*35
$GPGSA,A,3,,,,,,,,,,,,,1.5,0.8,1.3,8*28
$QZGSA,A,3,01,02,03,,,,,,,,,,1.5,0.8,1.3*20
$QZGSA,A,3,01,03,,,,,,,,,,,1.5,0.8,1.3,8*36
$BDGSA,A,3,206,213,216,220,223,229,230,,,,,,1.5,0.8,1.3*17
$BDGSA,A,3,,,,,,,,,,,,,1.5,0.8,1.3,5*34
$GAGSA,A,3,101,109,112,136,,,,,,,,,1.5,0.8,1.3*23
$GAGSA,A,3,109,112,136,,,,,,,,,,1.5,0.8,1.3,1*0E
$NCGSA,A,3,,,,,,,,,,,,,1.5,0.8,1.3,1*3B
$GNGSA,A,3,02,05,13,15,21,29,,,,,,,1.5,0.8,1.3*2B
$GNGSA,A,3,66,67,75,76,81,,,,,,,,1.5,0.8,1.3*29
$GPRMC,030514.00,A,3722.722173,N,12640.589874,E,047.5,215.6,231119,,,A*5A
$GPGGA,030515.00,3722.711424,N,12640.580072,E,1,30,0.4,14.7,M,17.8,M,,*5D
$PGLOR,10,STA,030515.00,0.002,0.000,178,1,4,0,P,D,L,0,C,2,S,00300002,369,5,R,000833F4,TPEF,54,81134,LC,,,DR,0,*5E
$PGLOR,1,UNC,030515.00,0.009,4.0,3.0,0.04,1.00,4.0,4.0,0.0*24
$PSSGR,GSA,A,3,02,05,13,15,21,24,29,,,,,,1.6,0.8,1.4,1,1*49
$PSSGR,GSA,A,3,24,,,,,,,,,,,,1.6,0.8,1.4,1,8*49
$PSSGR,GSA,A,3,66,67,75,76,81,,,,,,,,1.6,0.8,1.4,2,1*4E
$PSSGR,GSA,A,3,01,02,03,,,,,,,,,,1.6,0.8,1.4,5,1*42
$PSSGR,GSA,A,3,01,03,,,,,,,,,,,1.6,0.8,1.4,5,8*49
$PSSGR,GSA,A,3,206,213,216,223,229,230,,,,,,,1.6,0.8,1.4,4,3*4B
$PSSGR,GSA,A,3,,,,,,,,,,,,,1.6,0.8,1.4,4,5*47
$PSSGR,GSA,A,3,101,109,121,136,,,,,,,,,1.6,0.8,1.4,3,7*4C
$PSSGR,GSA,A,3,109,112,,,,,,,,,,,1.6,0.8,1.4,3,1*4E
$PSSGR,GSA,A,3,,,,,,,,,,,,,1.6,0.8,1.4,6,1*41
$GPGSV,4,1,10,15,69,277,41,13,67,034,35,05,48,084,38,21,32,311,36*79
$GPGSV,4,2,10,24,21,188,25,29,21,240,40,30,19,046,28,02,15,157,30*72
$GPGSV,4,3,10,20,10,297,24*46
$GPGSV,4,4,10,24,,,29,8*61
$GLGSV,2,1,08,66,47,031,39,67,45,306,28,81,36,211,32,76,32,089,37*60
$GLGSV,2,2,08,75,17,037,31,83,17,331,25,77,16,145,25,65,00,074,*64
$QZGSV,2,1,07,01,77,069,33,07,47,179,28,02,23,152,25,03,15,182,25*67
$QZGSV,2,2,07,01,,,34,02,,,23,03,,,26,8*74
$BDGSV,5,1,17,213,73,260,26,206,68,262,27,208,63,180,22,232,62,038,30*6E
$BDGSV,5,2,17,216,62,259,32,220,44,297,32,209,40,244,31,223,37,095,40*6A
$BDGSV,5,3,17,230,31,226,29,229,29,289,36,237,25,155,23,203,44,206,*66
$BDGSV,5,4,17,225,15,044,,205,10,258,,227,04,181,,235,02,330,*6A
$BDGSV,5,5,17,202,25,234,*6C
$GAGSV,4,1,13,104,72,344,24,109,33,265,35,112,31,180,26,119,27,059,26*6C
$GAGSV,4,2,13,136,27,315,34,121,16,067,20,101,16,118,28,131,00,163,*69
$GAGSV,4,3,13,109,,,30,112,,,31,136,,,24,121,,,20,1*79
$GAGSV,4,4,13,101,,,19,1*4F
$GPGSA,A,3,02,05,13,15,21,24,29,,,,,,1.6,0.8,1.4*37
$GPGSA,A,3,24,,,,,,,,,,,,1.6,0.8,1.4,8*2A
$QZGSA,A,3,01,02,03,,,,,,,,,,1.6,0.8,1.4*24
$QZGSA,A,3,01,03,,,,,,,,,,,1.6,0.8,1.4,8*32
$BDGSA,A,3,206,213,216,223,229,230,,,,,,,1.6,0.8,1.4*23
$BDGSA,A,3,,,,,,,,,,,,,1.6,0.8,1.4,5*30
$GAGSA,A,3,101,109,121,136,,,,,,,,,1.6,0.8,1.4*27
$GAGSA,A,3,109,112,,,,,,,,,,,1.6,0.8,1.4,1*3E
$NCGSA,A,3,,,,,,,,,,,,,1.6,0.8,1.4,1*3F
$GNGSA,A,3,02,05,13,15,21,24,29,,,,,,1.6,0.8,1.4*29
$GNGSA,A,3,66,67,75,76,81,,,,,,,,1.6,0.8,1.4*2D
$GPRMC,030515.00,A,3722.711424,N,12640.580072,E,047.5,216.5,231119,,,A*5B
$GPGGA,030516.00,3722.700840,N,12640.570028,E,1,32,0.4,14.5,M,17.8,M,,*50
$PGLOR,10,STA,030516.00,0.002,0.000,177,1,4,0,P,D,L,0,C,2,S,00300002,394,5,R,000833F4,TPEF,54,82134,LC,,,DR,0,*53
$PGLOR,1,UNC,030516.00,0.009,4.0,3.0,0.04,1.00,4.0,4.0,0.0*27
$PSSGR,GSA,A,3,02,05,13,15,20,21,24,29,,,,,1.5,0.8,1.3,1,1*4F
$PSSGR,GSA,A,3,24,,,,,,,,,,,,1.5,0.8,1.3,1,8*4D
$PSSGR,GSA,A,3,66,67,75,76,81,,,,,,,,1.5,0.8,1.3,2,1*4A
$PSSGR,GSA,A,3,01,02,03,,,,,,,,,,1.5,0.8,1.3,5,1*46
$PSSGR,GSA,A,3,01,03,,,,,,,,,,,1.5,0.8,1.3,5,8*4D
$PSSGR,GSA,A,3,206,213,216,220,223,229,230,,,,,,1.5,0.8,1.3,4,3*7F
$PSSGR,GSA,A,3,,,,,,,,,,,,,1.5,0.8,1.3,4,5*43
$PSSGR,GSA,A,3,101,109,112,136,,,,,,,,,1.5,0.8,1.3,3,7*48
$PSSGR,GSA,A,3,109,112,,,,,,,,,,,1.5,0.8,1.3,3,1*4A
$PSSGR,GSA,A,3,,,,,,,,,,,,,1.5,0.8,1.3,6,1*45
$GPGSV,4,1,10,15,69,277,41,13,67,034,35,05,48,084,37,21,32,311,36*76
$GPGSV,4,2,10,24,21,188,25,29,21,240,40,30,19,046,28,02,15,157,30*72
$GPGSV,4,3,10,20,10,297,25*47
$GPGSV,4,4,10,24,,,29,8*61
$GLGSV,2,1,08,66,47,031,39,67,45,306,27,81,36,211,31,76,32,089,38*63
$GLGSV,2,2,08,75,17,037,30,83,17,331,25,77,16,145,27,65,00,074,*67
$QZGSV,2,1,07,01,77,069,33,07,47,179,28,02,23,152,24,03,15,182,25*66
$QZGSV,2,2,07,01,,,34,02,,,23,03,,,26,8*74
$BDGSV,5,1,17,213,73,260,27,206,68,262,27,208,63,180,22,232,62,038,29*67
$BDGSV,5,2,17,216,62,259,32,220,44,297,31,209,40,244,31,223,37,095,39*67
$BDGSV,5,3,17,230,31,226,29,229,29,289,36,237,25,155,22,203,44,206,*67
$BDGSV,5,4,17,225,15,044,,205,10,258,,227,04,181,,235,02,330,*6A
$BDGSV,5,5,17,202,25,234,*6C
$GAGSV,4,1,13,104,72,344,27,109,33,265,35,112,31,180,26,119,27,059,26*6F
$GAGSV,4,2,13,136,27,315,34,121,16,067,20,101,16,118,28,131,00,163,*69
$GAGSV,4,3,13,109,,,30,112,,,31,136,,,24,121,,,19,1*73
$GAGSV,4,4,13,101,,,19,1*4F
$GPGSA,A,3,02,05,13,15,20,21,24,29,,,,,1.5,0.8,1.3*31
$GPGSA,A,3,24,,,,,,,,,,,,1.5,0.8,1.3,8*2E
$QZGSA,A,3,01,02,03,,,,,,,,,,1.5,0.8,1.3*20
$QZGSA,A,3,01,03,,,,,,,,,,,1.5,0.8,1.3,8*36
$BDGSA,A,3,206,213,216,220,223,229,230,,,,,,1.5,0.8,1.3*17
$BDGSA,A,3,,,,,,,,,,,,,1.5,0.8,1.3,5*34
$GAGSA,A,3,101,109,112,136,,,,,,,,,1.5,0.8,1.3*23
$GAGSA,A,3,109,112,,,,,,,,,,,1.5,0.8,1.3,1*3A
$NCGSA,A,3,,,,,,,,,,,,,1.5,0.8,1.3,1*3B
$GNGSA,A,3,02,05,13,15,20,21,24,29,,,,,1.5,0.8,1.3*2F
$GNGSA,A,3,66,67,75,76,81,,,,,,,,1.5,0.8,1.3*29
$GPRMC,030516.00,A,3722.700840,N,12640.570028,E,047.7,217.2,231119,,,A*52
$GPGGA,030517.00,3722.690267,N,12640.559869,E,1,32,0.4,14.4,M,17.8,M,,*51
$PGLOR,10,STA,030517.00,0.002,0.000,178,1,4,0,P,D,L,0,C,3,S,00300002,418,5,R,000833F4,TPEF,54,83134,LC,,,DR,0,*5E
$PGLOR,1,UNC,030517.00,0.009,4.0,3.0,0.03,1.00,4.0,4.0,0.0*21
$PSSGR,GSA,A,3,02,05,13,15,20,21,24,29,,,,,1.4,0.8,1.2,1,1*4F
$PSSGR,GSA,A,3,24,,,,,,,,,,,,1.4,0.8,1.2,1,8*4D
$PSSGR,GSA,A,3,66,67,75,76,81,,,,,,,,1.4,0.8,1.2,2,1*4A
$PSSGR,GSA,A,3,01,02,03,,,,,,,,,,1.4,0.8,1.2,5,1*46
$PSSGR,GSA,A,3,01,03,,,,,,,,,,,1.4,0.8,1.2,5,8*4D
$PSSGR,GSA,A,3,206,213,216,220,223,229,230,,,,,,1.4,0.8,1.2,4,3*7F
$PSSGR,GSA,A,3,,,,,,,,,,,,,1.4,0.8,1.2,4,5*43
$PSSGR,GSA,A,3,101,109,112,136,,,,,,,,,1.4,0.8,1.2,3,7*48
$PSSGR,GSA,A,3,109,112,,,,,,,,,,,1.4,0.8,1.2,3,1*4A
$PSSGR,GSA,A,3,,,,,,,,,,,,,1.4,0.8,1.2,6,1*45
$GPGSV,4,1,10,15,69,278,41,13,67,034,35,05,48,084,37,21,32,311,36*79
$GPGSV,4,2,10,24,21,188,25,29,21,240,40,30,19,046,28,02,15,157,30*72
$GPGSV,4,3,10,20,10,297,27*45
$GPGSV,4,4,10,24,,,29,8*61
$GLGSV,2,1,08,66,47,031,39,67,45,306,27,81,36,211,31,76,32,089,39*62
$GLGSV,2,2,08,75,17,037,29,83,17,331,25,77,16,145,27,65,00,074,*6F
$QZGSV,2,1,07,01,77,069,33,07,47,179,27,02,23,152,25,03,15,182,25*68
$QZGSV,2,2,07,01,,,34,02,,,23,03,,,26,8*74
$BDGSV,5,1,17,213,72,260,27,206,68,262,26,208,63,180,21,232,62,038,29*64
$BDGSV,5,2,17,216,62,259,32,220,44,297,30,209,40,244,31,223,37,095,39*66
$BDGSV,5,3,17,230,31,226,29,229,29,289,36,237,25,155,22,203,44,206,*67
$BDGSV,5,4,17,225,15,044,,205,10,258,,227,04,181,,235,02,330,*6A
$BDGSV,5,5,17,202,25,234,*6C
$GAGSV,4,1,13,104,72,344,28,109,33,265,35,112,31,180,25,119,27,059,*67
$GAGSV,4,2,13,136,27,315,35,121,16,067,19,101,16,118,30,131,00,163,*6B
$GAGSV,4,3,13,109,,,29,112,,,31,136,,,23,121,,,19,1*7C
$GAGSV,4,4,13,101,,,19,1*4F
$GPGSA,A,3,02,05,13,15,20,21,24,29,,,,,1.4,0.8,1.2*31
$GPGSA,A,3,24,,,,,,,,,,,,1.4,0.8,1.2,8*2E
$QZGSA,A,3,01,02,03,,,,,,,,,,1.4,0.8,1.2*20
$QZGSA,A,3,01,03,,,,,,,,,,,1.4,0.8,1.2,8*36
$BDGSA,A,3,206,213,216,220,223,229,230,,,,,,1.4,0.8,1.2*17
$BDGSA,A,3,,,,,,,,,,,,,1.4,0.8,1.2,5*34
$GAGSA,A,3,101,109,112,136,,,,,,,,,1.4,0.8,1.2*23
$GAGSA,A,3,109,112,,,,,,,,,,,1.4,0.8,1.2,1*3A
$NCGSA,A,3,,,,,,,,,,,,,1.4,0.8,1.2,1*3B
$GNGSA,A,3,02,05,13,15,20,21,24,29,,,,,1.4,0.8,1.2*2F
$GNGSA,A,3,66,67,75,76,81,,,,,,,,1.4,0.8,1.2*29
$GPRMC,030517.00,A,3722.690267,N,12640.559869,E,047.6,217.5,231119,,,A*54
$GPGGA,030518.00,3722.679670,N,12640.549786,E,1,32,0.4,14.4,M,17.8,M,,*54
$PGLOR,10,STA,030518.00,0.002,0.000,178,1,4,0,P,D,L,0,C,3,S,00300002,443,5,R,000833F4,TPEF,54,84134,LC,,,DR,0,*58
$PGLOR,1,UNC,030518.00,0.009,4.0,3.0,0.03,1.00,4.0,4.0,0.0*2E
$PSSGR,GSA,A,3,02,05,13,15,20,21,24,29,,,,,1.5,0.8,1.3,1,1*4F
$PSSGR,GSA,A,3,24,,,,,,,,,,,,1.5,0.8,1.3,1,8*4D
$PSSGR,GSA,A,3,66,67,75,76,81,,,,,,,,1.5,0.8,1.3,2,1*4A
$PSSGR,GSA,A,3,01,02,03,,,,,,,,,,1.5,0.8,1.3,5,1*46
$PSSGR,GSA,A,3,01,03,,,,,,,,,,,1.5,0.8,1.3,5,8*4D
$PSSGR,GSA,A,3,206,213,216,220,223,229,230,,,,,,1.5,0.8,1.3,4,3*7F
$PSSGR,GSA,A,3,,,,,,,,,,,,,1.5,0.8,1.3,4,5*43
$PSSGR,GSA,A,3,101,109,112,136,,,,,,,,,1.5,0.8,1.3,3,7*48
$PSSGR,GSA,A,3,109,112,,,,,,,,,,,1.5,0.8,1.3,3,1*4A
$PSSGR,GSA,A,3,,,,,,,,,,,,,1.5,0.8,1.3,6,1*45
$GPGSV,4,1,10,15,69,278,41,13,67,034,34,05,48,084,37,21,32,311,36*78
$GPGSV,4,2,10,24,21,188,25,29,21,240,40,30,19,046,29,02,15,157,30*73
$GPGSV,4,3,10,20,10,297,27*45
$GPGSV,4,4,10,24,,,29,8*61
$GLGSV,2,1,08,66,47,031,39,67,45,306,27,81,36,211,31,76,32,089,38*63
$GLGSV,2,2,08,75,17,037,29,83,17,331,27,77,16,145,26,65,00,074,*6C
$QZGSV,2,1,07,01,77,069,33,07,47,179,27,02,23,152,26,03,15,182,24*6A
$QZGSV,2,2,07,01,,,34,02,,,22,03,,,25,8*76
$BDGSV,5,1,17,213,72,260,27,206,68,262,26,208,63,180,20,232,62,038,29*65
$BDGSV,5,2,17,216,62,259,33,220,44,297,30,209,40,244,32,223,37,095,39*64
$BDGSV,5,3,17,230,31,226,29,229,29,289,36,237,25,155,21,203,44,206,*64
$BDGSV,5,4,17,225,15,044,,205,10,258,,227,04,181,,235,02,330,*6A
$BDGSV,5,5,17,202,25,234,*6C
$GAGSV,4,1,13,104,72,344,28,109,33,265,35,112,31,180,25,119,27,059,25*60
$GAGSV,4,2,13,136,27,315,35,121,16,067,19,101,16,118,30,131,00,163,*6B
$GAGSV,4,3,13,109,,,29,112,,,31,136,,,23,121,,,19,1*7C
$GAGSV,4,4,13,101,,,20,1*45
$GPGSA,A,3,02,05,13,15,20,21,24,29,,,,,1.5,0.8,1.3*31
$GPGSA,A,3,24,,,,,,,,,,,,1.5,0.8,1.3,8*2E
$QZGSA,A,3,01,02,03,,,,,,,,,,1.5,0.8,1.3*20
$QZGSA,A,3,01,03,,,,,,,,,,,1.5,0.8,1.3,8*36
$BDGSA,A,3,206,213,216,220,223,229,230,,,,,,1.5,0.8,1.3*17
$BDGSA,A,3,,,,,,,,,,,,,1.5,0.8,1.3,5*34
$GAGSA,A,3,101,109,112,136,,,,,,,,,1.5,0.8,1.3*23
$GAGSA,A,3,109,112,,,,,,,,,,,1.5,0.8,1.3,1*3A
$NCGSA,A,3,,,,,,,,,,,,,1.5,0.8,1.3,1*3B
$GNGSA,A,3,02,05,13,15,20,21,24,29,,,,,1.5,0.8,1.3*2F
$GNGSA,A,3,66,67,75,76,81,,,,,,,,1.5,0.8,1.3*29
$GPRMC,030518.00,A,3722.679670,N,12640.549786,E,047.6,217.6,231119,,,A*52
$GPGGA,030519.00,3722.669152,N,12640.539676,E,1,30,0.4,14.3,M,17.8,M,,*5F
$PGLOR,10,STA,030519.00,0.002,0.000,178,1,4,0,P,D,L,0,C,3,S,00300002,467,5,R,000833F4,TPEF,54,85134,LC,,,DR,0,*5E
$PGLOR,1,UNC,030519.00,0.009,4.0,3.0,0.03,1.00,4.0,4.0,0.0*2F
$PSSGR,GSA,A,3,02,05,13,15,20,21,24,29,,,,,1.4,0.7,1.2,1,1*40
$PSSGR,GSA,A,3,24,,,,,,,,,,,,1.4,0.7,1.2,1,8*42
$PSSGR,GSA,A,3,66,67,75,76,81,,,,,,,,1.4,0.7,1.2,2,1*45
$PSSGR,GSA,A,3,01,02,03,,,,,,,,,,1.4,0.7,1.2,5,1*49
$PSSGR,GSA,A,3,01,03,,,,,,,,,,,1.4,0.7,1.2,5,8*42
$PSSGR,GSA,A,3,213,216,220,223,229,230,,,,,,,1.4,0.7,1.2,4,3*44
$PSSGR,GSA,A,3,,,,,,,,,,,,,1.4,0.7,1.2,4,5*4C
$PSSGR,GSA,A,3,101,109,136,,,,,,,,,,1.4,0.7,1.2,3,7*75
$PSSGR,GSA,A,3,109,112,,,,,,,,,,,1.4,0.7,1.2,3,1*45
$PSSGR,GSA,A,3,,,,,,,,,,,,,1.4,0.7,1.2,6,1*4A
$GPGSV,4,1,10,15,69,278,41,13,67,034,34,05,48,084,36,21,32,311,36*79
$GPGSV,4,2,10,24,21,188,25,29,21,240,40,30,19,046,29,02,15,157,30*73
$GPGSV,4,3,10,20,10,297,28*4A
$GPGSV,4,4,10,24,,,29,8*61
$GLGSV,2,1,08,66,47,031,39,67,45,306,29,81,36,211,31,76,32,089,38*6D
$GLGSV,2,2,08,75,17,037,28,83,17,331,26,77,16,145,,65,00,074,*68
$QZGSV,2,1,07,01,77,069,33,07,47,179,28,02,23,152,27,03,15,182,24*64
$QZGSV,2,2,07,01,,,34,02,,,22,03,,,25,8*76
$BDGSV,5,1,17,213,72,260,27,206,68,262,26,208,63,180,20,232,62,038,28*64
$BDGSV,5,2,17,216,62,259,32,220,44,297,29,209,40,244,31,223,37,095,39*6E
$BDGSV,5,3,17,230,31,226,29,229,29,289,36,237,25,155,21,203,44,206,*64
$BDGSV,5,4,17,225,15,044,,205,10,258,,227,04,181,,235,02,330,*6A
$BDGSV,5,5,17,202,25,234,*6C
$GAGSV,4,1,13,104,72,344,28,109,33,265,36,112,31,180,25,119,27,059,29*6F
$GAGSV,4,2,13,136,27,315,34,121,16,067,19,101,16,118,30,131,00,163,*6A
$GAGSV,4,3,13,109,,,29,112,,,31,136,,,22,121,,,19,1*7D
$GAGSV,4,4,13,101,,,20,1*45
$GPGSA,A,3,02,05,13,15,20,21,24,29,,,,,1.4,0.7,1.2*3E
$GPGSA,A,3,24,,,,,,,,,,,,1.4,0.7,1.2,8*21
$QZGSA,A,3,01,02,03,,,,,,,,,,1.4,0.7,1.2*2F
$QZGSA,A,3,01,03,,,,,,,,,,,1.4,0.7,1.2,8*39
$BDGSA,A,3,213,216,220,223,229,230,,,,,,,1.4,0.7,1.2*2C
$BDGSA,A,3,,,,,,,,,,,,,1.4,0.7,1.2,5*3B
$GAGSA,A,3,101,109,136,,,,,,,,,,1.4,0.7,1.2*1E
$GAGSA,A,3,109,112,,,,,,,,,,,1.4,0.7,1.2,1*35
$NCGSA,A,3,,,,,,,,,,,,,1.4,0.7,1.2,1*34
$GNGSA,A,3,02,05,13,15,20,21,24,29,,,,,1.4,0.7,1.2*20
$GNGSA,A,3,66,67,75,76,81,,,,,,,,1.4,0.7,1.2*26
$GPRMC,030519.00,A,3722.669152,N,12640.539676,E,047.6,217.6,231119,,,A*5C
$GPGGA,030520.00,3722.658660,N,12640.529542,E,1,32,0.4,14.2,M,17.8,M,,*57
$PGLOR,10,STA,030520.00,0.002,0.000,178,1,4,0,P,D,L,0,C,2,S,00300002,492,5,R,000833F4,TPEF,54,86134,LC,,,DR,0,*5C
$PGLOR,1,UNC,030520.00,0.009,4.0,3.0,0.03,1.00,4.0,4.0,0.0*25
$PSSGR,GSA,A,3,02,05,13,15,20,21,24,29,,,,,1.4,0.8,1.1,1,1*4C
$PSSGR,GSA,A,3,24,,,,,,,,,,,,1.4,0.8,1.1,1,8*4E
$PSSGR,GSA,A,3,66,67,75,76,81,,,,,,,,1.4,0.8,1.1,2,1*49
$PSSGR,GSA,A,3,01,02,03,,,,,,,,,,1.4,0.8,1.1,5,1*45
$PSSGR,GSA,A,3,01,03,,,,,,,,,,,1.4,0.8,1.1,5,8*4E
$PSSGR,GSA,A,3,206,213,216,220,223,229,230,,,,,,1.4,0.8,1.1,4,3*7C
$PSSGR,GSA,A,3,,,,,,,,,,,,,1.4,0.8,1.1,4,5*40
$PSSGR,GSA,A,3,101,109,112,136,,,,,,,,,1.4,0.8,1.1,3,7*4B
$PSSGR,GSA,A,3,109,112,,,,,,,,,,,1.4,0.8,1.1,3,1*49
$PSSGR,GSA,A,3,,,,,,,,,,,,,1.4,0.8,1.1,6,1*46
$GPGSV,4,1,10,15,69,278,41,13,67,034,34,05,48,084,35,21,32,311,36*7A
$GPGSV,4,2,10,24,21,188,25,29,21,240,40,30,19,046,28,02,15,157,31*73
$GPGSV,4,3,10,20,10,297,29*4B
$GPGSV,4,4,10,24,,,29,8*61
$GLGSV,2,1,08,66,47,031,39,67,45,306,30,81,36,211,31,76,32,089,38*65
$GLGSV,2,2,08,75,17,037,28,83,17,331,,77,16,145,24,65,00,074,*6A
$QZGSV,2,1,07,01,77,069,34,07,47,179,28,02,23,152,29,03,15,182,27*6E
$QZGSV,2,2,07,01,,,34,02,,,22,03,,,26,8*75
$BDGSV,5,1,17,213,72,260,27,206,68,263,26,208,63,180,21,232,62,038,28*64
$BDGSV,5,2,17,216,62,259,32,220,44,297,28,209,40,244,31,223,37,095,38*6E
$BDGSV,5,3,17,230,31,226,28,229,29,289,36,237,25,155,20,203,44,206,*64
$BDGSV,5,4,17,225,15,044,,205,10,258,,227,04,181,,235,02,330,*6A
$BDGSV,5,5,17,202,25,234,*6C
$GAGSV,4,1,13,104,72,344,28,109,33,265,37,112,31,180,24,119,27,059,30*67
$GAGSV,4,2,13,136,27,315,34,121,16,067,19,101,16,118,30,131,00,163,*6A
$GAGSV,4,3,13,109,,,29,112,,,31,136,,,22,121,,,19,1*7D
$GAGSV,4,4,13,101,,,21,1*44
$GPGSA,A,3,02,05,13,15,20,21,24,29,,,,,1.4,0.8,1.1*32
$GPGSA,A,3,24,,,,,,,,,,,,1.4,0.8,1.1,8*2D
$QZGSA,A,3,01,02,03,,,,,,,,,,1.4,0.8,1.1*23
$QZGSA,A,3,01,03,,,,,,,,,,,1.4,0.8,1.1,8*35
$BDGSA,A,3,206,213,216,220,223,229,230,,,,,,1.4,0.8,1.1*14
$BDGSA,A,3,,,,,,,,,,,,,1.4,0.8,1.1,5*37
$GAGSA,A,3,101,109,112,136,,,,,,,,,1.4,0.8,1.1*20
$GAGSA,A,3,109,112,,,,,,,,,,,1.4,0.8,1.1,1*39
$NCGSA,A,3,,,,,,,,,,,,,1.4,0.8,1.1,1*38
$GNGSA,A,3,02,05,13,15,20,21,24,29,,,,,1.4,0.8,1.1*2C
$GNGSA,A,3,66,67,75,76,81,,,,,,,,1.4,0.8,1.1*2A
$GPRMC,030520.00,A,3722.658660,N,12640.529542,E,047.6,217.7,231119,,,A*56
$GPGGA,030521.00,3722.648165,N,12640.519479,E,1,31,0.4,14.1,M,17.8,M,,*5F
$PGLOR,10,STA,030521.00,0.002,0.000,178,1,4,0,P,D,L,0,C,2,S,00300002,516,5,R,000833F4,TPEF,54,87134,LC,,,DR,0,*51
$PGLOR,1,UNC,030521.00,0.009,4.0,3.0,0.04,1.00,4.0,4.0,0.0*23
$PSSGR,GSA,A,3,02,05,13,15,20,21,24,29,,,,,1.4,0.7,1.2,1,1*40
$PSSGR,GSA,A,3,24,,,,,,,,,,,,1.4,0.7,1.2,1,8*42
$PSSGR,GSA,A,3,66,67,75,76,81,,,,,,,,1.4,0.7,1.2,2,1*45
$PSSGR,GSA,A,3,01,02,03,,,,,,,,,,1.4,0.7,1.2,5,1*49
$PSSGR,GSA,A,3,01,03,,,,,,,,,,,1.4,0.7,1.2,5,8*42
$PSSGR,GSA,A,3,206,213,216,220,223,229,230,,,,,,1.4,0.7,1.2,4,3*70
$PSSGR,GSA,A,3,,,,,,,,,,,,,1.4,0.7,1.2,4,5*4C
$PSSGR,GSA,A,3,101,109,136,,,,,,,,,,1.4,0.7,1.2,3,7*75
$PSSGR,GSA,A,3,109,112,,,,,,,,,,,1.4,0.7,1.2,3,1*45
$PSSGR,GSA,A,3,,,,,,,,,,,,,1.4,0.7,1.2,6,1*4A
$GPGSV,4,1,10,15,69,278,40,13,67,034,34,05,48,084,35,21,32,311,35*78
$GPGSV,4,2,10,24,21,188,24,29,21,240,39,30,19,046,,02,15,157,31*76
$GPGSV,4,3,10,20,10,297,29*4B
$GPGSV,4,4,10,24,,,29,8*61
$GLGSV,2,1,08,66,47,031,39,67,45,306,31,81,36,211,31,76,32,089,38*64
$GLGSV,2,2,08,75,17,037,27,83,17,331,23,77,16,145,,65,00,074,*62
$QZGSV,2,1,07,01,77,069,34,07,47,179,28,02,23,152,29,03,15,182,27*6E
