$GPGGA,025913.00,3722.862267,N,12640.714134,E,1,28,0.4,15.3,M,17.8,M,,*59
$PGLOR,10,STA,025913.00,0.001,0.000,177,1,4,0,P,D,L,0,C,3,S,00100002,0,5,R,000833F4,TPEF,52,25761,LC,,,DR,0,*5D
$PGLOR,1,UNC,025913.00,0.011,4.0,4.0,0.20,180.00,4.0,4.0,0.0*2A
$PSSGR,GSA,A,3,02,05,13,15,21,29,30,,,,,,1.6,0.8,1.4,1,1*4C
$PSSGR,GSA,A,3,,,,,,,,,,,,,1.6,0.8,1.4,1,8*4F
$PSSGR,GSA,A,3,66,67,75,76,81,,,,,,,,1.6,0.8,1.4,2,1*4E
$PSSGR,GSA,A,3,01,02,07,,,,,,,,,,1.6,0.8,1.4,5,1*46
$PSSGR,GSA,A,3,01,07,,,,,,,,,,,1.6,0.8,1.4,5,8*4D
$PSSGR,GSA,A,3,206,208,216,220,223,225,229,230,232,,,,1.6,0.8,1.4,4,3*77
$PSSGR,GSA,A,3,,,,,,,,,,,,,1.6,0.8,1.4,4,5*47
$PSSGR,GSA,A,3,109,,,,,,,,,,,,1.6,0.8,1.4,3,7*7A
$PSSGR,GSA,A,3,109,,,,,,,,,,,,1.6,0.8,1.4,3,1*7C
$PSSGR,GSA,A,3,,,,,,,,,,,,,1.6,0.8,1.4,6,1*41
$GPGSV,4,1,11,13,70,033,38,15,67,271,40,05,50,081,33,21,30,313,34*78
$GPGSV,4,2,11,29,23,242,38,30,21,047,35,24,18,188,22,02,18,156,29*73
$GPGSV,4,3,11,20,08,296,*49
$GPGSV,4,4,11,30,,,21,24,,,24,8*6D
$GLGSV,2,1,08,66,48,027,34,67,44,302,30,81,39,212,38,76,31,092,38*69
$GLGSV,2,2,08,75,18,040,34,83,15,333,,77,13,146,,65,02,072,*6C
$QZGSV,2,1,08,01,77,068,31,07,47,179,25,02,22,152,30,03,16,182,23*66
$QZGSV,2,2,08,01,,,27,07,,,31,02,,,23,03,,,25,8*7F
$BDGSV,5,1,17,206,68,259,29,208,64,178,28,232,63,033,32,216,62,256,32*6F
$BDGSV,5,2,17,220,42,294,33,223,36,098,38,230,33,228,32,229,29,292,32*6E
$BDGSV,5,3,17,225,16,046,33,213,73,264,,203,44,206,,209,39,242,*6C
$BDGSV,5,4,17,202,29,238,,237,22,156,,205,10,258,,227,06,182,*6A
$BDGSV,5,5,17,235,00,332,*68
$GAGSV,3,1,08,109,31,263,35,104,72,337,,112,33,180,,119,29,058,*6A
$GAGSV,3,2,08,136,25,316,,121,15,069,,101,15,119,*62
$GAGSV,3,3,08,109,,,32,1*44
$GPGSA,A,3,02,05,13,15,21,29,30,,,,,,1.6,0.8,1.4*32
$GPGSA,A,3,,,,,,,,,,,,,1.6,0.8,1.4,8*2C
$QZGSA,A,3,01,02,07,,,,,,,,,,1.6,0.8,1.4*20
$QZGSA,A,3,01,07,,,,,,,,,,,1.6,0.8,1.4,8*36
$BDGSA,A,3,206,208,216,220,223,225,229,230,232,,,,1.6,0.8,1.4*1F
$BDGSA,A,3,,,,,,,,,,,,,1.6,0.8,1.4,5*30
$GAGSA,A,3,109,,,,,,,,,,,,1.6,0.8,1.4*11
$GAGSA,A,3,109,,,,,,,,,,,,1.6,0.8,1.4,1*0C
$NCGSA,A,3,,,,,,,,,,,,,1.6,0.8,1.4,1*3F
$GNGSA,A,3,02,05,13,15,21,29,30,,,,,,1.6,0.8,1.4*2C
$GNGSA,A,3,66,67,75,76,81,,,,,,,,1.6,0.8,1.4*2D
$GPRMC,025913.00,A,3722.862267,N,12640.714134,E,000.0,,231119,,,A*7B
$GPGGA,025914.00,3722.862402,N,12640.714163,E,1,31,0.4,15.1,M,17.8,M,,*53
$PGLOR,10,STA,025914.00,0.001,0.000,178,1,4,0,P,D,L,0,C,2,S,00100002,0,5,R,000833F4,TPEF,52,26761,LC,,,DR,0,*57
$PGLOR,1,UNC,025914.00,0.011,4.0,3.9,0.11,170.78,4.0,4.0,0.0*21
$PSSGR,GSA,A,3,02,05,13,15,21,24,29,30,,,,,1.5,0.8,1.3,1,1*4E
$PSSGR,GSA,A,3,24,,,,,,,,,,,,1.5,0.8,1.3,1,8*4D
$PSSGR,GSA,A,3,66,75,76,81,,,,,,,,,1.5,0.8,1.3,2,1*4B
$PSSGR,GSA,A,3,01,02,03,07,,,,,,,,,1.5,0.8,1.3,5,1*41
$PSSGR,GSA,A,3,01,03,07,,,,,,,,,,1.5,0.8,1.3,5,8*4A
$PSSGR,GSA,A,3,206,208,216,220,223,225,229,230,232,,,,1.5,0.8,1.3,4,3*73
$PSSGR,GSA,A,3,,,,,,,,,,,,,1.5,0.8,1.3,4,5*43
$PSSGR,GSA,A,3,109,,,,,,,,,,,,1.5,0.8,1.3,3,7*7E
$PSSGR,GSA,A,3,109,,,,,,,,,,,,1.5,0.8,1.3,3,1*78
$PSSGR,GSA,A,3,,,,,,,,,,,,,1.5,0.8,1.3,6,1*45
$GPGSV,4,1,11,13,70,033,38,15,67,271,39,05,50,081,32,21,30,313,33*70
$GPGSV,4,2,11,29,23,242,38,30,21,047,37,24,18,188,26,02,18,156,29*75
$GPGSV,4,3,11,20,08,296,*49
$GPGSV,4,4,11,30,,,21,24,,,24,8*6D
$GLGSV,2,1,08,66,48,027,33,67,44,302,29,81,39,212,38,76,31,092,38*66
$GLGSV,2,2,08,75,18,040,33,83,15,333,,77,13,146,,65,02,072,*6B
$QZGSV,2,1,08,01,77,068,32,07,47,179,25,02,22,152,30,03,16,182,24*62
$QZGSV,2,2,08,01,,,27,07,,,32,02,,,23,03,,,26,8*7F
$BDGSV,5,1,17,206,68,259,28,208,64,178,27,232,63,034,32,216,62,256,32*66
$BDGSV,5,2,17,220,42,294,33,223,36,098,38,230,33,228,32,229,29,292,33*6F
$BDGSV,5,3,17,225,16,046,34,213,73,264,,203,44,206,,209,39,242,*6B
$BDGSV,5,4,17,202,29,238,,237,22,156,,205,10,258,,227,06,182,*6A
$BDGSV,5,5,17,235,00,332,*68
$GAGSV,3,1,08,109,31,263,35,104,72,337,,112,33,180,,119,29,058,*6A
$GAGSV,3,2,08,136,25,316,,121,15,069,,101,15,119,*62
$GAGSV,3,3,08,109,,,33,1*45
$GPGSA,A,3,02,05,13,15,21,24,29,30,,,,,1.5,0.8,1.3*30
$GPGSA,A,3,24,,,,,,,,,,,,1.5,0.8,1.3,8*2E
$QZGSA,A,3,01,02,03,07,,,,,,,,,1.5,0.8,1.3*27
$QZGSA,A,3,01,03,07,,,,,,,,,,1.5,0.8,1.3,8*31
$BDGSA,A,3,206,208,216,220,223,225,229,230,232,,,,1.5,0.8,1.3*1B
$BDGSA,A,3,,,,,,,,,,,,,1.5,0.8,1.3,5*34
$GAGSA,A,3,109,,,,,,,,,,,,1.5,0.8,1.3*15
$GAGSA,A,3,109,,,,,,,,,,,,1.5,0.8,1.3,1*08
$NCGSA,A,3,,,,,,,,,,,,,1.5,0.8,1.3,1*3B
$GNGSA,A,3,02,05,13,15,21,24,29,30,,,,,1.5,0.8,1.3*2E
$GNGSA,A,3,66,75,76,81,,,,,,,,,1.5,0.8,1.3*28
$GPRMC,025914.00,A,3722.862402,N,12640.714163,E,000.0,,231119,,,A*7B
$GPGGA,025915.00,3722.862299,N,12640.713961,E,1,31,0.4,15.0,M,17.8,M,,*5A
$PGLOR,10,STA,025915.00,0.001,0.000,177,1,4,0,P,D,L,0,C,3,S,00100002,0,5,R,000833F4,TPEF,52,27761,LC,,,DR,0,*59
$PGLOR,1,UNC,025915.00,0.011,4.0,3.9,20.00,169.07,4.0,4.0,0.0*12
$PGLOR,2,PFM,HAL,-,0,0,0,0,RF,-,-180,9.3,0,RTC,,P,STO,P,LTO,P,SW,P,,,OSC,P,P,P*2F
$PSSGR,GSA,A,3,02,05,13,15,21,24,29,30,,,,,1.6,0.8,1.3,1,1*4D
$PSSGR,GSA,A,3,,,,,,,,,,,,,1.6,0.8,1.3,1,8*48
$PSSGR,GSA,A,3,66,67,76,81,,,,,,,,,1.6,0.8,1.3,2,1*4B
$PSSGR,GSA,A,3,01,02,03,07,,,,,,,,,1.6,0.8,1.3,5,1*42
$PSSGR,GSA,A,3,01,02,03,07,,,,,,,,,1.6,0.8,1.3,5,8*4B
$PSSGR,GSA,A,3,206,208,216,220,223,225,229,230,232,,,,1.6,0.8,1.3,4,3*70
$PSSGR,GSA,A,3,,,,,,,,,,,,,1.6,0.8,1.3,4,5*40
$PSSGR,GSA,A,3,109,,,,,,,,,,,,1.6,0.8,1.3,3,7*7D
$PSSGR,GSA,A,3,109,,,,,,,,,,,,1.6,0.8,1.3,3,1*7B
$PSSGR,GSA,A,3,,,,,,,,,,,,,1.6,0.8,1.3,6,1*46
$GPGSV,4,1,11,13,70,033,38,15,67,271,39,05,50,081,32,21,30,313,33*70
$GPGSV,4,2,11,29,23,242,40,30,21,047,36,24,18,188,27,02,18,156,28*7B
$GPGSV,4,3,11,20,08,296,*49
$GPGSV,4,4,11,30,,,21,24,,,24,8*6D
$GLGSV,2,1,08,66,48,027,33,67,44,302,30,81,39,212,39,76,31,092,38*6F
$GLGSV,2,2,08,75,18,040,33,83,15,333,,77,13,146,,65,02,072,*6B
$QZGSV,2,1,08,01,77,068,32,07,47,179,25,02,22,152,30,03,16,182,24*62
$QZGSV,2,2,08,01,,,27,07,,,32,02,,,24,03,,,26,8*78
$BDGSV,5,1,17,206,68,259,29,208,64,178,27,232,63,034,32,216,62,256,32*67
$BDGSV,5,2,17,220,42,294,33,223,36,098,37,230,33,228,32,229,29,292,33*60
$BDGSV,5,3,17,225,16,046,34,213,73,264,,203,44,206,,209,39,242,*6B
$BDGSV,5,4,17,202,29,238,,237,22,156,,205,10,258,,227,06,182,*6A
$BDGSV,5,5,17,235,00,332,*68
$GAGSV,3,1,08,109,31,263,35,104,72,337,,112,33,180,,119,29,058,*6A
$GAGSV,3,2,08,136,25,316,,121,15,069,,101,15,119,*62
$GAGSV,3,3,08,109,,,34,1*42
$GPGSA,A,3,02,05,13,15,21,24,29,30,,,,,1.6,0.8,1.3*33
$GPGSA,A,3,,,,,,,,,,,,,1.6,0.8,1.3,8*2B
$QZGSA,A,3,01,02,03,07,,,,,,,,,1.6,0.8,1.3*24
$QZGSA,A,3,01,02,03,07,,,,,,,,,1.6,0.8,1.3,8*30
$BDGSA,A,3,206,208,216,220,223,225,229,230,232,,,,1.6,0.8,1.3*18
$BDGSA,A,3,,,,,,,,,,,,,1.6,0.8,1.3,5*37
$GAGSA,A,3,109,,,,,,,,,,,,1.6,0.8,1.3*16
$GAGSA,A,3,109,,,,,,,,,,,,1.6,0.8,1.3,1*0B
$NCGSA,A,3,,,,,,,,,,,,,1.6,0.8,1.3,1*38
$GNGSA,A,3,02,05,13,15,21,24,29,30,,,,,1.6,0.8,1.3*2D
$GNGSA,A,3,66,67,76,81,,,,,,,,,1.6,0.8,1.3*28
$GPRMC,025915.00,A,3722.862299,N,12640.713961,E,000.0,,231119,,,A*73
$GPGGA,025916.00,3722.861779,N,12640.713287,E,1,29,0.6,14.7,M,17.8,M,,*5F
$PGLOR,10,STA,025916.00,0.001,0.000,178,1,6,0,P,D,L,0,C,3,S,00100002,0,5,R,000833F4,TPEF,52,28761,LC,,,DR,0,*58
$PGLOR,1,UNC,025916.00,0.011,6.0,4.1,20.00,158.90,6.0,6.0,0.0*10
$PSSGR,GSA,A,3,02,05,13,15,21,24,29,30,,,,,1.5,0.8,1.3,1,1*4E
$PSSGR,GSA,A,3,,,,,,,,,,,,,1.5,0.8,1.3,1,8*4B
$PSSGR,GSA,A,3,67,75,76,81,,,,,,,,,1.5,0.8,1.3,2,1*4A
$PSSGR,GSA,A,3,01,03,,,,,,,,,,,1.5,0.8,1.3,5,1*44
$PSSGR,GSA,A,3,01,02,03,07,,,,,,,,,1.5,0.8,1.3,5,8*48
$PSSGR,GSA,A,3,206,208,216,220,223,225,229,230,232,,,,1.5,0.8,1.3,4,3*73
$PSSGR,GSA,A,3,,,,,,,,,,,,,1.5,0.8,1.3,4,5*43
$PSSGR,GSA,A,3,109,,,,,,,,,,,,1.5,0.8,1.3,3,7*7E
$PSSGR,GSA,A,3,109,,,,,,,,,,,,1.5,0.8,1.3,3,1*78
$PSSGR,GSA,A,3,,,,,,,,,,,,,1.5,0.8,1.3,6,1*45
$GPGSV,4,1,11,13,70,033,37,15,67,271,39,05,50,081,32,21,30,313,32*7E
$GPGSV,4,2,11,29,23,242,40,30,21,047,36,24,18,188,27,02,18,156,28*7B
$GPGSV,4,3,11,20,08,296,*49
$GPGSV,4,4,11,30,,,21,24,,,24,8*6D
$GLGSV,2,1,08,66,48,027,33,67,44,302,33,81,39,212,39,76,31,092,38*6C
$GLGSV,2,2,08,75,18,040,32,83,15,333,,77,13,146,,65,02,072,*6A
$QZGSV,2,1,08,01,77,068,32,07,47,179,25,02,22,152,29,03,16,182,25*6B
$QZGSV,2,2,08,01,,,27,07,,,32,02,,,26,03,,,28,8*74
$BDGSV,5,1,17,206,68,259,30,208,64,178,27,232,63,034,32,216,62,256,31*6C
$BDGSV,5,2,17,220,42,294,32,223,36,098,37,230,33,228,33,229,29,291,33*63
$BDGSV,5,3,17,225,16,046,33,213,73,264,,203,44,206,,209,39,242,*6C
$BDGSV,5,4,17,202,29,238,,237,22,156,,205,10,258,,227,06,182,*6A
$BDGSV,5,5,17,235,00,332,*68
$GAGSV,3,1,08,109,31,263,35,104,72,337,,112,33,180,,119,29,058,*6A
$GAGSV,3,2,08,136,25,316,,121,15,069,,101,15,119,*62
$GAGSV,3,3,08,109,,,34,1*42
$GPGSA,A,3,02,05,13,15,21,24,29,30,,,,,1.5,0.8,1.3*30
$GPGSA,A,3,,,,,,,,,,,,,1.5,0.8,1.3,8*28
$QZGSA,A,3,01,03,,,,,,,,,,,1.5,0.8,1.3*22
$QZGSA,A,3,01,02,03,07,,,,,,,,,1.5,0.8,1.3,8*33
$BDGSA,A,3,206,208,216,220,223,225,229,230,232,,,,1.5,0.8,1.3*1B
$BDGSA,A,3,,,,,,,,,,,,,1.5,0.8,1.3,5*34
$GAGSA,A,3,109,,,,,,,,,,,,1.5,0.8,1.3*15
$GAGSA,A,3,109,,,,,,,,,,,,1.5,0.8,1.3,1*08
$NCGSA,A,3,,,,,,,,,,,,,1.5,0.8,1.3,1*3B
$GNGSA,A,3,02,05,13,15,21,24,29,30,,,,,1.5,0.8,1.3*2E
$GNGSA,A,3,67,75,76,81,,,,,,,,,1.5,0.8,1.3*29
$GPRMC,025916.00,A,3722.861779,N,12640.713287,E,000.0,,231119,,,A*7B
$GPGGA,025917.00,3722.860888,N,12640.712079,E,1,33,0.6,14.5,M,17.8,M,,*55
$PGLOR,10,STA,025917.00,0.001,0.000,178,1,6,0,P,D,L,0,C,3,S,00100002,0,5,R,000833F4,TPEF,52,29761,LC,,,DR,0,*58
$PGLOR,1,UNC,025917.00,0.011,6.0,4.2,20.00,150.31,6.0,6.0,0.0*11
$PSSGR,GSA,A,3,02,05,13,15,21,24,29,30,,,,,1.6,0.8,1.3,1,1*4D
$PSSGR,GSA,A,3,24,,,,,,,,,,,,1.6,0.8,1.3,1,8*4E
$PSSGR,GSA,A,3,66,67,75,76,81,,,,,,,,1.6,0.8,1.3,2,1*49
$PSSGR,GSA,A,3,01,02,03,07,,,,,,,,,1.6,0.8,1.3,5,1*42
$PSSGR,GSA,A,3,01,02,03,07,,,,,,,,,1.6,0.8,1.3,5,8*4B
$PSSGR,GSA,A,3,206,208,216,220,223,225,229,230,232,,,,1.6,0.8,1.3,4,3*70
$PSSGR,GSA,A,3,,,,,,,,,,,,,1.6,0.8,1.3,4,5*40
$PSSGR,GSA,A,3,109,,,,,,,,,,,,1.6,0.8,1.3,3,7*7D
$PSSGR,GSA,A,3,109,,,,,,,,,,,,1.6,0.8,1.3,3,1*7B
$PSSGR,GSA,A,3,,,,,,,,,,,,,1.6,0.8,1.3,6,1*46
$GPGSV,4,1,11,13,70,033,37,15,67,271,39,05,50,081,34,21,30,313,32*78
$GPGSV,4,2,11,29,23,242,39,30,21,047,36,24,18,188,26,02,18,156,27*7B
$GPGSV,4,3,11,20,08,296,*49
$GPGSV,4,4,11,30,,,20,24,,,24,8*6C
$GLGSV,2,1,08,66,48,027,32,67,44,302,34,81,39,212,38,76,31,092,37*64
$GLGSV,2,2,08,75,18,040,31,83,15,333,,77,13,146,,65,02,072,*69
$QZGSV,2,1,08,01,77,068,32,07,47,179,25,02,22,152,29,03,16,182,25*6B
$QZGSV,2,2,08,01,,,27,07,,,32,02,,,26,03,,,28,8*74
$BDGSV,5,1,17,206,68,259,30,208,64,178,26,232,63,034,31,216,62,256,31*6E
$BDGSV,5,2,17,220,42,294,32,223,36,098,37,230,33,228,33,229,29,291,35*65
$BDGSV,5,3,17,225,16,046,33,213,73,264,,203,44,206,,209,39,242,*6C
$BDGSV,5,4,17,202,29,238,,237,22,156,,205,10,258,,227,06,182,*6A
$BDGSV,5,5,17,235,00,332,*68
$GAGSV,3,1,08,109,31,263,35,104,72,337,,112,33,180,,119,29,058,*6A
$GAGSV,3,2,08,136,25,316,,121,15,069,,101,15,119,*62
$GAGSV,3,3,08,109,,,34,1*42
$GPGSA,A,3,02,05,13,15,21,24,29,30,,,,,1.6,0.8,1.3*33
$GPGSA,A,3,24,,,,,,,,,,,,1.6,0.8,1.3,8*2D
$QZGSA,A,3,01,02,03,07,,,,,,,,,1.6,0.8,1.3*24
$QZGSA,A,3,01,02,03,07,,,,,,,,,1.6,0.8,1.3,8*30
$BDGSA,A,3,206,208,216,220,223,225,229,230,232,,,,1.6,0.8,1.3*18
$BDGSA,A,3,,,,,,,,,,,,,1.6,0.8,1.3,5*37
$GAGSA,A,3,109,,,,,,,,,,,,1.6,0.8,1.3*16
$GAGSA,A,3,109,,,,,,,,,,,,1.6,0.8,1.3,1*0B
$NCGSA,A,3,,,,,,,,,,,,,1.6,0.8,1.3,1*38
$GNGSA,A,3,02,05,13,15,21,24,29,30,,,,,1.6,0.8,1.3*2D
$GNGSA,A,3,66,67,75,76,81,,,,,,,,1.6,0.8,1.3*2A
$GPRMC,025917.00,A,3722.860888,N,12640.712079,E,000.0,,231119,,,A*78
$GPGGA,025918.00,3722.858467,N,12640.709598,E,1,27,0.6,13.4,M,17.8,M,,*5F
$PGLOR,10,STA,025918.00,0.001,0.000,177,1,6,0,P,D,L,0,C,3,S,00100002,0,5,R,000833F4,TPEF,52,30761,LC,,,DR,0,*50
$PGLOR,1,UNC,025918.00,0.011,6.0,4.4,20.00,32.51,6.0,6.0,0.0*2B
$PSSGR,GSA,A,3,02,05,13,15,21,29,30,,,,,,1.6,0.8,1.3,1,1*4B
$PSSGR,GSA,A,3,,,,,,,,,,,,,1.6,0.8,1.3,1,8*48
$PSSGR,GSA,A,3,66,67,76,,,,,,,,,,1.6,0.8,1.3,2,1*42
$PSSGR,GSA,A,3,01,02,03,07,,,,,,,,,1.6,0.8,1.3,5,1*42
$PSSGR,GSA,A,3,01,07,,,,,,,,,,,1.6,0.8,1.3,5,8*4A
$PSSGR,GSA,A,3,206,208,216,220,223,225,229,230,232,,,,1.6,0.8,1.3,4,3*70
$PSSGR,GSA,A,3,,,,,,,,,,,,,1.6,0.8,1.3,4,5*40
$PSSGR,GSA,A,3,109,,,,,,,,,,,,1.6,0.8,1.3,3,7*7D
$PSSGR,GSA,A,3,109,,,,,,,,,,,,1.6,0.8,1.3,3,1*7B
$PSSGR,GSA,A,3,,,,,,,,,,,,,1.6,0.8,1.3,6,1*46
$GPGSV,4,1,11,13,70,033,36,15,67,271,39,05,50,081,37,21,30,313,32*7A
$GPGSV,4,2,11,29,23,242,39,30,21,047,35,24,18,188,26,02,18,156,31*7F
$GPGSV,4,3,11,20,08,296,*49
$GPGSV,4,4,11,30,,,20,24,,,23,8*6B
$GLGSV,2,1,08,66,48,027,31,67,44,302,34,81,39,212,38,76,31,092,37*67
$GLGSV,2,2,08,75,18,040,30,77,13,146,20,83,15,333,,65,02,072,*6A
$QZGSV,2,1,08,01,77,068,33,07,47,179,25,02,22,152,29,03,16,182,25*6A
$QZGSV,2,2,08,01,,,26,07,,,32,02,,,26,03,,,27,8*7A
$BDGSV,5,1,17,206,68,259,32,208,64,178,26,232,63,034,31,216,62,256,31*6C
$BDGSV,5,2,17,220,42,294,35,223,36,098,37,230,33,228,33,229,29,291,36*61
$BDGSV,5,3,17,225,16,046,32,213,73,264,,203,44,206,,209,39,242,*6D
$BDGSV,5,4,17,202,29,238,,237,22,156,,205,10,258,,227,06,182,*6A
$BDGSV,5,5,17,235,00,332,*68
$GAGSV,3,1,08,109,31,263,35,104,72,337,,112,33,180,,119,29,058,*6A
$GAGSV,3,2,08,136,25,316,,101,15,119,,121,15,069,*62
$GAGSV,3,3,08,109,,,33,1*45
$GPGSA,A,3,02,05,13,15,21,29,30,,,,,,1.6,0.8,1.3*35
$GPGSA,A,3,,,,,,,,,,,,,1.6,0.8,1.3,8*2B
$QZGSA,A,3,01,02,03,07,,,,,,,,,1.6,0.8,1.3*24
$QZGSA,A,3,01,07,,,,,,,,,,,1.6,0.8,1.3,8*31
$BDGSA,A,3,206,208,216,220,223,225,229,230,232,,,,1.6,0.8,1.3*18
$BDGSA,A,3,,,,,,,,,,,,,1.6,0.8,1.3,5*37
$GAGSA,A,3,109,,,,,,,,,,,,1.6,0.8,1.3*16
$GAGSA,A,3,109,,,,,,,,,,,,1.6,0.8,1.3,1*0B
$NCGSA,A,3,,,,,,,,,,,,,1.6,0.8,1.3,1*38
$GNGSA,A,3,02,05,13,15,21,29,30,,,,,,1.6,0.8,1.3*2B
$GNGSA,A,3,66,67,76,,,,,,,,,,1.6,0.8,1.3*21
$GPRMC,025918.00,A,3722.858467,N,12640.709598,E,000.0,,231119,,,A*71
$GPGGA,025919.00,3722.854119,N,12640.706085,E,1,27,0.6,14.4,M,17.8,M,,*5F
$PGLOR,10,STA,025919.00,0.001,0.000,176,1,6,0,P,D,L,0,C,3,S,00100002,15,5,R,000833F4,TPEF,52,31761,LC,,,DR,0,*65
$PGLOR,1,UNC,025919.00,0.011,6.0,4.5,0.25,1.00,6.0,6.0,0.0*2A
$PSSGR,GSA,A,3,02,05,13,15,21,24,29,30,,,,,1.5,0.8,1.3,1,1*4E
$PSSGR,GSA,A,3,,,,,,,,,,,,,1.5,0.8,1.3,1,8*4B
$PSSGR,GSA,A,3,67,76,81,,,,,,,,,,1.5,0.8,1.3,2,1*48
$PSSGR,GSA,A,3,01,02,03,07,,,,,,,,,1.5,0.8,1.3,5,1*41
$PSSGR,GSA,A,3,07,,,,,,,,,,,,1.5,0.8,1.3,5,8*48
$PSSGR,GSA,A,3,206,208,216,220,223,225,229,230,232,,,,1.5,0.8,1.3,4,3*73
$PSSGR,GSA,A,3,,,,,,,,,,,,,1.5,0.8,1.3,4,5*43
$PSSGR,GSA,A,3,109,,,,,,,,,,,,1.5,0.8,1.3,3,7*7E
$PSSGR,GSA,A,3,109,,,,,,,,,,,,1.5,0.8,1.3,3,1*78
$PSSGR,GSA,A,3,,,,,,,,,,,,,1.5,0.8,1.3,6,1*45
$GPGSV,4,1,11,13,70,033,36,15,67,271,38,05,50,081,40,21,30,313,31*78
$GPGSV,4,2,11,29,23,242,39,30,21,047,35,24,18,188,26,02,18,156,31*7F
$GPGSV,4,3,11,20,08,296,21*4A
$GPGSV,4,4,11,30,,,19,24,,,23,8*61
$GLGSV,2,1,08,66,48,027,31,67,44,302,33,81,39,212,37,76,31,092,37*6F
$GLGSV,2,2,08,75,18,040,29,83,15,333,21,77,13,146,20,65,02,072,*61
$QZGSV,2,1,08,01,77,068,33,07,47,179,24,02,22,152,29,03,16,182,24*6A
$QZGSV,2,2,08,01,,,26,07,,,32,02,,,26,03,,,27,8*7A
$BDGSV,5,1,17,213,73,264,29,206,68,259,32,208,64,178,26,232,63,034,32*62
$BDGSV,5,2,17,216,62,256,30,203,44,206,,220,42,294,39,223,36,098,36*6E
$BDGSV,5,3,17,230,33,228,32,229,29,291,35,225,16,046,31,209,39,242,*69
$BDGSV,5,4,17,202,29,238,,237,22,156,,205,10,258,,227,06,182,*6A
$BDGSV,5,5,17,235,00,332,*68
$GAGSV,3,1,08,109,31,263,34,104,72,337,,112,33,180,,119,29,058,*6B
$GAGSV,3,2,08,136,25,316,,101,15,119,,121,15,069,*62
$GAGSV,3,3,08,109,,,33,1*45
$GPGSA,A,3,02,05,13,15,21,24,29,30,,,,,1.5,0.8,1.3*30
$GPGSA,A,3,,,,,,,,,,,,,1.5,0.8,1.3,8*28
$QZGSA,A,3,01,02,03,07,,,,,,,,,1.5,0.8,1.3*27
$QZGSA,A,3,07,,,,,,,,,,,,1.5,0.8,1.3,8*33
$BDGSA,A,3,206,208,216,220,223,225,229,230,232,,,,1.5,0.8,1.3*1B
$BDGSA,A,3,,,,,,,,,,,,,1.5,0.8,1.3,5*34
$GAGSA,A,3,109,,,,,,,,,,,,1.5,0.8,1.3*15
$GAGSA,A,3,109,,,,,,,,,,,,1.5,0.8,1.3,1*08
$NCGSA,A,3,,,,,,,,,,,,,1.5,0.8,1.3,1*3B
$GNGSA,A,3,02,05,13,15,21,24,29,30,,,,,1.5,0.8,1.3*2E
$GNGSA,A,3,67,76,81,,,,,,,,,,1.5,0.8,1.3*2B
$GPRMC,025919.00,A,3722.854119,N,12640.706085,E,023.9,212.6,231119,,,A*57
$GPGGA,025920.00,3722.846994,N,12640.700548,E,1,25,0.6,14.3,M,17.8,M,,*5C
$PGLOR,10,STA,025920.00,0.001,0.000,178,1,6,0,P,D,L,0,C,2,S,00300002,30,5,R,000833F4,TPEF,52,32761,LC,,,DR,0,*66
$PGLOR,1,UNC,025920.00,0.011,6.0,4.3,0.06,1.09,6.0,6.0,0.0*2E
$PSSGR,GSA,A,3,02,05,13,15,21,29,30,,,,,,1.6,0.8,1.3,1,1*4B
$PSSGR,GSA,A,3,,,,,,,,,,,,,1.6,0.8,1.3,1,8*48
$PSSGR,GSA,A,3,66,67,76,81,,,,,,,,,1.6,0.8,1.3,2,1*4B
$PSSGR,GSA,A,3,01,02,03,,,,,,,,,,1.6,0.8,1.3,5,1*45
$PSSGR,GSA,A,3,07,,,,,,,,,,,,1.6,0.8,1.3,5,8*4B
$PSSGR,GSA,A,3,206,208,213,216,220,223,229,232,,,,,1.6,0.8,1.3,4,3*44
$PSSGR,GSA,A,3,,,,,,,,,,,,,1.6,0.8,1.3,4,5*40
$PSSGR,GSA,A,3,109,,,,,,,,,,,,1.6,0.8,1.3,3,7*7D
$PSSGR,GSA,A,3,109,,,,,,,,,,,,1.6,0.8,1.3,3,1*7B
$PSSGR,GSA,A,3,,,,,,,,,,,,,1.6,0.8,1.3,6,1*46
$GPGSV,4,1,11,13,70,033,35,15,67,271,38,05,50,081,40,21,30,313,31*7B
$GPGSV,4,2,11,29,23,242,40,30,21,047,35,24,18,188,25,02,18,156,31*72
$GPGSV,4,3,11,20,08,296,26*4D
$GPGSV,4,4,11,30,,,19,24,,,22,8*60
$GLGSV,2,1,08,66,48,027,30,67,44,302,33,81,39,212,36,76,31,092,36*6E
$GLGSV,2,2,08,75,18,040,28,83,15,333,,77,13,146,20,65,02,072,*63
$QZGSV,2,1,08,01,77,068,33,07,47,179,24,02,22,152,29,03,16,182,24*6A
$QZGSV,2,2,08,01,,,25,07,,,32,02,,,27,03,,,26,8*79
$BDGSV,5,1,17,213,73,264,29,206,68,259,32,208,64,178,26,232,63,034,33*63
$BDGSV,5,2,17,216,62,256,30,203,44,206,24,220,42,294,39,223,36,098,36*68
$BDGSV,5,3,17,230,33,228,31,229,29,291,35,225,16,046,29,209,39,242,*63
$BDGSV,5,4,17,202,29,238,,237,22,156,,205,10,258,,227,06,182,*6A
$BDGSV,5,5,17,235,00,332,*68
$GAGSV,3,1,08,109,31,263,34,104,72,338,,112,33,180,,119,29,058,*64
$GAGSV,3,2,08,136,25,316,,101,15,119,,121,15,069,*62
$GAGSV,3,3,08,109,,,32,1*44
$GPGSA,A,3,02,05,13,15,21,29,30,,,,,,1.6,0.8,1.3*35
$GPGSA,A,3,,,,,,,,,,,,,1.6,0.8,1.3,8*2B
$QZGSA,A,3,01,02,03,,,,,,,,,,1.6,0.8,1.3*23
$QZGSA,A,3,07,,,,,,,,,,,,1.6,0.8,1.3,8*30
$BDGSA,A,3,206,208,213,216,220,223,229,232,,,,,1.6,0.8,1.3*2C
$BDGSA,A,3,,,,,,,,,,,,,1.6,0.8,1.3,5*37
$GAGSA,A,3,109,,,,,,,,,,,,1.6,0.8,1.3*16
$GAGSA,A,3,109,,,,,,,,,,,,1.6,0.8,1.3,1*0B
$NCGSA,A,3,,,,,,,,,,,,,1.6,0.8,1.3,1*38
$GNGSA,A,3,02,05,13,15,21,29,30,,,,,,1.6,0.8,1.3*2B
$GNGSA,A,3,66,67,76,81,,,,,,,,,1.6,0.8,1.3*28
$GPRMC,025920.00,A,3722.846994,N,12640.700548,E,027.9,211.8,231119,,,A*58
$GPGGA,025921.00,3722.838801,N,12640.694202,E,1,27,0.6,13.9,M,17.8,M,,*53
$PGLOR,10,STA,025921.00,0.001,0.000,178,1,6,0,P,D,L,0,C,2,S,00300002,48,5,R,000833F4,TPEF,52,33761,LC,,,DR,0,*69
$PGLOR,1,UNC,025921.00,0.011,6.0,4.2,0.05,1.00,6.0,6.0,0.0*24
$PSSGR,GSA,A,3,02,05,13,15,21,24,29,30,,,,,1.5,0.8,1.3,1,1*4E
$PSSGR,GSA,A,3,,,,,,,,,,,,,1.5,0.8,1.3,1,8*4B
$PSSGR,GSA,A,3,67,76,81,,,,,,,,,,1.5,0.8,1.3,2,1*48
$PSSGR,GSA,A,3,01,02,07,,,,,,,,,,1.5,0.8,1.3,5,1*42
$PSSGR,GSA,A,3,02,07,,,,,,,,,,,1.5,0.8,1.3,5,8*4A
$PSSGR,GSA,A,3,206,208,213,216,220,223,229,230,232,,,,1.5,0.8,1.3,4,3*76
$PSSGR,GSA,A,3,,,,,,,,,,,,,1.5,0.8,1.3,4,5*43
$PSSGR,GSA,A,3,109,,,,,,,,,,,,1.5,0.8,1.3,3,7*7E
$PSSGR,GSA,A,3,109,,,,,,,,,,,,1.5,0.8,1.3,3,1*78
$PSSGR,GSA,A,3,,,,,,,,,,,,,1.5,0.8,1.3,6,1*45
$GPGSV,4,1,11,13,70,033,35,15,67,271,38,05,50,081,40,21,30,313,30*7A
$GPGSV,4,2,11,29,23,242,40,30,21,047,34,24,18,188,24,02,18,156,32*71
$GPGSV,4,3,11,20,08,296,26*4D
$GPGSV,4,4,11,30,,,18,24,,,21,8*62
$GLGSV,2,1,08,66,48,027,29,67,44,302,33,81,39,212,35,76,31,092,36*65
$GLGSV,2,2,08,75,18,040,27,83,15,333,21,77,13,146,20,65,02,072,*6F
$QZGSV,2,1,08,01,77,068,33,07,47,179,24,02,22,152,29,03,16,182,23*6D
$QZGSV,2,2,08,01,,,25,07,,,32,02,,,28,03,,,25,8*75
$BDGSV,5,1,17,213,73,264,29,206,68,259,32,208,64,178,26,232,63,034,33*63
$BDGSV,5,2,17,216,62,256,30,203,44,206,26,220,42,294,39,223,36,098,36*6A
$BDGSV,5,3,17,230,33,228,30,229,29,291,35,225,16,046,28,227,06,182,*6C
$BDGSV,5,4,17,209,39,242,,202,29,238,,237,22,156,,205,10,258,*65
$BDGSV,5,5,17,235,00,332,*68
$GAGSV,3,1,08,109,31,263,34,104,72,338,,112,33,180,,119,29,058,*64
$GAGSV,3,2,08,136,25,316,,101,15,119,,121,15,069,*62
$GAGSV,3,3,08,109,,,32,1*44
$GPGSA,A,3,02,05,13,15,21,24,29,30,,,,,1.5,0.8,1.3*30
$GPGSA,A,3,,,,,,,,,,,,,1.5,0.8,1.3,8*28
$QZGSA,A,3,01,02,07,,,,,,,,,,1.5,0.8,1.3*24
$QZGSA,A,3,02,07,,,,,,,,,,,1.5,0.8,1.3,8*31
$BDGSA,A,3,206,208,213,216,220,223,229,230,232,,,,1.5,0.8,1.3*1E
$BDGSA,A,3,,,,,,,,,,,,,1.5,0.8,1.3,5*34
$GAGSA,A,3,109,,,,,,,,,,,,1.5,0.8,1.3*15
$GAGSA,A,3,109,,,,,,,,,,,,1.5,0.8,1.3,1*08
$NCGSA,A,3,,,,,,,,,,,,,1.5,0.8,1.3,1*3B
$GNGSA,A,3,02,05,13,15,21,24,29,30,,,,,1.5,0.8,1.3*2E
$GNGSA,A,3,67,76,81,,,,,,,,,,1.5,0.8,1.3*2B
$GPRMC,025921.00,A,3722.838801,N,12640.694202,E,033.2,212.6,231119,,,A*5B
$GPGGA,025922.00,3722.830279,N,12640.686966,E,1,27,0.6,13.5,M,17.8,M,,*5B
$PGLOR,10,STA,025922.00,0.001,0.000,177,1,6,0,P,D,L,0,C,2,S,00300002,67,5,R,000833F4,TPEF,51,34761,LC,,,DR,0,*6C
$PGLOR,1,UNC,025922.00,0.011,6.0,4.1,0.05,1.00,6.0,6.0,0.0*24
$PSSGR,GSA,A,3,02,05,13,15,21,29,30,,,,,,1.5,0.8,1.3,1,1*48
$PSSGR,GSA,A,3,,,,,,,,,,,,,1.5,0.8,1.3,1,8*4B
$PSSGR,GSA,A,3,67,76,,,,,,,,,,,1.5,0.8,1.3,2,1*41
$PSSGR,GSA,A,3,01,02,07,,,,,,,,,,1.5,0.8,1.3,5,1*42
$PSSGR,GSA,A,3,01,02,07,,,,,,,,,,1.5,0.8,1.3,5,8*4B
$PSSGR,GSA,A,3,206,208,213,216,220,223,225,229,230,232,,,1.5,0.8,1.3,4,3*43
$PSSGR,GSA,A,3,,,,,,,,,,,,,1.5,0.8,1.3,4,5*43
$PSSGR,GSA,A,3,109,,,,,,,,,,,,1.5,0.8,1.3,3,7*7E
$PSSGR,GSA,A,3,109,,,,,,,,,,,,1.5,0.8,1.3,3,1*78
$PSSGR,GSA,A,3,,,,,,,,,,,,,1.5,0.8,1.3,6,1*45
$GPGSV,4,1,11,13,70,033,35,15,67,271,37,05,50,081,40,21,30,313,30*75
$GPGSV,4,2,11,29,23,242,40,30,21,047,34,24,18,188,24,02,18,156,31*72
$GPGSV,4,3,11,20,08,296,26*4D
$GPGSV,4,4,11,30,,,,24,,,,8*68
$GLGSV,2,1,08,66,48,027,29,67,44,302,32,81,39,212,34,76,31,092,36*65
$GLGSV,2,2,08,75,18,040,26,83,15,333,21,77,13,146,20,65,02,072,*6E
$QZGSV,2,1,07,01,77,068,33,07,47,179,26,02,22,152,30,03,16,182,22*69
$QZGSV,2,2,07,01,,,27,07,,,31,02,,,28,8*7F
$BDGSV,5,1,17,213,73,264,29,206,68,259,33,208,64,178,26,232,63,034,33*62
$BDGSV,5,2,17,216,62,256,30,203,44,206,25,220,42,294,38,223,36,098,36*68
$BDGSV,5,3,17,230,33,228,31,229,29,291,35,237,23,156,29,225,16,046,28*69
$BDGSV,5,4,17,227,06,182,,209,39,242,,202,29,238,,205,10,258,*6B
$BDGSV,5,5,17,235,00,332,*68
$GAGSV,3,1,08,104,72,338,29,112,33,180,24,109,31,263,35,119,29,058,23*69
$GAGSV,3,2,08,121,15,069,27,101,15,119,32,136,25,316,*66
$GAGSV,3,3,08,109,,,32,1*44
$GPGSA,A,3,02,05,13,15,21,29,30,,,,,,1.5,0.8,1.3*36
$GPGSA,A,3,,,,,,,,,,,,,1.5,0.8,1.3,8*28
$QZGSA,A,3,01,02,07,,,,,,,,,,1.5,0.8,1.3*24
$QZGSA,A,3,01,02,07,,,,,,,,,,1.5,0.8,1.3,8*30
$BDGSA,A,3,206,208,213,216,220,223,225,229,230,232,,,1.5,0.8,1.3*2B
$BDGSA,A,3,,,,,,,,,,,,,1.5,0.8,1.3,5*34
$GAGSA,A,3,109,,,,,,,,,,,,1.5,0.8,1.3*15
$GAGSA,A,3,109,,,,,,,,,,,,1.5,0.8,1.3,1*08
$NCGSA,A,3,,,,,,,,,,,,,1.5,0.8,1.3,1*3B
$GNGSA,A,3,02,05,13,15,21,29,30,,,,,,1.5,0.8,1.3*28
$GNGSA,A,3,67,76,,,,,,,,,,,1.5,0.8,1.3*22
$GPRMC,025922.00,A,3722.830279,N,12640.686966,E,036.1,214.6,231119,,,A*5F
$GPGGA,025923.00,3722.821896,N,12640.679107,E,1,31,0.6,13.1,M,17.8,M,,*5D
$PGLOR,10,STA,025923.00,0.001,0.000,178,1,6,0,P,D,L,0,C,2,S,00300002,87,5,R,000833F4,TPEF,51,35761,LC,,,DR,0,*6D
$PGLOR,1,UNC,025923.00,0.011,6.0,4.0,0.06,1.00,6.0,6.0,0.0*27
$PSSGR,GSA,A,3,02,05,13,15,20,21,29,30,,,,,1.4,0.8,1.1,1,1*49
$PSSGR,GSA,A,3,,,,,,,,,,,,,1.4,0.8,1.1,1,8*48
$PSSGR,GSA,A,3,66,67,76,81,,,,,,,,,1.4,0.8,1.1,2,1*4B
$PSSGR,GSA,A,3,01,02,07,,,,,,,,,,1.4,0.8,1.1,5,1*41
$PSSGR,GSA,A,3,01,02,07,,,,,,,,,,1.4,0.8,1.1,5,8*48
$PSSGR,GSA,A,3,206,208,213,216,220,223,225,229,230,232,237,,1.4,0.8,1.1,4,3*76
$PSSGR,GSA,A,3,,,,,,,,,,,,,1.4,0.8,1.1,4,5*40
$PSSGR,GSA,A,3,109,,,,,,,,,,,,1.4,0.8,1.1,3,7*7D
$PSSGR,GSA,A,3,109,,,,,,,,,,,,1.4,0.8,1.1,3,1*7B
$PSSGR,GSA,A,3,,,,,,,,,,,,,1.4,0.8,1.1,6,1*46
$GPGSV,4,1,11,13,70,033,35,15,67,271,37,05,50,081,40,21,30,313,31*74
$GPGSV,4,2,11,29,23,242,40,30,21,047,34,24,18,188,23,02,18,156,31*75
$GPGSV,4,3,11,20,08,296,26*4D
$GPGSV,4,4,11,30,,,,24,,,20,8*6A
$GLGSV,2,1,08,66,48,027,29,67,44,302,32,81,39,212,34,76,31,092,37*64
$GLGSV,2,2,08,75,18,040,25,83,15,333,,77,13,146,24,65,02,072,*6A
$QZGSV,2,1,07,01,77,068,33,07,47,179,26,02,22,152,30,03,16,182,22*69
$QZGSV,2,2,07,01,,,27,07,,,31,02,,,28,8*7F
$BDGSV,5,1,17,213,73,264,30,206,68,259,33,208,64,178,25,232,63,034,33*69
$BDGSV,5,2,17,216,62,256,29,203,44,206,25,220,42,294,38,223,36,098,36*60
$BDGSV,5,3,17,230,33,228,33,229,29,291,35,237,23,156,29,225,16,046,27*64
$BDGSV,5,4,17,227,06,182,,209,39,242,,202,29,238,,205,10,258,*6B
$BDGSV,5,5,17,235,00,332,*68
$GAGSV,3,1,08,104,72,338,33,112,33,180,,109,31,263,36,119,29,058,25*61
$GAGSV,3,2,08,121,15,069,26,101,15,119,32,136,25,316,*67
$GAGSV,3,3,08,109,,,31,1*47
$GPGSA,A,3,02,05,13,15,20,21,29,30,,,,,1.4,0.8,1.1*37
$GPGSA,A,3,,,,,,,,,,,,,1.4,0.8,1.1,8*2B
$QZGSA,A,3,01,02,07,,,,,,,,,,1.4,0.8,1.1*27
$QZGSA,A,3,01,02,07,,,,,,,,,,1.4,0.8,1.1,8*33
$BDGSA,A,3,206,208,213,216,220,223,225,229,230,232,237,,1.4,0.8,1.1*1E
$BDGSA,A,3,,,,,,,,,,,,,1.4,0.8,1.1,5*37
$GAGSA,A,3,109,,,,,,,,,,,,1.4,0.8,1.1*16
$GAGSA,A,3,109,,,,,,,,,,,,1.4,0.8,1.1,1*0B
$NCGSA,A,3,,,,,,,,,,,,,1.4,0.8,1.1,1*38
$GNGSA,A,3,02,05,13,15,20,21,29,30,,,,,1.4,0.8,1.1*29
$GNGSA,A,3,66,67,76,81,,,,,,,,,1.4,0.8,1.1*28
$GPRMC,025923.00,A,3722.821896,N,12640.679107,E,036.9,216.9,231119,,,A*5F
$GPGGA,025924.00,3722.813595,N,12640.671141,E,1,31,0.4,12.9,M,17.8,M,,*54
$PGLOR,10,STA,025924.00,0.001,0.000,178,1,4,0,P,D,L,0,C,2,S,00300002,106,5,R,000833F4,TPEF,51,36761,LC,,,DR,0,*53
$PGLOR,1,UNC,025924.00,0.011,4.0,3.9,0.04,1.00,4.0,4.0,0.0*2E
$PSSGR,GSA,A,3,02,05,13,15,20,21,24,29,30,,,,1.4,0.7,1.2,1,1*43
$PSSGR,GSA,A,3,,,,,,,,,,,,,1.4,0.7,1.2,1,8*44
$PSSGR,GSA,A,3,66,67,76,81,,,,,,,,,1.4,0.7,1.2,2,1*47
$PSSGR,GSA,A,3,01,02,07,,,,,,,,,,1.4,0.7,1.2,5,1*4D
$PSSGR,GSA,A,3,01,02,07,,,,,,,,,,1.4,0.7,1.2,5,8*44
$PSSGR,GSA,A,3,206,208,213,220,223,225,229,230,232,237,,,1.4,0.7,1.2,4,3*4F
$PSSGR,GSA,A,3,,,,,,,,,,,,,1.4,0.7,1.2,4,5*4C
$PSSGR,GSA,A,3,109,,,,,,,,,,,,1.4,0.7,1.2,3,7*71
$PSSGR,GSA,A,3,109,,,,,,,,,,,,1.4,0.7,1.2,3,1*77
$PSSGR,GSA,A,3,,,,,,,,,,,,,1.4,0.7,1.2,6,1*4A
$GPGSV,4,1,11,13,70,033,36,15,67,271,37,05,50,081,40,21,30,313,31*77
$GPGSV,4,2,11,29,22,242,40,30,21,047,33,24,18,188,24,02,18,156,30*75
$GPGSV,4,3,11,20,08,296,26*4D
$GPGSV,4,4,11,30,,,,24,,,,8*68
$GLGSV,2,1,08,66,48,027,29,67,44,302,32,81,39,212,33,76,31,092,37*63
$GLGSV,2,2,08,75,18,040,24,83,15,333,,77,13,146,24,65,02,072,*6B
$QZGSV,2,1,07,01,77,068,32,07,47,179,25,02,22,152,30,03,16,182,24*6D
$QZGSV,2,2,07,01,,,27,07,,,31,02,,,28,8*7F
$BDGSV,5,1,17,213,73,264,31,206,68,259,33,208,64,178,25,232,63,034,32*69
$BDGSV,5,2,17,216,62,256,29,203,44,206,25,220,42,294,37,223,36,098,36*6F
$BDGSV,5,3,17,230,33,228,33,229,29,291,35,237,23,156,29,225,16,046,27*64
$BDGSV,5,4,17,227,06,182,,209,39,242,,202,29,238,,205,10,258,*6B
$BDGSV,5,5,17,235,00,331,*6B
$GAGSV,3,1,08,104,72,338,33,112,33,180,,109,31,263,36,119,29,058,28*6C
$GAGSV,3,2,08,121,15,069,25,101,15,119,32,136,25,316,*64
$GAGSV,3,3,08,109,,,31,1*47
$GPGSA,A,3,02,05,13,15,20,21,24,29,30,,,,1.4,0.7,1.2*3D
$GPGSA,A,3,,,,,,,,,,,,,1.4,0.7,1.2,8*27
$QZGSA,A,3,01,02,07,,,,,,,,,,1.4,0.7,1.2*2B
$QZGSA,A,3,01,02,07,,,,,,,,,,1.4,0.7,1.2,8*3F
$BDGSA,A,3,206,208,213,220,223,225,229,230,232,237,,,1.4,0.7,1.2*27
$BDGSA,A,3,,,,,,,,,,,,,1.4,0.7,1.2,5*3B
$GAGSA,A,3,109,,,,,,,,,,,,1.4,0.7,1.2*1A
$GAGSA,A,3,109,,,,,,,,,,,,1.4,0.7,1.2,1*07
$NCGSA,A,3,,,,,,,,,,,,,1.4,0.7,1.2,1*34
$GNGSA,A,3,02,05,13,15,20,21,24,29,30,,,,1.4,0.7,1.2*23
$GNGSA,A,3,66,67,76,81,,,,,,,,,1.4,0.7,1.2*24
$GPRMC,025924.00,A,3722.813595,N,12640.671141,E,036.9,217.6,231119,,,A*53
$GPGGA,025925.00,3722.805382,N,12640.663161,E,1,30,0.4,12.8,M,17.8,M,,*53
$PGLOR,10,STA,025925.00,0.001,0.000,178,1,4,0,P,D,L,0,C,2,S,00300002,125,5,R,000833F4,TPEF,51,37761,LC,,,DR,0,*52
$PGLOR,1,UNC,025925.00,0.011,4.0,3.8,0.04,1.00,4.0,4.0,0.0*2E
$PSSGR,GSA,A,3,05,13,15,20,21,24,29,30,,,,,1.5,0.8,1.2,1,1*4F
$PSSGR,GSA,A,3,,,,,,,,,,,,,1.5,0.8,1.2,1,8*4A
$PSSGR,GSA,A,3,66,67,76,81,,,,,,,,,1.5,0.8,1.2,2,1*49
$PSSGR,GSA,A,3,01,02,07,,,,,,,,,,1.5,0.8,1.2,5,1*43
$PSSGR,GSA,A,3,01,02,07,,,,,,,,,,1.5,0.8,1.2,5,8*4A
$PSSGR,GSA,A,3,206,208,213,216,220,223,225,229,230,232,237,,1.5,0.8,1.2,4,3*74
$PSSGR,GSA,A,3,,,,,,,,,,,,,1.5,0.8,1.2,4,5*42
$PSSGR,GSA,A,3,,,,,,,,,,,,,1.5,0.8,1.2,3,7*47
$PSSGR,GSA,A,3,109,,,,,,,,,,,,1.5,0.8,1.2,3,1*79
$PSSGR,GSA,A,3,,,,,,,,,,,,,1.5,0.8,1.2,6,1*44
$GPGSV,4,1,11,13,70,033,36,15,67,271,37,05,50,081,40,21,30,313,31*77
$GPGSV,4,2,11,29,22,242,39,30,21,047,33,24,18,188,24,02,18,156,28*72
$GPGSV,4,3,11,20,08,296,27*4C
$GPGSV,4,4,11,30,,,16,24,,,19,8*67
$GLGSV,2,1,08,66,48,027,29,67,44,302,32,81,39,212,33,76,31,092,38*6C
$GLGSV,2,2,08,75,18,040,24,83,15,333,,77,13,146,27,65,02,072,*68
$QZGSV,2,1,07,01,77,068,32,07,47,179,25,02,22,152,30,03,16,182,24*6D
$QZGSV,2,2,07,01,,,27,07,,,31,02,,,28,8*7F
$BDGSV,5,1,17,213,73,264,32,206,68,259,33,208,64,178,25,232,63,034,32*6A
$BDGSV,5,2,17,216,62,256,29,203,44,206,25,220,42,294,36,223,36,098,37*6F
$BDGSV,5,3,17,230,33,228,33,229,29,291,35,237,23,156,29,225,16,046,26*65
$BDGSV,5,4,17,227,06,182,18,209,39,242,,202,29,238,,205,10,258,*62
$BDGSV,5,5,17,235,00,331,*6B
$GAGSV,3,1,08,104,72,338,33,112,33,180,26,109,31,263,35,119,29,058,29*6A
$GAGSV,3,2,08,121,15,069,25,101,15,119,31,136,25,316,*67
$GAGSV,3,3,08,109,,,31,1*47
$GPGSA,A,3,05,13,15,20,21,24,29,30,,,,,1.5,0.8,1.2*31
$GPGSA,A,3,,,,,,,,,,,,,1.5,0.8,1.2,8*29
$QZGSA,A,3,01,02,07,,,,,,,,,,1.5,0.8,1.2*25
$QZGSA,A,3,01,02,07,,,,,,,,,,1.5,0.8,1.2,8*31
$BDGSA,A,3,206,208,213,216,220,223,225,229,230,232,237,,1.5,0.8,1.2*1C
$BDGSA,A,3,,,,,,,,,,,,,1.5,0.8,1.2,5*35
$GAGSA,A,3,,,,,,,,,,,,,1.5,0.8,1.2*2C
$GAGSA,A,3,109,,,,,,,,,,,,1.5,0.8,1.2,1*09
$NCGSA,A,3,,,,,,,,,,,,,1.5,0.8,1.2,1*3A
$GNGSA,A,3,05,13,15,20,21,24,29,30,,,,,1.5,0.8,1.2*2F
$GNGSA,A,3,66,67,76,81,,,,,,,,,1.5,0.8,1.2*2A
$GPRMC,025925.00,A,3722.805382,N,12640.663161,E,036.7,217.7,231119,,,A*5B
$GPGGA,025926.00,3722.797080,N,12640.655271,E,1,30,0.4,12.7,M,17.8,M,,*5D
$PGLOR,10,STA,025926.00,0.001,0.000,178,1,4,0,P,D,L,0,C,2,S,00300002,144,5,R,000833F4,TPEF,51,38761,LC,,,DR,0,*59
$PGLOR,1,UNC,025926.00,0.011,4.0,3.7,0.04,1.00,4.0,4.0,0.0*22
$PSSGR,GSA,A,3,05,13,15,20,21,24,29,30,,,,,1.5,0.8,1.2,1,1*4F
$PSSGR,GSA,A,3,,,,,,,,,,,,,1.5,0.8,1.2,1,8*4A
$PSSGR,GSA,A,3,66,67,76,81,,,,,,,,,1.5,0.8,1.2,2,1*49
$PSSGR,GSA,A,3,01,02,07,,,,,,,,,,1.5,0.8,1.2,5,1*43
$PSSGR,GSA,A,3,01,02,07,,,,,,,,,,1.5,0.8,1.2,5,8*4A
$PSSGR,GSA,A,3,206,208,213,216,220,223,225,229,230,232,237,,1.5,0.8,1.2,4,3*74
$PSSGR,GSA,A,3,,,,,,,,,,,,,1.5,0.8,1.2,4,5*42
$PSSGR,GSA,A,3,,,,,,,,,,,,,1.5,0.8,1.2,3,7*47
$PSSGR,GSA,A,3,109,,,,,,,,,,,,1.5,0.8,1.2,3,1*79
$PSSGR,GSA,A,3,,,,,,,,,,,,,1.5,0.8,1.2,6,1*44
$GPGSV,4,1,11,13,70,033,36,15,67,271,36,05,50,081,40,21,30,313,31*76
$GPGSV,4,2,11,29,22,242,39,30,20,047,32,24,18,188,24,02,18,156,27*7D
$GPGSV,4,3,11,20,08,296,27*4C
$GPGSV,4,4,11,30,,,16,24,,,,8*6F
$GLGSV,2,1,08,66,48,027,31,67,44,302,32,81,39,212,33,76,31,092,37*6A
$GLGSV,2,2,08,75,18,040,23,83,15,333,,77,13,146,27,65,02,072,*6F
$QZGSV,2,1,07,01,77,068,31,07,47,179,25,02,22,152,30,03,16,182,24*6E
$QZGSV,2,2,07,01,,,27,07,,,32,02,,,28,8*7C
$BDGSV,5,1,17,213,73,264,33,206,68,259,33,208,64,178,25,232,63,034,32*6B
$BDGSV,5,2,17,216,62,256,29,203,44,206,24,220,42,294,35,223,36,098,37*6D
$BDGSV,5,3,17,230,33,228,33,229,29,291,35,237,23,156,29,225,16,046,25*66
$BDGSV,5,4,17,227,06,182,18,209,39,242,,202,29,238,,205,10,258,*62
$BDGSV,5,5,17,235,00,331,*6B
$GAGSV,3,1,08,104,72,338,33,112,33,180,25,109,31,263,34,119,29,058,30*60
$GAGSV,3,2,08,121,15,069,25,101,15,119,31,136,25,316,*67
$GAGSV,3,3,08,109,,,30,1*46
$GPGSA,A,3,05,13,15,20,21,24,29,30,,,,,1.5,0.8,1.2*31
$GPGSA,A,3,,,,,,,,,,,,,1.5,0.8,1.2,8*29
$QZGSA,A,3,01,02,07,,,,,,,,,,1.5,0.8,1.2*25
$QZGSA,A,3,01,02,07,,,,,,,,,,1.5,0.8,1.2,8*31
$BDGSA,A,3,206,208,213,216,220,223,225,229,230,232,237,,1.5,0.8,1.2*1C
$BDGSA,A,3,,,,,,,,,,,,,1.5,0.8,1.2,5*35
$GAGSA,A,3,,,,,,,,,,,,,1.5,0.8,1.2*2C
$GAGSA,A,3,109,,,,,,,,,,,,1.5,0.8,1.2,1*09
$NCGSA,A,3,,,,,,,,,,,,,1.5,0.8,1.2,1*3A
$GNGSA,A,3,05,13,15,20,21,24,29,30,,,,,1.5,0.8,1.2*2F
$GNGSA,A,3,66,67,76,81,,,,,,,,,1.5,0.8,1.2*2A
$GPRMC,025926.00,A,3722.797080,N,12640.655271,E,036.7,217.6,231119,,,A*5B
$GPGGA,025927.00,3722.788738,N,12640.647589,E,1,28,0.4,12.5,M,17.8,M,,*5E
$PGLOR,10,STA,025927.00,0.001,0.000,178,1,4,0,P,D,L,0,C,2,S,00300002,164,5,R,000833F4,TPEF,51,39761,LC,,,DR,0,*5B
$PGLOR,1,UNC,025927.00,0.011,4.0,3.6,0.03,1.52,4.0,4.0,0.0*22
$PSSGR,GSA,A,3,02,05,13,15,20,21,24,29,30,,,,1.4,0.8,1.1,1,1*4F
$PSSGR,GSA,A,3,,,,,,,,,,,,,1.4,0.8,1.1,1,8*48
$PSSGR,GSA,A,3,67,76,,,,,,,,,,,1.4,0.8,1.1,2,1*42
$PSSGR,GSA,A,3,01,02,07,,,,,,,,,,1.4,0.8,1.1,5,1*41
$PSSGR,GSA,A,3,01,02,07,,,,,,,,,,1.4,0.8,1.1,5,8*48
$PSSGR,GSA,A,3,206,208,213,216,220,223,229,230,232,237,,,1.4,0.8,1.1,4,3*43
$PSSGR,GSA,A,3,,,,,,,,,,,,,1.4,0.8,1.1,4,5*40
$PSSGR,GSA,A,3,109,,,,,,,,,,,,1.4,0.8,1.1,3,7*7D
$PSSGR,GSA,A,3,,,,,,,,,,,,,1.4,0.8,1.1,3,1*43
$PSSGR,GSA,A,3,,,,,,,,,,,,,1.4,0.8,1.1,6,1*46
$GPGSV,4,1,11,13,70,033,36,15,67,271,36,05,50,081,41,21,30,313,31*77
$GPGSV,4,2,11,29,22,242,39,30,20,047,32,24,18,188,24,02,18,156,27*7D
$GPGSV,4,3,11,20,08,296,27*4C
$GPGSV,4,4,11,30,,,17,24,,,,8*6E
$GLGSV,2,1,08,66,48,027,33,67,44,302,32,81,39,212,32,76,31,092,38*66
$GLGSV,2,2,08,75,18,040,23,83,15,333,22,77,13,146,26,65,02,072,*6E
$QZGSV,2,1,07,01,77,068,31,07,47,179,26,02,22,152,31,03,16,182,24*6C
$QZGSV,2,2,07,01,,,27,07,,,32,02,,,27,8*73
$BDGSV,5,1,17,213,73,264,33,206,68,259,33,208,64,178,26,232,63,034,32*68
$BDGSV,5,2,17,216,62,256,29,203,44,206,23,220,42,294,35,223,36,098,36*6B
$BDGSV,5,3,17,230,33,228,33,229,29,291,34,237,23,156,29,225,16,046,24*66
$BDGSV,5,4,17,227,06,182,18,209,39,242,,202,29,238,,205,10,258,*62
$BDGSV,5,5,17,235,00,331,*6B
$GAGSV,3,1,08,104,72,338,33,112,33,180,25,109,31,263,34,119,29,058,30*60
$GAGSV,3,2,08,121,15,069,27,101,15,119,31,136,25,316,*65
$GAGSV,3,3,08,109,,,30,1*46
$GPGSA,A,3,02,05,13,15,20,21,24,29,30,,,,1.4,0.8,1.1*31
$GPGSA,A,3,,,,,,,,,,,,,1.4,0.8,1.1,8*2B
$QZGSA,A,3,01,02,07,,,,,,,,,,1.4,0.8,1.1*27
$QZGSA,A,3,01,02,07,,,,,,,,,,1.4,0.8,1.1,8*33
$BDGSA,A,3,206,208,213,216,220,223,229,230,232,237,,,1.4,0.8,1.1*2B
$BDGSA,A,3,,,,,,,,,,,,,1.4,0.8,1.1,5*37
$GAGSA,A,3,109,,,,,,,,,,,,1.4,0.8,1.1*16
$GAGSA,A,3,,,,,,,,,,,,,1.4,0.8,1.1,1*33
$NCGSA,A,3,,,,,,,,,,,,,1.4,0.8,1.1,1*38
$GNGSA,A,3,02,05,13,15,20,21,24,29,30,,,,1.4,0.8,1.1*2F
$GNGSA,A,3,67,76,,,,,,,,,,,1.4,0.8,1.1*21
$GPRMC,025927.00,A,3722.788738,N,12640.647589,E,036.7,216.4,231119,,,A*50
$GPGGA,025928.00,3722.780410,N,12640.640025,E,1,30,0.4,12.4,M,17.8,M,,*5C
$PGLOR,10,STA,025928.00,0.001,0.000,178,1,4,0,P,D,L,0,C,2,S,00300002,183,5,R,000833F4,TPEF,51,40761,LC,,,DR,0,*53
$PGLOR,1,UNC,025928.00,0.011,4.0,3.6,0.04,1.00,4.0,4.0,0.0*2D
$PSSGR,GSA,A,3,02,05,13,15,20,21,24,29,30,,,,1.4,0.7,1.2,1,1*43
$PSSGR,GSA,A,3,,,,,,,,,,,,,1.4,0.7,1.2,1,8*44
$PSSGR,GSA,A,3,66,67,75,76,81,,,,,,,,1.4,0.7,1.2,2,1*45
$PSSGR,GSA,A,3,01,02,,,,,,,,,,,1.4,0.7,1.2,5,1*4A
$PSSGR,GSA,A,3,02,07,,,,,,,,,,,1.4,0.7,1.2,5,8*45
$PSSGR,GSA,A,3,206,208,213,216,220,223,229,230,232,237,,,1.4,0.7,1.2,4,3*4F
$PSSGR,GSA,A,3,,,,,,,,,,,,,1.4,0.7,1.2,4,5*4C
$PSSGR,GSA,A,3,109,,,,,,,,,,,,1.4,0.7,1.2,3,7*71
$PSSGR,GSA,A,3,109,,,,,,,,,,,,1.4,0.7,1.2,3,1*77
$PSSGR,GSA,A,3,,,,,,,,,,,,,1.4,0.7,1.2,6,1*4A
$GPGSV,4,1,11,13,70,033,36,15,67,271,35,05,50,081,41,21,30,313,32*77
$GPGSV,4,2,11,29,22,242,39,30,20,047,32,24,18,188,24,02,18,156,29*73
$GPGSV,4,3,11,20,08,296,27*4C
$GPGSV,4,4,11,30,,,17,24,,,17,8*68
$GLGSV,2,1,08,66,48,027,33,67,44,302,32,81,39,212,31,76,31,092,38*65
$GLGSV,2,2,08,75,18,040,23,83,15,333,22,77,13,146,,65,02,072,*6A
$QZGSV,2,1,07,01,77,068,30,07,47,179,26,02,22,152,31,03,16,182,28*61
$QZGSV,2,2,07,01,,,27,07,,,32,02,,,27,8*73
$BDGSV,5,1,17,213,73,264,33,206,68,259,33,208,64,178,25,232,63,034,31*68
$BDGSV,5,2,17,216,62,256,29,203,44,206,,220,42,294,34,223,36,098,36*6B
$BDGSV,5,3,17,230,33,228,33,229,29,291,35,237,23,156,30,225,16,046,24*6F
$BDGSV,5,4,17,227,06,182,18,209,39,242,,202,29,238,,205,10,258,*62
$BDGSV,5,5,17,235,00,331,*6B
$GAGSV,3,1,08,104,72,338,32,112,33,180,24,109,31,263,36,119,29,058,29*6A
$GAGSV,3,2,08,121,15,069,27,101,15,119,32,136,25,316,*66
$GAGSV,3,3,08,109,,,30,1*46
$GPGSA,A,3,02,05,13,15,20,21,24,29,30,,,,1.4,0.7,1.2*3D
$GPGSA,A,3,,,,,,,,,,,,,1.4,0.7,1.2,8*27
$QZGSA,A,3,01,02,,,,,,,,,,,1.4,0.7,1.2*2C
$QZGSA,A,3,02,07,,,,,,,,,,,1.4,0.7,1.2,8*3E
$BDGSA,A,3,206,208,213,216,220,223,229,230,232,237,,,1.4,0.7,1.2*27
$BDGSA,A,3,,,,,,,,,,,,,1.4,0.7,1.2,5*3B
$GAGSA,A,3,109,,,,,,,,,,,,1.4,0.7,1.2*1A
$GAGSA,A,3,109,,,,,,,,,,,,1.4,0.7,1.2,1*07
$NCGSA,A,3,,,,,,,,,,,,,1.4,0.7,1.2,1*34
$GNGSA,A,3,02,05,13,15,20,21,24,29,30,,,,1.4,0.7,1.2*23
$GNGSA,A,3,66,67,75,76,81,,,,,,,,1.4,0.7,1.2*26
$GPRMC,025928.00,A,3722.780410,N,12640.640025,E,036.8,215.2,231119,,,A*50
$GPGGA,025929.00,3722.772013,N,12640.632443,E,1,31,0.4,12.2,M,17.8,M,,*51
$PGLOR,10,STA,025929.00,0.001,0.000,178,1,4,0,P,D,L,0,C,2,S,00300002,202,5,R,000833F4,TPEF,51,41761,LC,,,DR,0,*59
$PGLOR,1,UNC,025929.00,0.010,4.0,3.5,0.04,1.00,4.0,4.0,0.0*2E
$PSSGR,GSA,A,3,02,05,13,15,20,21,24,29,30,,,,1.5,0.8,1.2,1,1*4D
$PSSGR,GSA,A,3,,,,,,,,,,,,,1.5,0.8,1.2,1,8*4A
$PSSGR,GSA,A,3,66,67,76,81,,,,,,,,,1.5,0.8,1.2,2,1*49
$PSSGR,GSA,A,3,01,02,07,,,,,,,,,,1.5,0.8,1.2,5,1*43
$PSSGR,GSA,A,3,01,02,07,,,,,,,,,,1.5,0.8,1.2,5,8*4A
$PSSGR,GSA,A,3,206,208,213,216,220,223,229,230,232,237,,,1.5,0.8,1.2,4,3*41
$PSSGR,GSA,A,3,,,,,,,,,,,,,1.5,0.8,1.2,4,5*42
$PSSGR,GSA,A,3,109,,,,,,,,,,,,1.5,0.8,1.2,3,7*7F
$PSSGR,GSA,A,3,109,,,,,,,,,,,,1.5,0.8,1.2,3,1*79
$PSSGR,GSA,A,3,,,,,,,,,,,,,1.5,0.8,1.2,6,1*44
$GPGSV,4,1,11,13,70,033,36,15,67,271,35,05,50,081,41,21,30,313,33*76
$GPGSV,4,2,11,29,22,242,39,30,20,047,32,24,18,188,26,02,18,156,29*71
$GPGSV,4,3,11,20,08,296,27*4C
$GPGSV,4,4,11,30,,,20,24,,,,8*6A
$GLGSV,2,1,08,66,48,027,33,67,44,302,32,81,39,212,31,76,31,092,38*65
$GLGSV,2,2,08,75,18,040,22,83,15,333,21,77,13,146,25,65,02,072,*6F
$QZGSV,2,1,07,01,77,068,30,07,47,179,26,02,22,152,31,03,16,182,29*60
$QZGSV,2,2,07,01,,,27,07,,,32,02,,,27,8*73
$BDGSV,5,1,17,213,73,264,33,206,68,259,33,208,64,178,25,232,63,034,31*68
$BDGSV,5,2,17,216,62,256,29,203,44,206,22,220,42,294,34,223,36,098,36*6B
$BDGSV,5,3,17,230,33,228,33,229,29,291,36,237,23,156,29,225,16,046,23*63
$BDGSV,5,4,17,227,06,182,17,209,39,242,,202,29,238,,205,10,258,*6D
$BDGSV,5,5,17,235,00,331,*6B
$GAGSV,3,1,08,104,72,338,32,112,33,180,24,109,31,263,37,119,29,058,29*6B
$GAGSV,3,2,08,121,15,069,27,101,15,119,32,136,25,316,*66
$GAGSV,3,3,08,109,,,29,1*4E
$GPGSA,A,3,02,05,13,15,20,21,24,29,30,,,,1.5,0.8,1.2*33
$GPGSA,A,3,,,,,,,,,,,,,1.5,0.8,1.2,8*29
$QZGSA,A,3,01,02,07,,,,,,,,,,1.5,0.8,1.2*25
$QZGSA,A,3,01,02,07,,,,,,,,,,1.5,0.8,1.2,8*31
$BDGSA,A,3,206,208,213,216,220,223,229,230,232,237,,,1.5,0.8,1.2*29
$BDGSA,A,3,,,,,,,,,,,,,1.5,0.8,1.2,5*35
$GAGSA,A,3,109,,,,,,,,,,,,1.5,0.8,1.2*14
$GAGSA,A,3,109,,,,,,,,,,,,1.5,0.8,1.2,1*09
$NCGSA,A,3,,,,,,,,,,,,,1.5,0.8,1.2,1*3A
$GNGSA,A,3,02,05,13,15,20,21,24,29,30,,,,1.5,0.8,1.2*2D
$GNGSA,A,3,66,67,76,81,,,,,,,,,1.5,0.8,1.2*2A
$GPRMC,025929.00,A,3722.772013,N,12640.632443,E,036.8,215.7,231119,,,A*5F
$GPGGA,025930.00,3722.763632,N,12640.624818,E,1,31,0.4,12.2,M,17.8,M,,*59
$PGLOR,10,STA,025930.00,0.001,0.000,178,1,4,0,P,D,L,0,C,2,S,00300002,221,5,R,000833F4,TPEF,51,42761,LC,,,DR,0,*53
$PGLOR,1,UNC,025930.00,0.010,4.0,3.4,0.04,1.00,4.0,4.0,0.0*27
$PSSGR,GSA,A,3,02,05,13,15,21,24,29,30,,,,,1.5,0.8,1.3,1,1*4E
$PSSGR,GSA,A,3,,,,,,,,,,,,,1.5,0.8,1.3,1,8*4B
$PSSGR,GSA,A,3,66,67,75,76,81,,,,,,,,1.5,0.8,1.3,2,1*4A
$PSSGR,GSA,A,3,01,02,07,,,,,,,,,,1.5,0.8,1.3,5,1*42
$PSSGR,GSA,A,3,01,02,07,,,,,,,,,,1.5,0.8,1.3,5,8*4B
$PSSGR,GSA,A,3,206,208,213,216,220,223,229,230,232,237,,,1.5,0.8,1.3,4,3*40
$PSSGR,GSA,A,3,,,,,,,,,,,,,1.5,0.8,1.3,4,5*43
$PSSGR,GSA,A,3,109,,,,,,,,,,,,1.5,0.8,1.3,3,7*7E
$PSSGR,GSA,A,3,109,,,,,,,,,,,,1.5,0.8,1.3,3,1*78
$PSSGR,GSA,A,3,,,,,,,,,,,,,1.5,0.8,1.3,6,1*45
$GPGSV,4,1,11,13,70,033,36,15,67,271,35,05,50,081,41,21,30,313,33*76
$GPGSV,4,2,11,29,22,242,39,30,20,047,32,24,18,188,26,02,18,156,28*70
$GPGSV,4,3,11,20,08,296,28*43
$GPGSV,4,4,11,30,,,21,24,,,,8*6B
$GLGSV,2,1,08,66,48,027,33,67,44,302,32,81,39,212,31,76,31,092,38*65
$GLGSV,2,2,08,75,18,040,22,83,15,333,,77,13,146,27,65,02,072,*6E
$QZGSV,2,1,07,01,77,068,30,07,47,179,26,02,22,152,31,03,16,182,29*60
$QZGSV,2,2,07,01,,,27,07,,,32,02,,,27,8*73
$BDGSV,5,1,17,213,73,264,33,206,68,259,33,208,64,178,25,232,63,034,31*68
$BDGSV,5,2,17,216,62,256,29,203,44,206,21,220,42,294,33,223,36,098,36*6F
$BDGSV,5,3,17,230,33,228,34,229,29,291,36,237,23,156,29,225,16,046,23*64
$BDGSV,5,4,17,227,06,182,,209,39,242,,202,29,238,,205,10,258,*6B
$BDGSV,5,5,17,235,00,331,*6B
$GAGSV,3,1,08,104,72,338,32,112,33,180,23,109,31,263,37,119,29,058,30*64
$GAGSV,3,2,08,121,15,069,25,101,15,119,32,136,25,316,*64
$GAGSV,3,3,08,109,,,29,1*4E
$GPGSA,A,3,02,05,13,15,21,24,29,30,,,,,1.5,0.8,1.3*30
$GPGSA,A,3,,,,,,,,,,,,,1.5,0.8,1.3,8*28
$QZGSA,A,3,01,02,07,,,,,,,,,,1.5,0.8,1.3*24
$QZGSA,A,3,01,02,07,,,,,,,,,,1.5,0.8,1.3,8*30
$BDGSA,A,3,206,208,213,216,220,223,229,230,232,237,,,1.5,0.8,1.3*28
$BDGSA,A,3,,,,,,,,,,,,,1.5,0.8,1.3,5*34
$GAGSA,A,3,109,,,,,,,,,,,,1.5,0.8,1.3*15
$GAGSA,A,3,109,,,,,,,,,,,,1.5,0.8,1.3,1*08
$NCGSA,A,3,,,,,,,,,,,,,1.5,0.8,1.3,1*3B
$GNGSA,A,3,02,05,13,15,21,24,29,30,,,,,1.5,0.8,1.3*2E
$GNGSA,A,3,66,67,75,76,81,,,,,,,,1.5,0.8,1.3*29
$GPRMC,025930.00,A,3722.763632,N,12640.624818,E,036.9,216.2,231119,,,A*50
$GPGGA,025931.00,3722.755440,N,12640.617100,E,1,30,0.4,12.2,M,17.8,M,,*5B
$PGLOR,10,STA,025931.00,0.001,0.000,178,1,4,0,P,D,L,0,C,2,S,00300002,240,5,R,000833F4,TPEF,51,43761,LC,,,DR,0,*54
$PGLOR,1,UNC,025931.00,0.010,4.0,3.4,0.04,1.00,4.0,4.0,0.0*26
$PSSGR,GSA,A,3,02,05,13,15,20,21,24,29,30,,,,1.4,0.7,1.2,1,1*43
$PSSGR,GSA,A,3,,,,,,,,,,,,,1.4,0.7,1.2,1,8*44
$PSSGR,GSA,A,3,67,76,81,,,,,,,,,,1.4,0.7,1.2,2,1*47
$PSSGR,GSA,A,3,01,02,07,,,,,,,,,,1.4,0.7,1.2,5,1*4D
$PSSGR,GSA,A,3,01,02,07,,,,,,,,,,1.4,0.7,1.2,5,8*44
$PSSGR,GSA,A,3,206,208,213,216,220,223,229,230,232,237,,,1.4,0.7,1.2,4,3*4F
$PSSGR,GSA,A,3,,,,,,,,,,,,,1.4,0.7,1.2,4,5*4C
$PSSGR,GSA,A,3,109,,,,,,,,,,,,1.4,0.7,1.2,3,7*71
$PSSGR,GSA,A,3,109,,,,,,,,,,,,1.4,0.7,1.2,3,1*77
$PSSGR,GSA,A,3,,,,,,,,,,,,,1.4,0.7,1.2,6,1*4A
$GPGSV,4,1,11,13,70,033,36,15,67,271,35,05,49,081,41,21,30,313,34*79
$GPGSV,4,2,11,29,22,242,38,30,20,047,31,24,18,188,25,02,18,156,27*7E
$GPGSV,4,3,11,20,08,296,28*43
$GPGSV,4,4,11,30,,,22,24,,,16,8*6F
$GLGSV,2,1,08,66,48,027,32,67,44,302,32,81,39,212,31,76,31,092,38*64
$GLGSV,2,2,08,75,18,040,22,83,15,333,,77,13,146,27,65,02,072,*6E
$QZGSV,2,1,07,01,77,068,30,07,47,179,26,02,22,152,31,03,16,182,28*61
$QZGSV,2,2,07,01,,,27,07,,,32,02,,,27,8*73
$BDGSV,5,1,17,213,73,264,33,206,68,259,33,208,64,178,25,232,63,034,31*68
$BDGSV,5,2,17,216,62,256,28,203,44,206,20,220,42,294,33,223,36,098,36*6F
$BDGSV,5,3,17,230,33,228,34,229,29,291,36,237,23,156,29,225,16,046,23*64
$BDGSV,5,4,17,227,06,182,16,209,39,242,,202,29,238,,205,10,258,*6C
$BDGSV,5,5,17,235,00,331,*6B
$GAGSV,3,1,08,104,72,338,32,112,33,180,,109,31,263,37,119,29,058,30*65
$GAGSV,3,2,08,121,15,069,25,101,15,119,32,136,25,316,*64
$GAGSV,3,3,08,109,,,29,1*4E
$GPGSA,A,3,02,05,13,15,20,21,24,29,30,,,,1.4,0.7,1.2*3D
$GPGSA,A,3,,,,,,,,,,,,,1.4,0.7,1.2,8*27
$QZGSA,A,3,01,02,07,,,,,,,,,,1.4,0.7,1.2*2B
$QZGSA,A,3,01,02,07,,,,,,,,,,1.4,0.7,1.2,8*3F
$BDGSA,A,3,206,208,213,216,220,223,229,230,232,237,,,1.4,0.7,1.2*27
$BDGSA,A,3,,,,,,,,,,,,,1.4,0.7,1.2,5*3B
$GAGSA,A,3,109,,,,,,,,,,,,1.4,0.7,1.2*1A
$GAGSA,A,3,109,,,,,,,,,,,,1.4,0.7,1.2,1*07
$NCGSA,A,3,,,,,,,,,,,,,1.4,0.7,1.2,1*34
$GNGSA,A,3,02,05,13,15,20,21,24,29,30,,,,1.4,0.7,1.2*23
$GNGSA,A,3,67,76,81,,,,,,,,,,1.4,0.7,1.2*24
$GPRMC,025931.00,A,3722.755440,N,12640.617100,E,036.9,216.7,231119,,,A*56
$GPGGA,025932.00,3722.747214,N,12640.609406,E,1,30,0.4,12.2,M,17.8,M,,*50
$PGLOR,10,STA,025932.00,0.001,0.000,178,1,4,0,P,D,L,0,C,3,S,00300002,259,5,R,000833F4,TPEF,51,44761,LC,,,DR,0,*59
$PGLOR,1,UNC,025932.00,0.010,4.0,3.3,0.04,1.00,4.0,4.0,0.0*22
$PSSGR,GSA,A,3,05,13,15,20,21,24,29,30,,,,,1.5,0.8,1.2,1,1*4F
$PSSGR,GSA,A,3,,,,,,,,,,,,,1.5,0.8,1.2,1,8*4A
$PSSGR,GSA,A,3,66,67,76,81,,,,,,,,,1.5,0.8,1.2,2,1*49
$PSSGR,GSA,A,3,01,02,07,,,,,,,,,,1.5,0.8,1.2,5,1*43
$PSSGR,GSA,A,3,01,02,07,,,,,,,,,,1.5,0.8,1.2,5,8*4A
$PSSGR,GSA,A,3,206,208,213,216,220,223,229,230,232,237,,,1.5,0.8,1.2,4,3*41
$PSSGR,GSA,A,3,,,,,,,,,,,,,1.5,0.8,1.2,4,5*42
$PSSGR,GSA,A,3,109,,,,,,,,,,,,1.5,0.8,1.2,3,7*7F
$PSSGR,GSA,A,3,109,,,,,,,,,,,,1.5,0.8,1.2,3,1*79
$PSSGR,GSA,A,3,,,,,,,,,,,,,1.5,0.8,1.2,6,1*44
$GPGSV,4,1,11,13,70,033,36,15,67,271,34,05,49,081,40,21,30,313,34*79
$GPGSV,4,2,11,29,22,242,38,30,20,047,31,24,18,188,25,02,18,156,26*7F
$GPGSV,4,3,11,20,08,296,30*4A
$GPGSV,4,4,11,30,,,22,24,,,17,8*6E
$GLGSV,2,1,08,66,48,027,32,67,44,302,32,81,39,212,30,76,31,092,39*64
$GLGSV,2,2,08,75,18,040,21,83,15,333,19,77,13,146,27,65,02,072,*65
$QZGSV,2,1,07,01,77,068,30,07,47,179,26,02,22,152,30,03,16,182,28*60
$QZGSV,2,2,07,01,,,27,07,,,32,02,,,27,8*73
$BDGSV,5,1,17,213,73,264,33,206,68,259,33,208,64,178,24,232,63,034,31*69
$BDGSV,5,2,17,216,62,256,28,203,44,206,20,220,42,294,32,223,36,098,36*6E
$BDGSV,5,3,17,230,33,228,34,229,29,291,36,237,23,156,29,225,16,046,23*64
$BDGSV,5,4,17,227,06,182,18,209,39,242,,202,29,238,,205,10,258,*62
$BDGSV,5,5,17,235,00,331,*6B
$GAGSV,3,1,08,104,72,338,32,112,33,180,22,109,31,263,37,119,29,058,30*65
$GAGSV,3,2,08,121,15,069,26,101,15,119,31,136,25,316,*64
$GAGSV,3,3,08,109,,,29,1*4E
$GPGSA,A,3,05,13,15,20,21,24,29,30,,,,,1.5,0.8,1.2*31
$GPGSA,A,3,,,,,,,,,,,,,1.5,0.8,1.2,8*29
$QZGSA,A,3,01,02,07,,,,,,,,,,1.5,0.8,1.2*25
$QZGSA,A,3,01,02,07,,,,,,,,,,1.5,0.8,1.2,8*31
$BDGSA,A,3,206,208,213,216,220,223,229,230,232,237,,,1.5,0.8,1.2*29
$BDGSA,A,3,,,,,,,,,,,,,1.5,0.8,1.2,5*35
$GAGSA,A,3,109,,,,,,,,,,,,1.5,0.8,1.2*14
$GAGSA,A,3,109,,,,,,,,,,,,1.5,0.8,1.2,1*09
$NCGSA,A,3,,,,,,,,,,,,,1.5,0.8,1.2,1*3A
$GNGSA,A,3,05,13,15,20,21,24,29,30,,,,,1.5,0.8,1.2*2F
$GNGSA,A,3,66,67,76,81,,,,,,,,,1.5,0.8,1.2*2A
$GPRMC,025932.00,A,3722.747214,N,12640.609406,E,036.9,217.0,231119,,,A*5B
$GPGGA,025933.00,3722.739033,N,12640.601556,E,1,30,0.4,12.1,M,17.8,M,,*50
$PGLOR,10,STA,025933.00,0.001,0.000,178,1,4,0,P,D,L,0,C,3,S,00300002,278,5,R,000833F4,TPEF,50,45761,LC,,,DR,0,*5B
$PGLOR,1,UNC,025933.00,0.010,4.0,3.3,0.04,1.00,4.0,4.0,0.0*23
$PSSGR,GSA,A,3,05,13,15,20,21,24,29,30,,,,,1.5,0.8,1.2,1,1*4F
$PSSGR,GSA,A,3,,,,,,,,,,,,,1.5,0.8,1.2,1,8*4A
$PSSGR,GSA,A,3,66,67,76,81,,,,,,,,,1.5,0.8,1.2,2,1*49
$PSSGR,GSA,A,3,01,02,07,,,,,,,,,,1.5,0.8,1.2,5,1*43
$PSSGR,GSA,A,3,01,02,07,,,,,,,,,,1.5,0.8,1.2,5,8*4A
$PSSGR,GSA,A,3,206,208,213,216,220,223,229,230,232,237,,,1.5,0.8,1.2,4,3*41
$PSSGR,GSA,A,3,,,,,,,,,,,,,1.5,0.8,1.2,4,5*42
$PSSGR,GSA,A,3,109,,,,,,,,,,,,1.5,0.8,1.2,3,7*7F
$PSSGR,GSA,A,3,109,,,,,,,,,,,,1.5,0.8,1.2,3,1*79
$PSSGR,GSA,A,3,,,,,,,,,,,,,1.5,0.8,1.2,6,1*44
$GPGSV,4,1,11,13,70,033,36,15,68,271,34,05,49,081,40,21,30,313,33*71
$GPGSV,4,2,11,29,22,242,38,30,20,047,31,24,18,188,25,02,18,156,25*7C
$GPGSV,4,3,11,20,08,296,31*4B
$GPGSV,4,4,11,30,,,22,24,,,17,8*6E
$GLGSV,2,1,08,66,48,027,32,67,44,302,32,81,39,212,30,76,31,092,39*64
$GLGSV,2,2,08,75,18,040,21,83,15,333,,77,13,146,26,65,02,072,*6C
$QZGSV,2,1,07,01,77,068,29,07,47,179,26,02,22,152,30,03,16,182,28*68
$QZGSV,2,2,07,01,,,27,07,,,32,02,,,27,8*73
$BDGSV,4,1,16,213,73,264,33,206,68,259,32,208,64,178,25,232,63,034,31*69
$BDGSV,4,2,16,216,62,256,28,203,44,206,19,220,42,294,32,223,36,098,36*64
$BDGSV,4,3,16,230,33,228,34,229,29,291,36,237,23,156,28,225,16,046,22*64
$BDGSV,4,4,16,227,06,182,18,209,39,242,,205,10,258,,235,00,331,*65
$GAGSV,3,1,08,104,72,338,32,112,33,180,,109,31,263,37,119,29,058,29*6D
$GAGSV,3,2,08,121,15,069,25,101,15,119,31,136,25,316,*67
$GAGSV,3,3,08,109,,,28,1*4F
$GPGSA,A,3,05,13,15,20,21,24,29,30,,,,,1.5,0.8,1.2*31
$GPGSA,A,3,,,,,,,,,,,,,1.5,0.8,1.2,8*29
$QZGSA,A,3,01,02,07,,,,,,,,,,1.5,0.8,1.2*25
$QZGSA,A,3,01,02,07,,,,,,,,,,1.5,0.8,1.2,8*31
$BDGSA,A,3,206,208,213,216,220,223,229,230,232,237,,,1.5,0.8,1.2*29
$BDGSA,A,3,,,,,,,,,,,,,1.5,0.8,1.2,5*35
$GAGSA,A,3,109,,,,,,,,,,,,1.5,0.8,1.2*14
$GAGSA,A,3,109,,,,,,,,,,,,1.5,0.8,1.2,1*09
$NCGSA,A,3,,,,,,,,,,,,,1.5,0.8,1.2,1*3A
$GNGSA,A,3,05,13,15,20,21,24,29,30,,,,,1.5,0.8,1.2*2F
$GNGSA,A,3,66,67,76,81,,,,,,,,,1.5,0.8,1.2*2A
$GPRMC,025933.00,A,3722.739033,N,12640.601556,E,036.9,217.0,231119,,,A*58
$GPGGA,025934.00,3722.730783,N,12640.593969,E,1,29,0.4,12.0,M,17.8,M,,*53
$PGLOR,10,STA,025934.00,0.001,0.000,178,1,4,0,P,D,L,0,C,3,S,00300002,297,5,R,000833F4,TPEF,50,46761,LC,,,DR,0,*5E
$PGLOR,1,UNC,025934.00,0.010,4.0,3.2,0.03,2.38,4.0,4.0,0.0*2A
$PSSGR,GSA,A,3,05,13,15,20,21,29,30,,,,,,1.5,0.9,1.2,1,1*48
$PSSGR,GSA,A,3,,,,,,,,,,,,,1.5,0.9,1.2,1,8*4B
$PSSGR,GSA,A,3,66,67,76,81,,,,,,,,,1.5,0.9,1.2,2,1*48
$PSSGR,GSA,A,3,01,02,07,,,,,,,,,,1.5,0.9,1.2,5,1*42
$PSSGR,GSA,A,3,01,02,07,,,,,,,,,,1.5,0.9,1.2,5,8*4B
$PSSGR,GSA,A,3,206,208,213,216,220,223,229,230,232,237,,,1.5,0.9,1.2,4,3*40
$PSSGR,GSA,A,3,,,,,,,,,,,,,1.5,0.9,1.2,4,5*43
$PSSGR,GSA,A,3,109,,,,,,,,,,,,1.5,0.9,1.2,3,7*7E
$PSSGR,GSA,A,3,109,,,,,,,,,,,,1.5,0.9,1.2,3,1*78
$PSSGR,GSA,A,3,,,,,,,,,,,,,1.5,0.9,1.2,6,1*45
$GPGSV,4,1,11,13,70,033,36,15,68,271,34,05,49,081,40,21,30,313,33*71
$GPGSV,4,2,11,29,22,242,38,30,20,047,31,24,18,188,25,02,18,156,25*7C
$GPGSV,4,3,11,20,08,296,31*4B
$GPGSV,4,4,11,30,,,22,24,,,19,8*60
$GLGSV,2,1,08,66,48,027,31,67,44,302,32,81,39,212,30,76,31,092,39*67
$GLGSV,2,2,08,75,18,040,21,83,15,333,23,77,13,146,,65,02,072,*69
$QZGSV,2,1,07,01,77,068,29,07,47,179,25,02,22,152,30,03,16,182,27*64
$QZGSV,2,2,07,01,,,27,07,,,33,02,,,27,8*72
$BDGSV,5,1,17,213,73,264,32,206,68,259,32,208,64,178,26,232,63,034,31*6B
$BDGSV,5,2,17,216,62,256,27,203,44,206,20,220,42,294,32,223,36,098,35*62
$BDGSV,5,3,17,230,33,228,34,229,29,291,36,237,23,156,28,225,16,046,22*64
$BDGSV,5,4,17,227,06,182,17,209,39,242,,205,10,258,,235,00,331,*6A
$BDGSV,5,5,17,202,25,234,*6C
$GAGSV,3,1,08,104,72,338,32,112,33,180,,109,31,263,37,119,29,058,29*6D
$GAGSV,3,2,08,121,15,069,25,101,15,119,30,136,25,316,*66
$GAGSV,3,3,08,109,,,28,1*4F
$GPGSA,A,3,05,13,15,20,21,29,30,,,,,,1.5,0.9,1.2*36
$GPGSA,A,3,,,,,,,,,,,,,1.5,0.9,1.2,8*28
$QZGSA,A,3,01,02,07,,,,,,,,,,1.5,0.9,1.2*24
$QZGSA,A,3,01,02,07,,,,,,,,,,1.5,0.9,1.2,8*30
$BDGSA,A,3,206,208,213,216,220,223,229,230,232,237,,,1.5,0.9,1.2*28
$BDGSA,A,3,,,,,,,,,,,,,1.5,0.9,1.2,5*34
$GAGSA,A,3,109,,,,,,,,,,,,1.5,0.9,1.2*15
$GAGSA,A,3,109,,,,,,,,,,,,1.5,0.9,1.2,1*08
$NCGSA,A,3,,,,,,,,,,,,,1.5,0.9,1.2,1*3B
$GNGSA,A,3,05,13,15,20,21,29,30,,,,,,1.5,0.9,1.2*28
$GNGSA,A,3,66,67,76,81,,,,,,,,,1.5,0.9,1.2*2B
$GPRMC,025934.00,A,3722.730783,N,12640.593969,E,036.8,216.2,231119,,,A*50
$GPGGA,025935.00,3722.722307,N,12640.586520,E,1,29,0.4,12.0,M,17.8,M,,*5C
$PGLOR,10,STA,025935.00,0.001,0.000,178,1,4,0,P,D,L,0,C,3,S,00300002,316,5,R,000833F4,TPEF,50,47761,LC,,,DR,0,*56
$PGLOR,1,UNC,025935.00,0.010,4.0,3.2,0.03,1.00,4.0,4.0,0.0*23
$PSSGR,GSA,A,3,02,05,13,20,21,24,29,30,,,,,1.6,0.7,1.4,1,1*43
$PSSGR,GSA,A,3,,,,,,,,,,,,,1.6,0.7,1.4,1,8*40
$PSSGR,GSA,A,3,66,67,76,81,,,,,,,,,1.6,0.7,1.4,2,1*43
$PSSGR,GSA,A,3,01,02,07,,,,,,,,,,1.6,0.7,1.4,5,1*49
$PSSGR,GSA,A,3,02,07,,,,,,,,,,,1.6,0.7,1.4,5,8*41
$PSSGR,GSA,A,3,206,208,213,216,220,223,229,230,232,237,,,1.6,0.7,1.4,4,3*4B
$PSSGR,GSA,A,3,,,,,,,,,,,,,1.6,0.7,1.4,4,5*48
$PSSGR,GSA,A,3,109,,,,,,,,,,,,1.6,0.7,1.4,3,7*75
$PSSGR,GSA,A,3,109,,,,,,,,,,,,1.6,0.7,1.4,3,1*73
$PSSGR,GSA,A,3,,,,,,,,,,,,,1.6,0.7,1.4,6,1*4E
$GPGSV,4,1,11,13,70,033,36,15,68,271,33,05,49,081,41,21,30,313,34*70
$GPGSV,4,2,11,29,22,242,38,30,20,047,31,24,18,188,25,02,18,156,27*7E
$GPGSV,4,3,11,20,08,296,30*4A
$GPGSV,4,4,11,30,,,21,24,,,19,8*63
$GLGSV,2,1,08,66,48,027,33,67,44,302,32,81,39,212,29,76,31,092,39*6D
$GLGSV,2,2,08,75,18,040,20,83,15,333,24,77,13,146,,65,02,072,*6F
$QZGSV,2,1,07,01,77,068,29,07,47,179,25,02,22,152,30,03,16,182,27*64
$QZGSV,2,2,07,01,,,27,07,,,33,02,,,27,8*72
$BDGSV,5,1,17,213,73,264,32,206,68,259,33,208,64,178,27,232,63,034,31*6B
$BDGSV,5,2,17,216,62,256,27,203,44,206,19,220,42,294,32,223,36,098,35*68
$BDGSV,5,3,17,230,33,228,34,229,29,291,36,237,23,156,28,225,16,046,21*67
$BDGSV,5,4,17,227,06,182,18,209,39,242,,205,10,258,,235,00,331,*65
$BDGSV,5,5,17,202,25,234,*6C
$GAGSV,3,1,08,104,72,338,31,112,33,180,24,109,31,263,38,119,29,058,29*67
$GAGSV,3,2,08,121,15,069,24,101,15,119,30,136,25,316,*67
$GAGSV,3,3,08,109,,,28,1*4F
$GPGSA,A,3,02,05,13,20,21,24,29,30,,,,,1.6,0.7,1.4*3D
$GPGSA,A,3,,,,,,,,,,,,,1.6,0.7,1.4,8*23
$QZGSA,A,3,01,02,07,,,,,,,,,,1.6,0.7,1.4*2F
$QZGSA,A,3,02,07,,,,,,,,,,,1.6,0.7,1.4,8*3A
$BDGSA,A,3,206,208,213,216,220,223,229,230,232,237,,,1.6,0.7,1.4*23
$BDGSA,A,3,,,,,,,,,,,,,1.6,0.7,1.4,5*3F
$GAGSA,A,3,109,,,,,,,,,,,,1.6,0.7,1.4*1E
$GAGSA,A,3,109,,,,,,,,,,,,1.6,0.7,1.4,1*03
$NCGSA,A,3,,,,,,,,,,,,,1.6,0.7,1.4,1*30
$GNGSA,A,3,02,05,13,20,21,24,29,30,,,,,1.6,0.7,1.4*23
$GNGSA,A,3,66,67,76,81,,,,,,,,,1.6,0.7,1.4*20
$GPRMC,025935.00,A,3722.722307,N,12640.586520,E,036.8,215.0,231119,,,A*5E
$GPGGA,025936.00,3722.713898,N,12640.579100,E,1,30,0.4,12.0,M,17.8,M,,*5E
$PGLOR,10,STA,025936.00,0.001,0.000,178,1,4,0,P,D,L,0,C,3,S,00300002,335,5,R,000833F4,TPEF,50,48761,LC,,,DR,0,*5B
$PGLOR,1,UNC,025936.00,0.010,4.0,3.1,0.03,1.00,4.0,4.0,0.0*23
$PSSGR,GSA,A,3,02,05,13,15,20,21,24,29,30,,,,1.4,0.7,1.2,1,1*43
$PSSGR,GSA,A,3,,,,,,,,,,,,,1.4,0.7,1.2,1,8*44
$PSSGR,GSA,A,3,66,67,76,81,,,,,,,,,1.4,0.7,1.2,2,1*47
$PSSGR,GSA,A,3,01,02,07,,,,,,,,,,1.4,0.7,1.2,5,1*4D
$PSSGR,GSA,A,3,01,02,07,,,,,,,,,,1.4,0.7,1.2,5,8*44
$PSSGR,GSA,A,3,206,208,213,216,220,223,229,230,232,,,,1.4,0.7,1.2,4,3*79
$PSSGR,GSA,A,3,,,,,,,,,,,,,1.4,0.7,1.2,4,5*4C
$PSSGR,GSA,A,3,109,,,,,,,,,,,,1.4,0.7,1.2,3,7*71
$PSSGR,GSA,A,3,109,,,,,,,,,,,,1.4,0.7,1.2,3,1*77
$PSSGR,GSA,A,3,,,,,,,,,,,,,1.4,0.7,1.2,6,1*4A
$GPGSV,4,1,11,13,70,033,36,15,68,271,33,05,49,081,41,21,30,313,34*70
$GPGSV,4,2,11,29,22,242,38,30,20,047,31,24,18,188,26,02,18,156,28*72
$GPGSV,4,3,11,20,08,296,30*4A
$GPGSV,4,4,11,30,,,21,24,,,,8*6B
$GLGSV,2,1,08,66,48,027,33,67,44,302,32,81,39,212,29,76,31,092,38*6C
$GLGSV,2,2,08,75,18,040,20,83,15,333,,77,13,146,,65,02,072,*69
$QZGSV,2,1,07,01,77,068,29,07,47,179,26,02,22,152,30,03,16,182,26*66
$QZGSV,2,2,07,01,,,27,07,,,33,02,,,26,8*73
$BDGSV,5,1,17,213,73,264,32,206,68,259,33,208,64,178,27,232,63,034,30*6A
$BDGSV,5,2,17,216,62,256,27,203,44,206,20,220,42,294,32,223,36,098,35*62
$BDGSV,5,3,17,230,33,228,34,229,29,291,36,237,23,156,28,225,16,046,21*67
$BDGSV,5,4,17,227,06,182,17,209,39,242,,205,10,258,,235,00,331,*6A
$BDGSV,5,5,17,202,25,234,*6C
$GAGSV,3,1,08,104,72,338,31,112,33,180,,109,31,263,38,119,29,058,29*61
$GAGSV,3,2,08,121,15,069,24,101,15,119,30,136,25,316,*67
$GAGSV,3,3,08,109,,,28,1*4F
$GPGSA,A,3,02,05,13,15,20,21,24,29,30,,,,1.4,0.7,1.2*3D
$GPGSA,A,3,,,,,,,,,,,,,1.4,0.7,1.2,8*27
$QZGSA,A,3,01,02,07,,,,,,,,,,1.4,0.7,1.2*2B
$QZGSA,A,3,01,02,07,,,,,,,,,,1.4,0.7,1.2,8*3F
$BDGSA,A,3,206,208,213,216,220,223,229,230,232,,,,1.4,0.7,1.2*11
$BDGSA,A,3,,,,,,,,,,,,,1.4,0.7,1.2,5*3B
$GAGSA,A,3,109,,,,,,,,,,,,1.4,0.7,1.2*1A
$GAGSA,A,3,109,,,,,,,,,,,,1.4,0.7,1.2,1*07
$NCGSA,A,3,,,,,,,,,,,,,1.4,0.7,1.2,1*34
$GNGSA,A,3,02,05,13,15,20,21,24,29,30,,,,1.4,0.7,1.2*23
$GNGSA,A,3,66,67,76,81,,,,,,,,,1.4,0.7,1.2*24
$GPRMC,025936.00,A,3722.713898,N,12640.579100,E,036.9,215.1,231119,,,A*54
$GPGGA,025937.00,3722.705544,N,12640.571583,E,1,31,0.4,12.0,M,17.8,M,,*52
$PGLOR,10,STA,025937.00,0.001,0.000,178,1,4,0,P,D,L,0,C,3,S,00300002,354,5,R,000833F4,TPEF,50,49761,LC,,,DR,0,*5C
$PGLOR,1,UNC,025937.00,0.010,4.0,3.1,0.03,1.00,4.0,4.0,0.0*22
$PSSGR,GSA,A,3,02,05,13,15,20,21,24,29,30,,,,1.5,0.8,1.2,1,1*4D
$PSSGR,GSA,A,3,,,,,,,,,,,,,1.5,0.8,1.2,1,8*4A
$PSSGR,GSA,A,3,66,67,76,81,,,,,,,,,1.5,0.8,1.2,2,1*49
$PSSGR,GSA,A,3,01,02,07,,,,,,,,,,1.5,0.8,1.2,5,1*43
$PSSGR,GSA,A,3,01,02,07,,,,,,,,,,1.5,0.8,1.2,5,8*4A
$PSSGR,GSA,A,3,206,208,213,216,220,223,229,230,232,237,,,1.5,0.8,1.2,4,3*41
$PSSGR,GSA,A,3,,,,,,,,,,,,,1.5,0.8,1.2,4,5*42
$PSSGR,GSA,A,3,109,,,,,,,,,,,,1.5,0.8,1.2,3,7*7F
$PSSGR,GSA,A,3,109,,,,,,,,,,,,1.5,0.8,1.2,3,1*79
$PSSGR,GSA,A,3,,,,,,,,,,,,,1.5,0.8,1.2,6,1*44
$GPGSV,4,1,11,13,70,033,36,15,68,271,32,05,49,081,41,21,30,313,34*71
$GPGSV,4,2,11,29,22,242,38,30,20,047,31,24,18,188,26,02,18,156,28*72
$GPGSV,4,3,11,20,08,296,30*4A
$GPGSV,4,4,11,30,,,21,24,,,,8*6B
$GLGSV,2,1,08,66,48,027,34,67,44,302,34,81,39,212,29,76,31,092,38*6D
$GLGSV,2,2,08,75,18,040,20,83,15,333,23,77,13,146,22,65,02,072,*68
$QZGSV,2,1,07,01,77,068,29,07,47,179,26,02,22,152,30,03,16,182,26*66
$QZGSV,2,2,07,01,,,27,07,,,33,02,,,26,8*73
$BDGSV,5,1,17,213,73,264,32,206,68,259,33,208,64,178,27,232,63,034,30*6A
$BDGSV,5,2,17,216,62,256,26,203,44,206,20,220,42,294,31,223,36,098,35*60
$BDGSV,5,3,17,230,33,228,35,229,29,291,36,237,23,156,28,225,16,046,20*67
$BDGSV,5,4,17,227,06,182,17,209,39,242,,205,10,258,,235,00,331,*6A
$BDGSV,5,5,17,202,25,234,*6C
$GAGSV,3,1,08,104,72,338,32,112,33,180,22,109,31,263,38,119,29,058,28*63
$GAGSV,3,2,08,121,15,069,28,101,15,119,,136,25,316,*68
$GAGSV,3,3,08,109,,,27,1*40
$GPGSA,A,3,02,05,13,15,20,21,24,29,30,,,,1.5,0.8,1.2*33
$GPGSA,A,3,,,,,,,,,,,,,1.5,0.8,1.2,8*29
$QZGSA,A,3,01,02,07,,,,,,,,,,1.5,0.8,1.2*25
$QZGSA,A,3,01,02,07,,,,,,,,,,1.5,0.8,1.2,8*31
$BDGSA,A,3,206,208,213,216,220,223,229,230,232,237,,,1.5,0.8,1.2*29
$BDGSA,A,3,,,,,,,,,,,,,1.5,0.8,1.2,5*35
$GAGSA,A,3,109,,,,,,,,,,,,1.5,0.8,1.2*14
$GAGSA,A,3,109,,,,,,,,,,,,1.5,0.8,1.2,1*09
$NCGSA,A,3,,,,,,,,,,,,,1.5,0.8,1.2,1*3A
$GNGSA,A,3,02,05,13,15,20,21,24,29,30,,,,1.5,0.8,1.2*2D
$GNGSA,A,3,66,67,76,81,,,,,,,,,1.5,0.8,1.2*2A
$GPRMC,025937.00,A,3722.705544,N,12640.571583,E,036.9,215.7,231119,,,A*5F
$GPGGA,025938.00,3722.697239,N,12640.563918,E,1,29,0.4,12.0,M,17.8,M,,*5E
$PGLOR,10,STA,025938.00,0.001,0.000,178,1,4,0,P,D,L,0,C,3,S,00300002,373,5,R,000833F4,TPEF,50,50761,LC,,,DR,0,*5E
$PGLOR,1,UNC,025938.00,0.010,4.0,3.1,0.03,1.00,4.0,4.0,0.0*2D
$PSSGR,GSA,A,3,02,05,13,15,21,24,29,30,,,,,1.7,0.8,1.5,1,1*4A
$PSSGR,GSA,A,3,,,,,,,,,,,,,1.7,0.8,1.5,1,8*4F
$PSSGR,GSA,A,3,66,67,76,81,,,,,,,,,1.7,0.8,1.5,2,1*4C
$PSSGR,GSA,A,3,02,07,,,,,,,,,,,1.7,0.8,1.5,5,1*47
$PSSGR,GSA,A,3,01,02,07,,,,,,,,,,1.7,0.8,1.5,5,8*4F
$PSSGR,GSA,A,3,206,208,213,216,220,223,229,230,232,237,,,1.7,0.8,1.5,4,3*44
$PSSGR,GSA,A,3,,,,,,,,,,,,,1.7,0.8,1.5,4,5*47
$PSSGR,GSA,A,3,109,,,,,,,,,,,,1.7,0.8,1.5,3,7*7A
$PSSGR,GSA,A,3,109,,,,,,,,,,,,1.7,0.8,1.5,3,1*7C
$PSSGR,GSA,A,3,,,,,,,,,,,,,1.7,0.8,1.5,6,1*41
$GPGSV,4,1,11,13,70,033,36,15,68,271,32,05,49,081,41,21,30,312,34*70
$GPGSV,4,2,11,29,22,242,38,30,20,047,30,24,18,188,25,02,18,156,27*7F
$GPGSV,4,3,11,20,08,296,30*4A
$GPGSV,4,4,11,30,,,20,24,,,17,8*6C
$GLGSV,2,1,08,66,48,027,34,67,44,302,34,81,39,212,29,76,31,092,38*6D
$GLGSV,2,2,08,75,18,040,20,83,15,333,,77,13,146,22,65,02,072,*69
$QZGSV,2,1,07,01,77,068,28,07,47,179,26,02,22,152,30,03,16,182,26*67
$QZGSV,2,2,07,01,,,27,07,,,33,02,,,26,8*73
$BDGSV,5,1,17,213,73,264,32,206,68,259,33,208,64,178,26,232,63,034,30*6B
$BDGSV,5,2,17,216,62,256,26,203,44,206,19,220,42,294,31,223,36,098,35*6A
$BDGSV,5,3,17,230,33,228,35,229,29,291,36,237,23,156,27,225,16,046,20*68
$BDGSV,5,4,17,227,06,182,17,209,39,242,,205,10,258,,235,00,331,*6A
$BDGSV,5,5,17,202,25,234,*6C
$GAGSV,3,1,08,104,72,338,33,112,33,180,,109,31,263,37,119,29,058,28*6D
$GAGSV,3,2,08,121,15,069,,101,15,119,28,136,25,316,*68
$GAGSV,3,3,08,109,,,27,1*40
$GPGSA,A,3,02,05,13,15,21,24,29,30,,,,,1.7,0.8,1.5*34
$GPGSA,A,3,,,,,,,,,,,,,1.7,0.8,1.5,8*2C
$QZGSA,A,3,02,07,,,,,,,,,,,1.7,0.8,1.5*21
$QZGSA,A,3,01,02,07,,,,,,,,,,1.7,0.8,1.5,8*34
$BDGSA,A,3,206,208,213,216,220,223,229,230,232,237,,,1.7,0.8,1.5*2C
$BDGSA,A,3,,,,,,,,,,,,,1.7,0.8,1.5,5*30
$GAGSA,A,3,109,,,,,,,,,,,,1.7,0.8,1.5*11
$GAGSA,A,3,109,,,,,,,,,,,,1.7,0.8,1.5,1*0C
$NCGSA,A,3,,,,,,,,,,,,,1.7,0.8,1.5,1*3F
$GNGSA,A,3,02,05,13,15,21,24,29,30,,,,,1.7,0.8,1.5*2A
$GNGSA,A,3,66,67,76,81,,,,,,,,,1.7,0.8,1.5*2F
$GPRMC,025938.00,A,3722.697239,N,12640.563918,E,036.9,216.4,231119,,,A*5A
$GPGGA,025939.00,3722.689004,N,12640.556111,E,1,30,0.4,12.0,M,17.8,M,,*53
$PGLOR,10,STA,025939.00,0.001,0.000,178,1,4,0,P,D,L,0,C,3,S,00300002,392,5,R,000833F4,TPEF,50,51761,LC,,,DR,0,*51
$PGLOR,1,UNC,025939.00,0.010,4.0,3.0,0.03,1.00,4.0,4.0,0.0*2D
$PSSGR,GSA,A,3,02,05,13,15,20,21,24,29,30,,,,1.4,0.7,1.2,1,1*43
$PSSGR,GSA,A,3,,,,,,,,,,,,,1.4,0.7,1.2,1,8*44
$PSSGR,GSA,A,3,66,67,76,81,,,,,,,,,1.4,0.7,1.2,2,1*47
$PSSGR,GSA,A,3,01,02,,,,,,,,,,,1.4,0.7,1.2,5,1*4A
$PSSGR,GSA,A,3,01,02,07,,,,,,,,,,1.4,0.7,1.2,5,8*44
