$GPGGA,025033.95,3722.863399,N,12640.711300,E,1,16,0.8,8.8,M,17.8,M,,*69
$PGLOR,10,STA,025033.95,0.003,0.000,176,1,8,0,P,D,L,0,C,2,S,00100002,0,5,R,000833F4,TPEF,48,8105,LC,,,DR,0,*64
$PGLOR,1,UNC,025033.95,0.021,8.0,7.9,0.21,180.00,8.0,8.0,0.0*29
$PGLOR,2,PFM,HAL,-,0,0,0,0,RF,-,-180,0.0,0,RTC,,P,STO,P,LTO,P,SW,P,,,OSC,U,U,*75
$PSSGR,GSA,A,3,05,13,15,29,30,,,,,,,,1.7,0.9,1.5,1,1*4C
$PSSGR,GSA,A,3,,,,,,,,,,,,,1.7,0.9,1.5,1,8*4E
$PSSGR,GSA,A,3,67,76,81,,,,,,,,,,1.7,0.9,1.5,2,1*4D
$PSSGR,GSA,A,3,01,07,,,,,,,,,,,1.7,0.9,1.5,5,1*45
$PSSGR,GSA,A,3,01,07,,,,,,,,,,,1.7,0.9,1.5,5,8*4C
$PSSGR,GSA,A,3,223,229,,,,,,,,,,,1.7,0.9,1.5,4,3*4A
$PSSGR,GSA,A,3,,,,,,,,,,,,,1.7,0.9,1.5,4,5*46
$PSSGR,GSA,A,3,104,,,,,,,,,,,,1.7,0.9,1.5,3,7*76
$PSSGR,GSA,A,3,104,,,,,,,,,,,,1.7,0.9,1.5,3,1*70
$PSSGR,GSA,A,3,,,,,,,,,,,,,1.7,0.9,1.5,6,1*40
$GPGSV,4,1,10,13,74,032,35,15,65,263,38,05,52,076,37,29,25,245,37*7C
$GPGSV,4,2,10,30,23,050,35,02,22,155,24,21,27,314,,24,15,189,*78
$GPGSV,4,3,10,20,05,294,*47
$GPGSV,4,4,10,30,,,15,8*6B
$GLGSV,2,1,08,66,50,020,,81,44,215,31,67,42,296,34,76,28,097,35*6A
$GLGSV,2,2,08,75,19,044,,83,12,335,,77,09,149,,65,04,068,*66
$QZGSV,2,1,06,01,77,066,34,07,47,179,23,02,21,152,,03,18,182,*6A
$QZGSV,2,2,06,01,,,32,07,,,34,8*77
$BDGSV,4,1,16,223,34,102,34,229,29,295,30,213,74,270,,206,68,254,*6A
$BDGSV,4,2,16,208,66,175,,232,65,026,,216,61,252,,203,44,206,*66
$BDGSV,4,3,16,220,40,291,,209,38,239,,230,36,231,,202,29,238,*68
$BDGSV,4,4,16,237,19,158,,225,17,049,,205,10,258,,227,10,183,*66
$GAGSV,3,1,08,104,73,327,36,112,36,180,,119,31,056,,109,29,260,*61
$GAGSV,3,2,08,136,23,318,,121,14,072,,101,12,122,*6E
$GAGSV,3,3,08,104,,,26,1*4C
$GPGSA,A,3,05,13,15,29,30,,,,,,,,1.7,0.9,1.5*32
$GPGSA,A,3,,,,,,,,,,,,,1.7,0.9,1.5,8*2D
$QZGSA,A,3,01,07,,,,,,,,,,,1.7,0.9,1.5*23
$QZGSA,A,3,01,07,,,,,,,,,,,1.7,0.9,1.5,8*37
$BDGSA,A,3,223,229,,,,,,,,,,,1.7,0.9,1.5*22
$BDGSA,A,3,,,,,,,,,,,,,1.7,0.9,1.5,5*31
$GAGSA,A,3,104,,,,,,,,,,,,1.7,0.9,1.5*1D
$GAGSA,A,3,104,,,,,,,,,,,,1.7,0.9,1.5,1*00
$NCGSA,A,3,,,,,,,,,,,,,1.7,0.9,1.5,1*3E
$GNGSA,A,3,05,13,15,29,30,,,,,,,,1.7,0.9,1.5*2C
$GNGSA,A,3,67,76,81,,,,,,,,,,1.7,0.9,1.5*2E
$GPRMC,025033.95,A,3722.863399,N,12640.711300,E,000.0,,231119,,,A*7D
$GPGGA,025035.00,3722.863150,N,12640.711406,E,1,16,0.8,9.1,M,17.8,M,,*6D
$PGLOR,10,STA,025035.00,0.003,0.000,177,1,8,0,P,D,L,0,C,2,S,00100002,0,5,R,000833F4,TPEF,48,9152,LC,,,DR,0,*6C
$PGLOR,1,UNC,025035.00,0.020,8.0,7.4,0.22,180.00,8.0,8.0,0.0*2C
$PGLOR,2,PFM,HAL,-,0,0,0,0,RF,-,-180,3.0,0,RTC,,P,STO,P,LTO,P,SW,P,,,OSC,U,U,*76
$PSSGR,GSA,A,3,05,13,15,29,30,,,,,,,,1.7,0.9,1.5,1,1*4C
$PSSGR,GSA,A,3,,,,,,,,,,,,,1.7,0.9,1.5,1,8*4E
$PSSGR,GSA,A,3,67,76,81,,,,,,,,,,1.7,0.9,1.5,2,1*4D
$PSSGR,GSA,A,3,01,07,,,,,,,,,,,1.7,0.9,1.5,5,1*45
$PSSGR,GSA,A,3,01,07,,,,,,,,,,,1.7,0.9,1.5,5,8*4C
$PSSGR,GSA,A,3,223,229,,,,,,,,,,,1.7,0.9,1.5,4,3*4A
$PSSGR,GSA,A,3,,,,,,,,,,,,,1.7,0.9,1.5,4,5*46
$PSSGR,GSA,A,3,104,,,,,,,,,,,,1.7,0.9,1.5,3,7*76
$PSSGR,GSA,A,3,104,,,,,,,,,,,,1.7,0.9,1.5,3,1*70
$PSSGR,GSA,A,3,,,,,,,,,,,,,1.7,0.9,1.5,6,1*40
$GPGSV,4,1,10,13,74,032,35,15,65,263,38,05,52,076,37,29,25,245,37*7C
$GPGSV,4,2,10,30,23,050,35,02,22,155,24,21,27,314,,24,15,189,*78
$GPGSV,4,3,10,20,05,294,*47
$GPGSV,4,4,10,30,,,17,8*69
$GLGSV,2,1,08,81,44,215,31,67,42,296,34,76,28,097,35,66,50,020,*6A
$GLGSV,2,2,08,75,19,044,,83,12,335,,77,09,149,,65,04,068,*66
$QZGSV,2,1,06,01,77,066,34,07,47,179,24,02,21,152,,03,18,182,*6D
$QZGSV,2,2,06,01,,,32,07,,,35,8*76
$BDGSV,4,1,16,223,34,102,35,229,29,295,30,213,74,270,,206,68,254,*6B
$BDGSV,4,2,16,208,66,175,,232,65,026,,216,61,252,,203,44,206,*66
$BDGSV,4,3,16,220,40,291,,209,38,239,,230,36,231,,202,29,238,*68
$BDGSV,4,4,16,237,19,158,,225,17,049,,205,10,258,,227,10,183,*66
$GAGSV,3,1,08,104,73,327,35,112,36,180,,119,31,056,,109,29,260,*62
$GAGSV,3,2,08,136,23,318,,121,14,072,,101,12,122,*6E
$GAGSV,3,3,08,104,,,26,1*4C
$GPGSA,A,3,05,13,15,29,30,,,,,,,,1.7,0.9,1.5*32
$GPGSA,A,3,,,,,,,,,,,,,1.7,0.9,1.5,8*2D
$QZGSA,A,3,01,07,,,,,,,,,,,1.7,0.9,1.5*23
$QZGSA,A,3,01,07,,,,,,,,,,,1.7,0.9,1.5,8*37
$BDGSA,A,3,223,229,,,,,,,,,,,1.7,0.9,1.5*22
$BDGSA,A,3,,,,,,,,,,,,,1.7,0.9,1.5,5*31
$GAGSA,A,3,104,,,,,,,,,,,,1.7,0.9,1.5*1D
$GAGSA,A,3,104,,,,,,,,,,,,1.7,0.9,1.5,1*00
$NCGSA,A,3,,,,,,,,,,,,,1.7,0.9,1.5,1*3E
$GNGSA,A,3,05,13,15,29,30,,,,,,,,1.7,0.9,1.5*2C
$GNGSA,A,3,67,76,81,,,,,,,,,,1.7,0.9,1.5*2E
$GPRMC,025035.00,A,3722.863150,N,12640.711406,E,000.0,,231119,,,A*71
$GPGGA,025036.00,3722.862932,N,12640.711512,E,1,15,0.8,9.2,M,17.8,M,,*67
$PGLOR,10,STA,025036.00,0.003,0.000,177,1,8,0,P,D,L,0,C,2,S,00100002,0,5,R,000833F4,TPEF,48,10152,LC,,,DR,0,*57
$PGLOR,1,UNC,025036.00,0.019,8.0,7.0,0.23,180.00,8.0,8.0,0.0*20
$PSSGR,GSA,A,3,05,13,15,29,30,,,,,,,,1.7,1.0,1.4,1,1*45
$PSSGR,GSA,A,3,,,,,,,,,,,,,1.7,1.0,1.4,1,8*47
$PSSGR,GSA,A,3,76,81,,,,,,,,,,,1.7,1.0,1.4,2,1*45
$PSSGR,GSA,A,3,01,07,,,,,,,,,,,1.7,1.0,1.4,5,1*4C
$PSSGR,GSA,A,3,01,07,,,,,,,,,,,1.7,1.0,1.4,5,8*45
$PSSGR,GSA,A,3,223,229,,,,,,,,,,,1.7,1.0,1.4,4,3*43
$PSSGR,GSA,A,3,,,,,,,,,,,,,1.7,1.0,1.4,4,5*4F
$PSSGR,GSA,A,3,104,,,,,,,,,,,,1.7,1.0,1.4,3,7*7F
$PSSGR,GSA,A,3,104,,,,,,,,,,,,1.7,1.0,1.4,3,1*79
$PSSGR,GSA,A,3,,,,,,,,,,,,,1.7,1.0,1.4,6,1*49
$GPGSV,4,1,10,13,74,032,37,15,65,263,38,05,52,076,36,29,25,245,37*7F
$GPGSV,4,2,10,30,23,050,35,02,22,155,23,21,27,314,,24,15,189,*7F
$GPGSV,4,3,10,20,05,294,*47
$GPGSV,4,4,10,30,,,21,8*6C
$GLGSV,2,1,08,81,44,215,31,67,42,296,33,76,28,097,35,66,50,020,*6D
$GLGSV,2,2,08,75,19,044,,83,12,335,,77,09,149,,65,04,068,*66
$QZGSV,2,1,06,01,77,066,34,07,47,179,27,02,21,152,,03,18,182,*6E
$QZGSV,2,2,06,01,,,32,07,,,35,8*76
$BDGSV,4,1,16,223,34,102,35,229,29,295,31,213,74,270,,206,68,254,*6A
$BDGSV,4,2,16,208,66,175,,232,65,026,,216,61,252,,203,44,206,*66
$BDGSV,4,3,16,220,40,291,,209,38,239,,230,36,231,,202,29,238,*68
$BDGSV,4,4,16,237,19,158,,225,17,049,,205,10,258,,227,10,183,*66
$GAGSV,3,1,08,104,73,327,35,112,36,180,,119,31,056,,109,29,260,*62
$GAGSV,3,2,08,136,23,318,,121,14,072,,101,12,122,*6E
$GAGSV,3,3,08,104,,,28,1*42
$GPGSA,A,3,05,13,15,29,30,,,,,,,,1.7,1.0,1.4*3B
$GPGSA,A,3,,,,,,,,,,,,,1.7,1.0,1.4,8*24
$QZGSA,A,3,01,07,,,,,,,,,,,1.7,1.0,1.4*2A
$QZGSA,A,3,01,07,,,,,,,,,,,1.7,1.0,1.4,8*3E
$BDGSA,A,3,223,229,,,,,,,,,,,1.7,1.0,1.4*2B
$BDGSA,A,3,,,,,,,,,,,,,1.7,1.0,1.4,5*38
$GAGSA,A,3,104,,,,,,,,,,,,1.7,1.0,1.4*14
$GAGSA,A,3,104,,,,,,,,,,,,1.7,1.0,1.4,1*09
$NCGSA,A,3,,,,,,,,,,,,,1.7,1.0,1.4,1*37
$GNGSA,A,3,05,13,15,29,30,,,,,,,,1.7,1.0,1.4*25
$GNGSA,A,3,76,81,,,,,,,,,,,1.7,1.0,1.4*26
$GPRMC,025036.00,A,3722.862932,N,12640.711512,E,000.0,,231119,,,A*7B
$GPGGA,025037.00,3722.862824,N,12640.711529,E,1,17,0.6,9.2,M,17.8,M,,*64
$PGLOR,10,STA,025037.00,0.003,0.000,177,1,6,0,P,D,L,0,C,2,S,00100002,0,5,R,000833F4,TPEF,48,11152,LC,,,DR,0,*59
$PGLOR,1,UNC,025037.00,0.019,6.0,6.7,0.22,180.00,6.0,6.0,0.0*28
$PSSGR,GSA,A,3,02,05,13,15,29,30,,,,,,,1.6,0.9,1.4,1,1*4E
$PSSGR,GSA,A,3,,,,,,,,,,,,,1.6,0.9,1.4,1,8*4E
$PSSGR,GSA,A,3,67,76,81,,,,,,,,,,1.6,0.9,1.4,2,1*4D
$PSSGR,GSA,A,3,01,07,,,,,,,,,,,1.6,0.9,1.4,5,1*45
$PSSGR,GSA,A,3,01,07,,,,,,,,,,,1.6,0.9,1.4,5,8*4C
$PSSGR,GSA,A,3,223,229,,,,,,,,,,,1.6,0.9,1.4,4,3*4A
$PSSGR,GSA,A,3,,,,,,,,,,,,,1.6,0.9,1.4,4,5*46
$PSSGR,GSA,A,3,104,,,,,,,,,,,,1.6,0.9,1.4,3,7*76
$PSSGR,GSA,A,3,104,,,,,,,,,,,,1.6,0.9,1.4,3,1*70
$PSSGR,GSA,A,3,,,,,,,,,,,,,1.6,0.9,1.4,6,1*40
$GPGSV,4,1,10,13,74,032,37,15,65,263,39,05,52,076,36,29,25,245,37*7E
$GPGSV,4,2,10,30,23,050,34,02,22,155,27,21,27,314,,24,15,189,*7A
$GPGSV,4,3,10,20,05,294,*47
$GPGSV,4,4,10,30,,,25,8*68
$GLGSV,2,1,08,81,44,215,31,67,42,296,32,76,28,097,35,66,50,020,*6C
$GLGSV,2,2,08,75,19,044,,83,12,335,,77,09,149,,65,04,068,*66
$QZGSV,2,1,06,01,77,066,35,07,47,179,27,02,21,152,,03,18,182,*6F
$QZGSV,2,2,06,01,,,32,07,,,35,8*76
$BDGSV,4,1,16,223,34,102,34,229,29,295,31,213,74,270,,206,68,254,*6B
$BDGSV,4,2,16,208,66,175,,232,65,026,,216,61,252,,203,44,206,*66
$BDGSV,4,3,16,220,40,291,,209,38,239,,230,36,231,,202,29,238,*68
$BDGSV,4,4,16,237,19,158,,225,17,049,,205,10,258,,227,10,183,*66
$GAGSV,3,1,08,104,73,327,34,112,36,180,,119,31,056,,109,29,260,*63
$GAGSV,3,2,08,136,23,318,,121,14,072,,101,12,122,*6E
$GAGSV,3,3,08,104,,,28,1*42
$GPGSA,A,3,02,05,13,15,29,30,,,,,,,1.6,0.9,1.4*30
$GPGSA,A,3,,,,,,,,,,,,,1.6,0.9,1.4,8*2D
$QZGSA,A,3,01,07,,,,,,,,,,,1.6,0.9,1.4*23
$QZGSA,A,3,01,07,,,,,,,,,,,1.6,0.9,1.4,8*37
$BDGSA,A,3,223,229,,,,,,,,,,,1.6,0.9,1.4*22
$BDGSA,A,3,,,,,,,,,,,,,1.6,0.9,1.4,5*31
$GAGSA,A,3,104,,,,,,,,,,,,1.6,0.9,1.4*1D
$GAGSA,A,3,104,,,,,,,,,,,,1.6,0.9,1.4,1*00
$NCGSA,A,3,,,,,,,,,,,,,1.6,0.9,1.4,1*3E
$GNGSA,A,3,02,05,13,15,29,30,,,,,,,1.6,0.9,1.4*2E
$GNGSA,A,3,67,76,81,,,,,,,,,,1.6,0.9,1.4*2E
$GPRMC,025037.00,A,3722.862824,N,12640.711529,E,000.0,,231119,,,A*74
$GPGGA,025038.00,3722.862729,N,12640.711631,E,1,18,0.6,9.2,M,17.8,M,,*6C
$PGLOR,10,STA,025038.00,0.003,0.000,177,1,6,0,P,D,L,0,C,2,S,00100002,0,5,R,000833F4,TPEF,48,12152,LC,,,DR,0,*55
$PGLOR,1,UNC,025038.00,0.018,6.0,6.4,0.23,180.00,6.0,6.0,0.0*24
$PSSGR,GSA,A,3,02,05,13,15,29,30,,,,,,,1.7,0.9,1.5,1,1*4E
$PSSGR,GSA,A,3,30,,,,,,,,,,,,1.7,0.9,1.5,1,8*4D
$PSSGR,GSA,A,3,67,76,81,,,,,,,,,,1.7,0.9,1.5,2,1*4D
$PSSGR,GSA,A,3,01,07,,,,,,,,,,,1.7,0.9,1.5,5,1*45
$PSSGR,GSA,A,3,01,07,,,,,,,,,,,1.7,0.9,1.5,5,8*4C
$PSSGR,GSA,A,3,223,229,,,,,,,,,,,1.7,0.9,1.5,4,3*4A
$PSSGR,GSA,A,3,,,,,,,,,,,,,1.7,0.9,1.5,4,5*46
$PSSGR,GSA,A,3,104,,,,,,,,,,,,1.7,0.9,1.5,3,7*76
$PSSGR,GSA,A,3,104,,,,,,,,,,,,1.7,0.9,1.5,3,1*70
$PSSGR,GSA,A,3,,,,,,,,,,,,,1.7,0.9,1.5,6,1*40
$GPGSV,4,1,10,13,74,032,36,15,65,263,39,05,52,076,36,29,25,245,36*7E
$GPGSV,4,2,10,30,23,050,34,02,22,155,27,21,27,314,,24,15,189,*7A
$GPGSV,4,3,10,20,05,294,*47
$GPGSV,4,4,10,30,,,25,8*68
$GLGSV,2,1,08,81,44,215,31,67,42,296,31,76,28,097,35,66,50,020,*6F
$GLGSV,2,2,08,75,19,044,,83,12,335,,77,09,149,,65,04,068,*66
$QZGSV,2,1,06,01,77,066,35,07,47,179,27,02,21,152,,03,18,182,*6F
$QZGSV,2,2,06,01,,,31,07,,,35,8*75
$BDGSV,4,1,16,223,34,102,34,229,29,295,31,213,74,270,,206,68,254,*6B
$BDGSV,4,2,16,208,66,175,,232,65,026,,216,61,252,,203,44,206,*66
$BDGSV,4,3,16,220,40,291,,209,38,239,,230,36,231,,202,29,238,*68
$BDGSV,4,4,16,237,19,158,,225,17,049,,205,10,258,,227,10,183,*66
$GAGSV,3,1,08,104,73,327,34,112,36,180,,119,31,056,,109,29,260,*63
$GAGSV,3,2,08,136,23,318,,121,14,072,,101,12,122,*6E
$GAGSV,3,3,08,104,,,28,1*42
$GPGSA,A,3,02,05,13,15,29,30,,,,,,,1.7,0.9,1.5*30
$GPGSA,A,3,30,,,,,,,,,,,,1.7,0.9,1.5,8*2E
$QZGSA,A,3,01,07,,,,,,,,,,,1.7,0.9,1.5*23
$QZGSA,A,3,01,07,,,,,,,,,,,1.7,0.9,1.5,8*37
$BDGSA,A,3,223,229,,,,,,,,,,,1.7,0.9,1.5*22
$BDGSA,A,3,,,,,,,,,,,,,1.7,0.9,1.5,5*31
$GAGSA,A,3,104,,,,,,,,,,,,1.7,0.9,1.5*1D
$GAGSA,A,3,104,,,,,,,,,,,,1.7,0.9,1.5,1*00
$NCGSA,A,3,,,,,,,,,,,,,1.7,0.9,1.5,1*3E
$GNGSA,A,3,02,05,13,15,29,30,,,,,,,1.7,0.9,1.5*2E
$GNGSA,A,3,67,76,81,,,,,,,,,,1.7,0.9,1.5*2E
$GPRMC,025038.00,A,3722.862729,N,12640.711631,E,000.0,,231119,,,A*73
$GPGGA,025039.00,3722.862795,N,12640.711700,E,1,19,0.6,9.2,M,17.8,M,,*68
$PGLOR,10,STA,025039.00,0.003,0.000,177,1,6,0,P,D,L,0,C,2,S,00100002,0,5,R,000833F4,TPEF,48,13152,LC,,,DR,0,*55
$PGLOR,1,UNC,025039.00,0.017,6.0,6.1,0.23,180.00,6.0,6.0,0.0*2F
$PSSGR,GSA,A,3,02,05,13,15,29,30,,,,,,,1.7,0.9,1.5,1,1*4E
$PSSGR,GSA,A,3,30,,,,,,,,,,,,1.7,0.9,1.5,1,8*4D
$PSSGR,GSA,A,3,66,67,76,81,,,,,,,,,1.7,0.9,1.5,2,1*4D
$PSSGR,GSA,A,3,01,07,,,,,,,,,,,1.7,0.9,1.5,5,1*45
$PSSGR,GSA,A,3,01,07,,,,,,,,,,,1.7,0.9,1.5,5,8*4C
$PSSGR,GSA,A,3,223,229,,,,,,,,,,,1.7,0.9,1.5,4,3*4A
$PSSGR,GSA,A,3,,,,,,,,,,,,,1.7,0.9,1.5,4,5*46
$PSSGR,GSA,A,3,104,,,,,,,,,,,,1.7,0.9,1.5,3,7*76
$PSSGR,GSA,A,3,104,,,,,,,,,,,,1.7,0.9,1.5,3,1*70
$PSSGR,GSA,A,3,,,,,,,,,,,,,1.7,0.9,1.5,6,1*40
$GPGSV,4,1,10,13,74,032,36,15,65,263,40,05,52,076,36,29,25,245,36*70
$GPGSV,4,2,10,30,23,050,34,02,22,155,27,21,27,314,,24,15,189,*7A
$GPGSV,4,3,10,20,05,294,*47
$GPGSV,4,4,10,30,,,26,8*6B
$GLGSV,2,1,08,66,50,021,26,81,44,215,31,67,42,296,30,76,28,097,35*6B
$GLGSV,2,2,08,75,19,044,,83,12,335,,77,09,149,,65,04,068,*66
$QZGSV,2,1,06,01,77,066,35,07,47,179,26,02,21,152,,03,18,182,*6E
$QZGSV,2,2,06,01,,,31,07,,,35,8*75
$BDGSV,4,1,16,223,34,102,34,229,29,295,31,213,74,270,,206,68,254,*6B
$BDGSV,4,2,16,208,66,175,,232,65,026,,216,61,252,,203,44,206,*66
$BDGSV,4,3,16,220,40,291,,209,38,239,,230,36,231,,202,29,238,*68
$BDGSV,4,4,16,237,19,158,,225,17,049,,205,10,258,,227,10,183,*66
$GAGSV,3,1,08,104,73,327,33,112,36,180,,119,31,056,,109,29,260,*64
$GAGSV,3,2,08,136,23,318,,121,14,072,,101,12,122,*6E
$GAGSV,3,3,08,104,,,28,1*42
$GPGSA,A,3,02,05,13,15,29,30,,,,,,,1.7,0.9,1.5*30
$GPGSA,A,3,30,,,,,,,,,,,,1.7,0.9,1.5,8*2E
$QZGSA,A,3,01,07,,,,,,,,,,,1.7,0.9,1.5*23
$QZGSA,A,3,01,07,,,,,,,,,,,1.7,0.9,1.5,8*37
$BDGSA,A,3,223,229,,,,,,,,,,,1.7,0.9,1.5*22
$BDGSA,A,3,,,,,,,,,,,,,1.7,0.9,1.5,5*31
$GAGSA,A,3,104,,,,,,,,,,,,1.7,0.9,1.5*1D
$GAGSA,A,3,104,,,,,,,,,,,,1.7,0.9,1.5,1*00
$NCGSA,A,3,,,,,,,,,,,,,1.7,0.9,1.5,1*3E
$GNGSA,A,3,02,05,13,15,29,30,,,,,,,1.7,0.9,1.5*2E
$GNGSA,A,3,66,67,76,81,,,,,,,,,1.7,0.9,1.5*2E
$GPRMC,025039.00,A,3722.862795,N,12640.711700,E,000.0,,231119,,,A*76
$GPGGA,025040.00,3722.862804,N,12640.711826,E,1,19,0.6,9.2,M,17.8,M,,*6A
$PGLOR,10,STA,025040.00,0.003,0.000,177,1,6,0,P,D,L,0,C,2,S,00100002,0,5,R,000833F4,TPEF,48,14152,LC,,,DR,0,*5C
$PGLOR,1,UNC,025040.00,0.016,6.0,5.8,0.23,180.00,6.0,6.0,0.0*2A
$PSSGR,GSA,A,3,02,05,13,15,29,30,,,,,,,1.7,0.9,1.5,1,1*4E
$PSSGR,GSA,A,3,30,,,,,,,,,,,,1.7,0.9,1.5,1,8*4D
$PSSGR,GSA,A,3,66,67,76,81,,,,,,,,,1.7,0.9,1.5,2,1*4D
$PSSGR,GSA,A,3,01,07,,,,,,,,,,,1.7,0.9,1.5,5,1*45
$PSSGR,GSA,A,3,01,07,,,,,,,,,,,1.7,0.9,1.5,5,8*4C
$PSSGR,GSA,A,3,223,229,,,,,,,,,,,1.7,0.9,1.5,4,3*4A
$PSSGR,GSA,A,3,,,,,,,,,,,,,1.7,0.9,1.5,4,5*46
$PSSGR,GSA,A,3,104,,,,,,,,,,,,1.7,0.9,1.5,3,7*76
$PSSGR,GSA,A,3,104,,,,,,,,,,,,1.7,0.9,1.5,3,1*70
$PSSGR,GSA,A,3,,,,,,,,,,,,,1.7,0.9,1.5,6,1*40
$GPGSV,4,1,10,13,74,032,36,15,65,263,40,05,52,076,35,29,25,245,38*7D
$GPGSV,4,2,10,30,23,050,34,02,22,155,28,21,27,314,,24,15,189,*75
$GPGSV,4,3,10,20,05,294,*47
$GPGSV,4,4,10,30,,,26,8*6B
$GLGSV,2,1,08,66,50,021,26,81,44,215,30,67,42,296,30,76,28,097,35*6A
$GLGSV,2,2,08,75,19,044,20,83,12,335,,77,09,149,,65,04,068,*64
$QZGSV,2,1,06,01,77,066,35,07,47,179,26,02,21,152,,03,18,182,*6E
$QZGSV,2,2,06,01,,,31,07,,,35,8*75
$BDGSV,4,1,16,223,34,102,34,229,29,295,31,213,74,270,,206,68,254,*6B
$BDGSV,4,2,16,208,66,175,,232,65,026,,216,61,252,,203,44,206,*66
$BDGSV,4,3,16,220,40,291,,209,38,239,,230,36,231,,202,29,238,*68
$BDGSV,4,4,16,237,19,158,,225,17,049,,205,10,258,,227,10,183,*66
$GAGSV,3,1,08,104,73,327,33,112,36,180,,119,31,056,,109,29,260,*64
$GAGSV,3,2,08,136,23,318,,121,14,072,,101,12,122,*6E
$GAGSV,3,3,08,104,,,27,1*4D
$GPGSA,A,3,02,05,13,15,29,30,,,,,,,1.7,0.9,1.5*30
$GPGSA,A,3,30,,,,,,,,,,,,1.7,0.9,1.5,8*2E
$QZGSA,A,3,01,07,,,,,,,,,,,1.7,0.9,1.5*23
$QZGSA,A,3,01,07,,,,,,,,,,,1.7,0.9,1.5,8*37
$BDGSA,A,3,223,229,,,,,,,,,,,1.7,0.9,1.5*22
$BDGSA,A,3,,,,,,,,,,,,,1.7,0.9,1.5,5*31
$GAGSA,A,3,104,,,,,,,,,,,,1.7,0.9,1.5*1D
$GAGSA,A,3,104,,,,,,,,,,,,1.7,0.9,1.5,1*00
$NCGSA,A,3,,,,,,,,,,,,,1.7,0.9,1.5,1*3E
$GNGSA,A,3,02,05,13,15,29,30,,,,,,,1.7,0.9,1.5*2E
$GNGSA,A,3,66,67,76,81,,,,,,,,,1.7,0.9,1.5*2E
$GPRMC,025040.00,A,3722.862804,N,12640.711826,E,000.0,,231119,,,A*74
$GPGGA,025041.00,3722.862780,N,12640.711949,E,1,19,0.6,9.1,M,17.8,M,,*63
$PGLOR,10,STA,025041.00,0.003,0.000,177,1,6,0,P,D,L,0,C,2,S,00100002,0,5,R,000833F4,TPEF,48,15152,LC,,,DR,0,*5C
$PGLOR,1,UNC,025041.00,0.016,6.0,5.6,0.22,180.00,6.0,6.0,0.0*24
$PGLOR,2,PFM,HAL,-,0,0,0,0,RF,-,-180,7.5,0,RTC,,P,STO,P,LTO,P,SW,P,,,OSC,U,U,*77
$PSSGR,GSA,A,3,02,05,13,15,29,30,,,,,,,1.6,0.9,1.4,1,1*4E
$PSSGR,GSA,A,3,30,,,,,,,,,,,,1.6,0.9,1.4,1,8*4D
$PSSGR,GSA,A,3,66,67,76,81,,,,,,,,,1.6,0.9,1.4,2,1*4D
$PSSGR,GSA,A,3,01,07,,,,,,,,,,,1.6,0.9,1.4,5,1*45
$PSSGR,GSA,A,3,01,07,,,,,,,,,,,1.6,0.9,1.4,5,8*4C
$PSSGR,GSA,A,3,223,229,,,,,,,,,,,1.6,0.9,1.4,4,3*4A
$PSSGR,GSA,A,3,,,,,,,,,,,,,1.6,0.9,1.4,4,5*46
$PSSGR,GSA,A,3,104,,,,,,,,,,,,1.6,0.9,1.4,3,7*76
$PSSGR,GSA,A,3,104,,,,,,,,,,,,1.6,0.9,1.4,3,1*70
$PSSGR,GSA,A,3,,,,,,,,,,,,,1.6,0.9,1.4,6,1*40
$GPGSV,4,1,10,13,74,032,35,15,65,263,40,05,52,076,35,29,25,245,38*7E
$GPGSV,4,2,10,30,23,050,34,02,22,155,28,21,27,314,,24,15,189,*75
$GPGSV,4,3,10,20,05,294,*47
$GPGSV,4,4,10,30,,,26,8*6B
$GLGSV,2,1,08,66,50,021,29,81,44,215,31,67,42,296,32,76,28,097,35*66
$GLGSV,2,2,08,75,19,044,21,83,12,335,,77,09,149,,65,04,068,*65
$QZGSV,2,1,06,01,77,066,35,07,47,179,26,02,21,152,,03,18,182,*6E
$QZGSV,2,2,06,01,,,31,07,,,35,8*75
$BDGSV,4,1,16,223,34,102,33,229,29,295,31,213,74,270,,206,68,254,*6C
$BDGSV,4,2,16,208,66,175,,232,65,026,,216,61,252,,203,44,206,*66
$BDGSV,4,3,16,220,40,291,,209,38,239,,230,36,231,,202,29,238,*68
$BDGSV,4,4,16,237,19,158,,225,17,049,,205,10,258,,227,09,183,*6E
$GAGSV,3,1,08,104,73,327,33,112,36,180,,119,31,056,,109,29,260,*64
$GAGSV,3,2,08,136,23,318,,121,14,072,,101,12,121,*6D
$GAGSV,3,3,08,104,,,27,1*4D
$GPGSA,A,3,02,05,13,15,29,30,,,,,,,1.6,0.9,1.4*30
$GPGSA,A,3,30,,,,,,,,,,,,1.6,0.9,1.4,8*2E
$QZGSA,A,3,01,07,,,,,,,,,,,1.6,0.9,1.4*23
$QZGSA,A,3,01,07,,,,,,,,,,,1.6,0.9,1.4,8*37
$BDGSA,A,3,223,229,,,,,,,,,,,1.6,0.9,1.4*22
$BDGSA,A,3,,,,,,,,,,,,,1.6,0.9,1.4,5*31
$GAGSA,A,3,104,,,,,,,,,,,,1.6,0.9,1.4*1D
$GAGSA,A,3,104,,,,,,,,,,,,1.6,0.9,1.4,1*00
$NCGSA,A,3,,,,,,,,,,,,,1.6,0.9,1.4,1*3E
$GNGSA,A,3,02,05,13,15,29,30,,,,,,,1.6,0.9,1.4*2E
$GNGSA,A,3,66,67,76,81,,,,,,,,,1.6,0.9,1.4*2E
$GPRMC,025041.00,A,3722.862780,N,12640.711949,E,000.0,,231119,,,A*7E
$GPGGA,025042.00,3722.862802,N,12640.712176,E,1,19,0.6,9.1,M,17.8,M,,*62
$PGLOR,10,STA,025042.00,0.003,0.000,177,1,6,0,P,D,L,0,C,2,S,00100002,0,5,R,000833F4,TPEF,48,16152,LC,,,DR,0,*5C
$PGLOR,1,UNC,025042.00,0.015,6.0,5.4,0.22,180.00,6.0,6.0,0.0*26
$PSSGR,GSA,A,3,02,05,13,15,29,30,,,,,,,1.7,0.9,1.4,1,1*4F
$PSSGR,GSA,A,3,30,,,,,,,,,,,,1.7,0.9,1.4,1,8*4C
$PSSGR,GSA,A,3,66,67,75,76,81,,,,,,,,1.7,0.9,1.4,2,1*4E
$PSSGR,GSA,A,3,01,07,,,,,,,,,,,1.7,0.9,1.4,5,1*44
$PSSGR,GSA,A,3,01,07,,,,,,,,,,,1.7,0.9,1.4,5,8*4D
$PSSGR,GSA,A,3,223,229,,,,,,,,,,,1.7,0.9,1.4,4,3*4B
$PSSGR,GSA,A,3,,,,,,,,,,,,,1.7,0.9,1.4,4,5*47
$PSSGR,GSA,A,3,104,,,,,,,,,,,,1.7,0.9,1.4,3,7*77
$PSSGR,GSA,A,3,,,,,,,,,,,,,1.7,0.9,1.4,3,1*44
$PSSGR,GSA,A,3,,,,,,,,,,,,,1.7,0.9,1.4,6,1*41
$GPGSV,4,1,10,13,74,032,35,15,65,263,39,05,52,076,35,29,25,245,39*71
$GPGSV,4,2,10,30,23,050,34,02,22,155,30,21,27,314,,24,15,189,*7C
$GPGSV,4,3,10,20,05,294,*47
$GPGSV,4,4,10,30,,,26,8*6B
$GLGSV,2,1,08,66,50,021,29,81,44,215,32,67,42,296,33,76,28,097,36*67
$GLGSV,2,2,08,75,19,044,26,83,12,335,,77,09,149,,65,04,068,*62
$QZGSV,2,1,06,01,77,066,35,07,47,179,25,02,21,152,,03,18,182,*6D
$QZGSV,2,2,06,01,,,31,07,,,35,8*75
$BDGSV,4,1,16,223,34,102,33,229,29,295,30,213,74,270,,206,68,254,*6D
$BDGSV,4,2,16,208,66,175,,232,65,026,,216,61,252,,203,44,206,*66
$BDGSV,4,3,16,220,40,291,,209,38,239,,230,36,231,,202,29,238,*68
$BDGSV,4,4,16,237,19,158,,225,17,049,,205,10,258,,227,09,183,*6E
$GAGSV,3,1,08,104,73,327,32,112,36,180,,119,31,056,,109,29,260,*65
$GAGSV,3,2,08,136,23,318,,121,14,072,,101,12,121,*6D
$GAGSV,3,3,08,104,,,26,1*4C
$GPGSA,A,3,02,05,13,15,29,30,,,,,,,1.7,0.9,1.4*31
$GPGSA,A,3,30,,,,,,,,,,,,1.7,0.9,1.4,8*2F
$QZGSA,A,3,01,07,,,,,,,,,,,1.7,0.9,1.4*22
$QZGSA,A,3,01,07,,,,,,,,,,,1.7,0.9,1.4,8*36
$BDGSA,A,3,223,229,,,,,,,,,,,1.7,0.9,1.4*23
$BDGSA,A,3,,,,,,,,,,,,,1.7,0.9,1.4,5*30
$GAGSA,A,3,104,,,,,,,,,,,,1.7,0.9,1.4*1C
$GAGSA,A,3,,,,,,,,,,,,,1.7,0.9,1.4,1*34
$NCGSA,A,3,,,,,,,,,,,,,1.7,0.9,1.4,1*3F
$GNGSA,A,3,02,05,13,15,29,30,,,,,,,1.7,0.9,1.4*2F
$GNGSA,A,3,66,67,75,76,81,,,,,,,,1.7,0.9,1.4*2D
$GPRMC,025042.00,A,3722.862802,N,12640.712176,E,000.0,,231119,,,A*7F
$GPGGA,025043.00,3722.862706,N,12640.712508,E,1,19,0.6,9.3,M,17.8,M,,*67
$PGLOR,10,STA,025043.00,0.003,0.000,177,1,6,0,P,D,L,0,C,2,S,00100002,0,5,R,000833F4,TPEF,48,17152,LC,,,DR,0,*5C
$PGLOR,1,UNC,025043.00,0.015,6.0,5.3,0.21,11.16,6.0,6.0,0.0*1D
$PGLOR,2,PFM,HAL,-,0,0,0,0,RF,-,-180,7.9,0,RTC,,P,STO,P,LTO,P,SW,P,,,OSC,P,U,*7E
$PSSGR,GSA,A,3,02,05,13,15,29,30,,,,,,,1.7,1.0,1.4,1,1*47
$PSSGR,GSA,A,3,30,,,,,,,,,,,,1.7,1.0,1.4,1,8*44
$PSSGR,GSA,A,3,66,67,75,76,81,,,,,,,,1.7,1.0,1.4,2,1*46
$PSSGR,GSA,A,3,01,07,,,,,,,,,,,1.7,1.0,1.4,5,1*4C
$PSSGR,GSA,A,3,01,07,,,,,,,,,,,1.7,1.0,1.4,5,8*45
$PSSGR,GSA,A,3,223,229,,,,,,,,,,,1.7,1.0,1.4,4,3*43
$PSSGR,GSA,A,3,,,,,,,,,,,,,1.7,1.0,1.4,4,5*4F
$PSSGR,GSA,A,3,104,,,,,,,,,,,,1.7,1.0,1.4,3,7*7F
$PSSGR,GSA,A,3,,,,,,,,,,,,,1.7,1.0,1.4,3,1*4C
$PSSGR,GSA,A,3,,,,,,,,,,,,,1.7,1.0,1.4,6,1*49
$GPGSV,4,1,10,13,74,032,35,15,65,263,38,05,52,076,35,29,25,245,39*70
$GPGSV,4,2,10,30,23,050,34,02,22,155,31,21,27,314,,24,15,189,*7D
$GPGSV,4,3,10,20,05,294,*47
$GPGSV,4,4,10,30,,,26,8*6B
$GLGSV,2,1,08,66,50,021,28,81,44,215,34,67,42,296,35,76,28,097,37*67
$GLGSV,2,2,08,75,19,044,26,83,12,335,,77,09,149,,65,04,068,*62
$QZGSV,2,1,06,01,77,066,35,07,47,179,25,02,21,152,,03,18,182,*6D
$QZGSV,2,2,06,01,,,31,07,,,35,8*75
$BDGSV,4,1,16,223,34,102,33,229,29,295,30,213,74,270,,206,68,254,*6D
$BDGSV,4,2,16,208,66,175,,232,65,026,,216,61,252,,203,44,206,*66
$BDGSV,4,3,16,220,40,291,,209,38,239,,230,36,231,,202,29,238,*68
$BDGSV,4,4,16,237,19,158,,225,17,049,,205,10,258,,227,09,183,*6E
$GAGSV,3,1,08,104,73,327,32,112,36,180,,119,31,056,,109,29,260,*65
$GAGSV,3,2,08,136,23,318,,121,14,072,,101,12,121,*6D
$GAGSV,3,3,08,104,,,26,1*4C
$GPGSA,A,3,02,05,13,15,29,30,,,,,,,1.7,1.0,1.4*39
$GPGSA,A,3,30,,,,,,,,,,,,1.7,1.0,1.4,8*27
$QZGSA,A,3,01,07,,,,,,,,,,,1.7,1.0,1.4*2A
$QZGSA,A,3,01,07,,,,,,,,,,,1.7,1.0,1.4,8*3E
$BDGSA,A,3,223,229,,,,,,,,,,,1.7,1.0,1.4*2B
$BDGSA,A,3,,,,,,,,,,,,,1.7,1.0,1.4,5*38
$GAGSA,A,3,104,,,,,,,,,,,,1.7,1.0,1.4*14
$GAGSA,A,3,,,,,,,,,,,,,1.7,1.0,1.4,1*3C
$NCGSA,A,3,,,,,,,,,,,,,1.7,1.0,1.4,1*37
$GNGSA,A,3,02,05,13,15,29,30,,,,,,,1.7,1.0,1.4*27
$GNGSA,A,3,66,67,75,76,81,,,,,,,,1.7,1.0,1.4*25
$GPRMC,025043.00,A,3722.862706,N,12640.712508,E,000.0,,231119,,,A*78
$GPGGA,025044.00,3722.862329,N,12640.712434,E,1,19,0.6,9.2,M,17.8,M,,*66
$PGLOR,10,STA,025044.00,0.003,0.000,178,1,6,0,P,D,L,0,C,2,S,00100002,0,5,R,000833F4,TPEF,48,18152,LC,,,DR,0,*5B
$PGLOR,1,UNC,025044.00,0.015,6.0,5.3,20.00,10.00,6.0,6.0,0.0*2D
$PSSGR,GSA,A,3,02,05,13,15,29,30,,,,,,,1.7,0.9,1.5,1,1*4E
$PSSGR,GSA,A,3,30,,,,,,,,,,,,1.7,0.9,1.5,1,8*4D
$PSSGR,GSA,A,3,66,67,75,76,81,,,,,,,,1.7,0.9,1.5,2,1*4F
$PSSGR,GSA,A,3,01,07,,,,,,,,,,,1.7,0.9,1.5,5,1*45
$PSSGR,GSA,A,3,01,07,,,,,,,,,,,1.7,0.9,1.5,5,8*4C
$PSSGR,GSA,A,3,223,229,,,,,,,,,,,1.7,0.9,1.5,4,3*4A
$PSSGR,GSA,A,3,,,,,,,,,,,,,1.7,0.9,1.5,4,5*46
$PSSGR,GSA,A,3,104,,,,,,,,,,,,1.7,0.9,1.5,3,7*76
$PSSGR,GSA,A,3,,,,,,,,,,,,,1.7,0.9,1.5,3,1*45
$PSSGR,GSA,A,3,,,,,,,,,,,,,1.7,0.9,1.5,6,1*40
$GPGSV,4,1,10,13,74,032,35,15,65,263,37,05,52,076,35,29,25,245,38*7E
$GPGSV,4,2,10,30,23,050,34,02,22,156,34,21,27,314,,24,15,189,*7B
$GPGSV,4,3,10,20,05,294,*47
$GPGSV,4,4,10,30,,,25,8*68
$GLGSV,2,1,08,66,50,021,29,81,44,215,34,67,42,296,35,76,28,097,37*66
$GLGSV,2,2,08,75,19,044,26,83,12,335,,77,09,149,,65,04,068,*62
$QZGSV,2,1,06,01,77,066,35,07,47,179,25,02,21,152,,03,18,182,*6D
$QZGSV,2,2,06,01,,,31,07,,,35,8*75
$BDGSV,4,1,16,223,34,102,33,229,29,295,30,213,74,270,,206,68,254,*6D
$BDGSV,4,2,16,208,66,175,,232,65,026,,216,61,252,,203,44,206,*66
$BDGSV,4,3,16,220,40,291,,209,38,239,,230,36,231,,202,29,238,*68
$BDGSV,4,4,16,237,19,158,,225,17,049,,205,10,258,,227,09,183,*6E
$GAGSV,3,1,08,104,73,327,32,112,36,180,,119,31,056,,109,29,260,*65
$GAGSV,3,2,08,136,23,318,,121,14,072,,101,12,121,*6D
$GAGSV,3,3,08,104,,,26,1*4C
$GPGSA,A,3,02,05,13,15,29,30,,,,,,,1.7,0.9,1.5*30
$GPGSA,A,3,30,,,,,,,,,,,,1.7,0.9,1.5,8*2E
$QZGSA,A,3,01,07,,,,,,,,,,,1.7,0.9,1.5*23
$QZGSA,A,3,01,07,,,,,,,,,,,1.7,0.9,1.5,8*37
$BDGSA,A,3,223,229,,,,,,,,,,,1.7,0.9,1.5*22
$BDGSA,A,3,,,,,,,,,,,,,1.7,0.9,1.5,5*31
$GAGSA,A,3,104,,,,,,,,,,,,1.7,0.9,1.5*1D
$GAGSA,A,3,,,,,,,,,,,,,1.7,0.9,1.5,1*35
$NCGSA,A,3,,,,,,,,,,,,,1.7,0.9,1.5,1*3E
$GNGSA,A,3,02,05,13,15,29,30,,,,,,,1.7,0.9,1.5*2E
$GNGSA,A,3,66,67,75,76,81,,,,,,,,1.7,0.9,1.5*2C
$GPRMC,025044.00,A,3722.862329,N,12640.712434,E,000.0,,231119,,,A*78
$GPGGA,025045.00,3722.861162,N,12640.711322,E,1,20,0.8,9.2,M,17.8,M,,*6E
$PGLOR,10,STA,025045.00,0.003,0.000,177,1,8,0,P,D,L,0,C,2,S,00100002,0,5,R,000833F4,TPEF,48,19152,LC,,,DR,0,*5A
$PGLOR,1,UNC,025045.00,0.014,8.0,5.4,20.00,10.00,8.0,8.0,0.0*24
$PSSGR,GSA,A,3,02,05,13,15,29,30,,,,,,,1.7,0.9,1.5,1,1*4E
$PSSGR,GSA,A,3,30,,,,,,,,,,,,1.7,0.9,1.5,1,8*4D
$PSSGR,GSA,A,3,66,67,75,76,81,,,,,,,,1.7,0.9,1.5,2,1*4F
$PSSGR,GSA,A,3,01,07,,,,,,,,,,,1.7,0.9,1.5,5,1*45
$PSSGR,GSA,A,3,01,07,,,,,,,,,,,1.7,0.9,1.5,5,8*4C
$PSSGR,GSA,A,3,223,229,,,,,,,,,,,1.7,0.9,1.5,4,3*4A
$PSSGR,GSA,A,3,,,,,,,,,,,,,1.7,0.9,1.5,4,5*46
$PSSGR,GSA,A,3,104,,,,,,,,,,,,1.7,0.9,1.5,3,7*76
$PSSGR,GSA,A,3,104,,,,,,,,,,,,1.7,0.9,1.5,3,1*70
$PSSGR,GSA,A,3,,,,,,,,,,,,,1.7,0.9,1.5,6,1*40
$GPGSV,4,1,10,13,74,032,35,15,65,263,37,05,52,076,36,29,25,245,38*7D
$GPGSV,4,2,10,30,23,050,34,02,22,156,33,21,27,314,,24,15,189,*7C
$GPGSV,4,3,10,20,05,294,*47
$GPGSV,4,4,10,30,,,25,8*68
$GLGSV,2,1,08,66,50,021,33,81,44,215,33,67,42,296,36,76,28,097,36*68
$GLGSV,2,2,08,75,19,044,30,83,12,335,,77,09,149,,65,04,068,*65
$QZGSV,2,1,06,01,77,066,34,07,47,179,25,02,21,152,,03,18,182,*6C
$QZGSV,2,2,06,01,,,31,07,,,34,8*74
$BDGSV,4,1,16,223,34,102,35,229,29,295,29,213,74,270,,206,68,254,*63
$BDGSV,4,2,16,208,66,175,,232,65,026,,216,61,252,,203,44,206,*66
$BDGSV,4,3,16,220,40,291,,209,38,239,,230,36,231,,202,29,238,*68
$BDGSV,4,4,16,237,19,158,,225,17,049,,205,10,258,,227,09,183,*6E
$GAGSV,3,1,08,104,73,327,32,112,36,180,,119,31,056,,109,29,260,*65
$GAGSV,3,2,08,136,23,318,,121,14,072,,101,12,121,*6D
$GAGSV,3,3,08,104,,,26,1*4C
$GPGSA,A,3,02,05,13,15,29,30,,,,,,,1.7,0.9,1.5*30
$GPGSA,A,3,30,,,,,,,,,,,,1.7,0.9,1.5,8*2E
$QZGSA,A,3,01,07,,,,,,,,,,,1.7,0.9,1.5*23
$QZGSA,A,3,01,07,,,,,,,,,,,1.7,0.9,1.5,8*37
$BDGSA,A,3,223,229,,,,,,,,,,,1.7,0.9,1.5*22
$BDGSA,A,3,,,,,,,,,,,,,1.7,0.9,1.5,5*31
$GAGSA,A,3,104,,,,,,,,,,,,1.7,0.9,1.5*1D
$GAGSA,A,3,104,,,,,,,,,,,,1.7,0.9,1.5,1*00
$NCGSA,A,3,,,,,,,,,,,,,1.7,0.9,1.5,1*3E
$GNGSA,A,3,02,05,13,15,29,30,,,,,,,1.7,0.9,1.5*2E
$GNGSA,A,3,66,67,75,76,81,,,,,,,,1.7,0.9,1.5*2C
$GPRMC,025045.00,A,3722.861162,N,12640.711322,E,000.0,,231119,,,A*74
$GPGGA,025046.00,3722.858826,N,12640.709448,E,1,19,0.8,9.1,M,17.8,M,,*65
$PGLOR,10,STA,025046.00,0.003,0.000,177,1,8,0,P,D,L,0,C,2,S,00100002,9,5,R,000833F4,TPEF,48,20152,LC,,,DR,0,*5A
$PGLOR,1,UNC,025046.00,0.015,8.0,5.4,0.21,10.00,8.0,8.0,0.0*17
$PSSGR,GSA,A,3,02,05,13,15,29,30,,,,,,,1.7,0.9,1.5,1,1*4E
$PSSGR,GSA,A,3,30,,,,,,,,,,,,1.7,0.9,1.5,1,8*4D
$PSSGR,GSA,A,3,66,67,76,81,,,,,,,,,1.7,0.9,1.5,2,1*4D
$PSSGR,GSA,A,3,01,07,,,,,,,,,,,1.7,0.9,1.5,5,1*45
$PSSGR,GSA,A,3,01,07,,,,,,,,,,,1.7,0.9,1.5,5,8*4C
$PSSGR,GSA,A,3,223,229,,,,,,,,,,,1.7,0.9,1.5,4,3*4A
$PSSGR,GSA,A,3,,,,,,,,,,,,,1.7,0.9,1.5,4,5*46
$PSSGR,GSA,A,3,104,,,,,,,,,,,,1.7,0.9,1.5,3,7*76
$PSSGR,GSA,A,3,104,,,,,,,,,,,,1.7,0.9,1.5,3,1*70
$PSSGR,GSA,A,3,,,,,,,,,,,,,1.7,0.9,1.5,6,1*40
$GPGSV,4,1,10,13,74,032,35,15,65,263,37,05,52,076,39,29,25,245,38*72
$GPGSV,4,2,10,30,23,050,33,02,22,156,33,21,27,314,,24,15,189,*7B
$GPGSV,4,3,10,20,05,294,*47
$GPGSV,4,4,10,30,,,25,8*68
$GLGSV,2,1,08,66,50,021,33,81,44,215,33,67,42,296,36,76,28,097,36*68
$GLGSV,2,2,08,75,19,044,29,83,12,335,,77,09,149,,65,04,068,*6D
$QZGSV,2,1,06,01,77,066,34,07,47,179,24,02,21,152,,03,18,182,*6D
$QZGSV,2,2,06,01,,,30,07,,,33,8*72
$BDGSV,4,1,16,223,34,102,34,229,29,295,29,213,74,270,,206,68,254,*62
$BDGSV,4,2,16,208,66,175,,232,65,026,,216,61,252,,203,44,206,*66
$BDGSV,4,3,16,220,40,291,,209,38,239,,230,36,231,,202,29,238,*68
$BDGSV,4,4,16,237,19,158,,225,17,049,,205,10,258,,227,09,183,*6E
$GAGSV,3,1,08,104,73,327,33,112,36,180,,119,31,056,,109,29,260,*64
$GAGSV,3,2,08,136,23,318,,121,14,072,,101,12,121,*6D
$GAGSV,3,3,08,104,,,25,1*4F
$GPGSA,A,3,02,05,13,15,29,30,,,,,,,1.7,0.9,1.5*30
$GPGSA,A,3,30,,,,,,,,,,,,1.7,0.9,1.5,8*2E
$QZGSA,A,3,01,07,,,,,,,,,,,1.7,0.9,1.5*23
$QZGSA,A,3,01,07,,,,,,,,,,,1.7,0.9,1.5,8*37
$BDGSA,A,3,223,229,,,,,,,,,,,1.7,0.9,1.5*22
$BDGSA,A,3,,,,,,,,,,,,,1.7,0.9,1.5,5*31
$GAGSA,A,3,104,,,,,,,,,,,,1.7,0.9,1.5*1D
$GAGSA,A,3,104,,,,,,,,,,,,1.7,0.9,1.5,1*00
$NCGSA,A,3,,,,,,,,,,,,,1.7,0.9,1.5,1*3E
$GNGSA,A,3,02,05,13,15,29,30,,,,,,,1.7,0.9,1.5*2E
$GNGSA,A,3,66,67,76,81,,,,,,,,,1.7,0.9,1.5*2E
$GPRMC,025046.00,A,3722.858826,N,12640.709448,E,013.8,210.7,231119,,,A*56
$GPGGA,025047.00,3722.854913,N,12640.706439,E,1,19,0.8,9.2,M,17.8,M,,*65
$PGLOR,10,STA,025047.00,0.003,0.000,178,1,8,0,P,D,L,0,C,2,S,00300002,17,5,R,000833F4,TPEF,48,21152,LC,,,DR,0,*68
$PGLOR,1,UNC,025047.00,0.014,8.0,5.3,0.04,10.00,8.0,8.0,0.0*17
$PSSGR,GSA,A,3,02,05,13,15,29,30,,,,,,,1.6,0.9,1.3,1,1*49
$PSSGR,GSA,A,3,,,,,,,,,,,,,1.6,0.9,1.3,1,8*49
$PSSGR,GSA,A,3,66,67,75,76,81,,,,,,,,1.6,0.9,1.3,2,1*48
$PSSGR,GSA,A,3,01,07,,,,,,,,,,,1.6,0.9,1.3,5,1*42
$PSSGR,GSA,A,3,01,07,,,,,,,,,,,1.6,0.9,1.3,5,8*4B
$PSSGR,GSA,A,3,223,229,,,,,,,,,,,1.6,0.9,1.3,4,3*4D
$PSSGR,GSA,A,3,,,,,,,,,,,,,1.6,0.9,1.3,4,5*41
$PSSGR,GSA,A,3,104,,,,,,,,,,,,1.6,0.9,1.3,3,7*71
$PSSGR,GSA,A,3,104,,,,,,,,,,,,1.6,0.9,1.3,3,1*77
$PSSGR,GSA,A,3,,,,,,,,,,,,,1.6,0.9,1.3,6,1*47
$GPGSV,4,1,10,13,74,032,35,15,65,263,36,05,52,076,40,29,25,245,38*7D
$GPGSV,4,2,10,30,23,050,32,02,22,156,32,21,27,314,,24,15,189,*7B
$GPGSV,4,3,10,20,05,294,*47
$GPGSV,4,4,10,30,,,25,8*68
$GLGSV,2,1,08,66,50,021,33,81,44,215,33,67,42,296,36,76,28,097,36*68
$GLGSV,2,2,08,75,19,044,29,83,12,335,,77,09,149,,65,04,068,*6D
$QZGSV,2,1,06,01,77,066,34,07,47,179,24,02,21,152,,03,18,182,*6D
$QZGSV,2,2,06,01,,,30,07,,,33,8*72
$BDGSV,4,1,16,223,34,102,34,229,29,295,28,213,74,270,,206,68,254,*63
$BDGSV,4,2,16,208,66,175,,232,65,026,,216,61,252,,203,44,206,*66
$BDGSV,4,3,16,220,40,291,,209,38,239,,230,36,231,,202,29,238,*68
$BDGSV,4,4,16,237,19,158,,225,17,049,,205,10,258,,227,09,183,*6E
$GAGSV,3,1,08,104,73,327,33,112,36,180,,119,31,056,,109,29,260,*64
$GAGSV,3,2,08,136,23,318,,121,14,072,,101,12,121,*6D
$GAGSV,3,3,08,104,,,25,1*4F
$GPGSA,A,3,02,05,13,15,29,30,,,,,,,1.6,0.9,1.3*37
$GPGSA,A,3,,,,,,,,,,,,,1.6,0.9,1.3,8*2A
$QZGSA,A,3,01,07,,,,,,,,,,,1.6,0.9,1.3*24
$QZGSA,A,3,01,07,,,,,,,,,,,1.6,0.9,1.3,8*30
$BDGSA,A,3,223,229,,,,,,,,,,,1.6,0.9,1.3*25
$BDGSA,A,3,,,,,,,,,,,,,1.6,0.9,1.3,5*36
$GAGSA,A,3,104,,,,,,,,,,,,1.6,0.9,1.3*1A
$GAGSA,A,3,104,,,,,,,,,,,,1.6,0.9,1.3,1*07
$NCGSA,A,3,,,,,,,,,,,,,1.6,0.9,1.3,1*39
$GNGSA,A,3,02,05,13,15,29,30,,,,,,,1.6,0.9,1.3*29
$GNGSA,A,3,66,67,75,76,81,,,,,,,,1.6,0.9,1.3*2B
$GPRMC,025047.00,A,3722.854913,N,12640.706439,E,015.5,210.4,231119,,,A*5D
$GPGGA,025048.00,3722.850229,N,12640.702880,E,1,19,0.8,9.5,M,17.8,M,,*61
$PGLOR,10,STA,025048.00,0.003,0.000,178,1,8,0,P,D,L,0,C,2,S,00300002,27,5,R,000833F4,TPEF,48,22152,LC,,,DR,0,*67
$PGLOR,1,UNC,025048.00,0.014,8.0,5.1,0.04,10.00,8.0,8.0,0.0*1A
$PSSGR,GSA,A,3,02,05,13,15,29,30,,,,,,,1.6,0.9,1.3,1,1*49
$PSSGR,GSA,A,3,,,,,,,,,,,,,1.6,0.9,1.3,1,8*49
$PSSGR,GSA,A,3,66,67,75,76,81,,,,,,,,1.6,0.9,1.3,2,1*48
$PSSGR,GSA,A,3,01,07,,,,,,,,,,,1.6,0.9,1.3,5,1*42
$PSSGR,GSA,A,3,01,07,,,,,,,,,,,1.6,0.9,1.3,5,8*4B
$PSSGR,GSA,A,3,223,229,,,,,,,,,,,1.6,0.9,1.3,4,3*4D
$PSSGR,GSA,A,3,,,,,,,,,,,,,1.6,0.9,1.3,4,5*41
$PSSGR,GSA,A,3,104,,,,,,,,,,,,1.6,0.9,1.3,3,7*71
$PSSGR,GSA,A,3,104,,,,,,,,,,,,1.6,0.9,1.3,3,1*77
$PSSGR,GSA,A,3,,,,,,,,,,,,,1.6,0.9,1.3,6,1*47
$GPGSV,4,1,10,13,74,032,36,15,65,263,36,05,52,076,40,29,25,245,37*71
$GPGSV,4,2,10,30,23,050,32,02,22,156,32,21,27,314,,24,15,189,*7B
$GPGSV,4,3,10,20,05,294,*47
$GPGSV,4,4,10,30,,,24,8*69
$GLGSV,2,1,08,66,50,021,35,81,44,215,33,67,42,296,35,76,28,097,36*6D
$GLGSV,2,2,08,75,19,044,28,83,12,335,,77,09,149,,65,04,068,*6C
$QZGSV,2,1,06,01,77,066,34,07,47,179,24,02,21,152,,03,18,182,*6D
$QZGSV,2,2,06,01,,,30,07,,,32,8*73
$BDGSV,4,1,16,223,34,102,34,229,29,295,27,213,74,270,,206,68,254,*6C
$BDGSV,4,2,16,208,66,175,,232,65,026,,216,61,252,,203,44,206,*66
$BDGSV,4,3,16,220,40,291,,209,38,239,,230,36,231,,202,29,238,*68
$BDGSV,4,4,16,237,19,158,,225,17,049,,205,10,258,,227,09,183,*6E
$GAGSV,3,1,08,104,73,327,33,112,36,180,,119,31,056,,109,29,260,*64
$GAGSV,3,2,08,136,23,318,,121,14,072,,101,12,121,*6D
$GAGSV,3,3,08,104,,,25,1*4F
$GPGSA,A,3,02,05,13,15,29,30,,,,,,,1.6,0.9,1.3*37
$GPGSA,A,3,,,,,,,,,,,,,1.6,0.9,1.3,8*2A
$QZGSA,A,3,01,07,,,,,,,,,,,1.6,0.9,1.3*24
$QZGSA,A,3,01,07,,,,,,,,,,,1.6,0.9,1.3,8*30
$BDGSA,A,3,223,229,,,,,,,,,,,1.6,0.9,1.3*25
$BDGSA,A,3,,,,,,,,,,,,,1.6,0.9,1.3,5*36
$GAGSA,A,3,104,,,,,,,,,,,,1.6,0.9,1.3*1A
$GAGSA,A,3,104,,,,,,,,,,,,1.6,0.9,1.3,1*07
$NCGSA,A,3,,,,,,,,,,,,,1.6,0.9,1.3,1*39
$GNGSA,A,3,02,05,13,15,29,30,,,,,,,1.6,0.9,1.3*29
$GNGSA,A,3,66,67,75,76,81,,,,,,,,1.6,0.9,1.3*2B
$GPRMC,025048.00,A,3722.850229,N,12640.702880,E,018.4,211.2,231119,,,A*55
$GPGGA,025049.00,3722.844944,N,12640.698779,E,1,18,0.6,9.8,M,17.8,M,,*6C
$PGLOR,10,STA,025049.00,0.003,0.000,177,1,6,0,P,D,L,0,C,2,S,00300002,39,5,R,000833F4,TPEF,48,23152,LC,,,DR,0,*69
$PGLOR,1,UNC,025049.00,0.014,6.0,5.0,0.05,10.00,6.0,6.0,0.0*15
$PSSGR,GSA,A,3,02,05,13,15,29,30,,,,,,,1.6,0.9,1.3,1,1*49
$PSSGR,GSA,A,3,,,,,,,,,,,,,1.6,0.9,1.3,1,8*49
$PSSGR,GSA,A,3,66,67,75,76,81,,,,,,,,1.6,0.9,1.3,2,1*48
$PSSGR,GSA,A,3,01,,,,,,,,,,,,1.6,0.9,1.3,5,1*45
$PSSGR,GSA,A,3,01,07,,,,,,,,,,,1.6,0.9,1.3,5,8*4B
$PSSGR,GSA,A,3,223,229,,,,,,,,,,,1.6,0.9,1.3,4,3*4D
$PSSGR,GSA,A,3,,,,,,,,,,,,,1.6,0.9,1.3,4,5*41
$PSSGR,GSA,A,3,104,,,,,,,,,,,,1.6,0.9,1.3,3,7*71
$PSSGR,GSA,A,3,104,,,,,,,,,,,,1.6,0.9,1.3,3,1*77
$PSSGR,GSA,A,3,,,,,,,,,,,,,1.6,0.9,1.3,6,1*47
$GPGSV,4,1,10,13,74,032,36,15,65,263,35,05,52,076,39,29,25,245,37*7C
$GPGSV,4,2,10,30,23,050,32,02,22,156,32,21,27,314,,24,15,189,*7B
$GPGSV,4,3,10,20,05,294,*47
$GPGSV,4,4,10,30,,,23,8*6E
$GLGSV,2,1,08,66,50,021,35,81,44,215,33,67,42,296,35,76,28,097,36*6D
$GLGSV,2,2,08,75,19,044,27,83,12,335,,77,09,149,,65,04,068,*63
$QZGSV,2,1,06,01,77,066,34,07,47,179,25,02,21,152,,03,18,182,*6C
$QZGSV,2,2,06,01,,,30,07,,,32,8*73
$BDGSV,4,1,16,223,34,102,35,229,29,295,27,213,74,270,,206,68,254,*6D
$BDGSV,4,2,16,208,66,175,,232,65,026,,216,61,252,,203,44,206,*66
$BDGSV,4,3,16,220,40,291,,209,38,239,,230,36,231,,202,29,238,*68
$BDGSV,4,4,16,237,19,158,,225,17,049,,205,10,258,,227,09,183,*6E
$GAGSV,3,1,08,104,73,327,33,112,36,180,,119,31,056,,109,29,260,*64
$GAGSV,3,2,08,136,23,318,,121,14,072,,101,12,121,*6D
$GAGSV,3,3,08,104,,,25,1*4F
$GPGSA,A,3,02,05,13,15,29,30,,,,,,,1.6,0.9,1.3*37
$GPGSA,A,3,,,,,,,,,,,,,1.6,0.9,1.3,8*2A
$QZGSA,A,3,01,,,,,,,,,,,,1.6,0.9,1.3*23
$QZGSA,A,3,01,07,,,,,,,,,,,1.6,0.9,1.3,8*30
$BDGSA,A,3,223,229,,,,,,,,,,,1.6,0.9,1.3*25
$BDGSA,A,3,,,,,,,,,,,,,1.6,0.9,1.3,5*36
$GAGSA,A,3,104,,,,,,,,,,,,1.6,0.9,1.3*1A
$GAGSA,A,3,104,,,,,,,,,,,,1.6,0.9,1.3,1*07
$NCGSA,A,3,,,,,,,,,,,,,1.6,0.9,1.3,1*39
$GNGSA,A,3,02,05,13,15,29,30,,,,,,,1.6,0.9,1.3*29
$GNGSA,A,3,66,67,75,76,81,,,,,,,,1.6,0.9,1.3*2B
$GPRMC,025049.00,A,3722.844944,N,12640.698779,E,021.5,212.6,231119,,,A*56
$GPGGA,025050.00,3722.839252,N,12640.693886,E,1,18,0.6,9.9,M,17.8,M,,*67
$PGLOR,10,STA,025050.00,0.003,0.000,177,1,6,0,P,D,L,0,C,2,S,00300002,52,5,R,000833F4,TPEF,48,24152,LC,,,DR,0,*6B
$PGLOR,1,UNC,025050.00,0.014,6.0,4.9,0.05,10.00,6.0,6.0,0.0*15
$PSSGR,GSA,A,3,02,05,13,15,29,30,,,,,,,1.7,0.9,1.5,1,1*4E
$PSSGR,GSA,A,3,,,,,,,,,,,,,1.7,0.9,1.5,1,8*4E
$PSSGR,GSA,A,3,66,67,76,81,,,,,,,,,1.7,0.9,1.5,2,1*4D
$PSSGR,GSA,A,3,01,07,,,,,,,,,,,1.7,0.9,1.5,5,1*45
$PSSGR,GSA,A,3,01,07,,,,,,,,,,,1.7,0.9,1.5,5,8*4C
$PSSGR,GSA,A,3,223,229,,,,,,,,,,,1.7,0.9,1.5,4,3*4A
$PSSGR,GSA,A,3,,,,,,,,,,,,,1.7,0.9,1.5,4,5*46
$PSSGR,GSA,A,3,104,,,,,,,,,,,,1.7,0.9,1.5,3,7*76
$PSSGR,GSA,A,3,104,,,,,,,,,,,,1.7,0.9,1.5,3,1*70
$PSSGR,GSA,A,3,,,,,,,,,,,,,1.7,0.9,1.5,6,1*40
$GPGSV,4,1,10,13,74,032,36,15,65,263,35,05,52,076,39,29,25,245,38*73
$GPGSV,4,2,10,30,23,050,31,02,22,156,33,21,27,314,,24,15,189,*79
$GPGSV,4,3,10,20,05,294,*47
$GPGSV,4,4,10,30,,,23,8*6E
$GLGSV,2,1,08,66,50,021,35,81,44,215,33,67,42,296,35,76,28,097,36*6D
$GLGSV,2,2,08,75,19,044,26,83,12,335,,77,09,149,,65,04,068,*62
$QZGSV,2,1,06,01,77,066,34,07,47,179,26,02,21,152,,03,18,182,*6F
$QZGSV,2,2,06,01,,,29,07,,,32,8*7B
$BDGSV,4,1,16,223,34,102,36,229,29,295,33,213,74,270,,206,68,254,*6B
$BDGSV,4,2,16,208,66,175,,232,65,026,,216,61,252,,203,44,206,*66
$BDGSV,4,3,16,220,40,291,,209,38,239,,230,36,231,,202,29,238,*68
$BDGSV,4,4,16,237,19,158,,225,17,049,,205,10,258,,227,09,183,*6E
$GAGSV,3,1,08,104,73,327,33,112,36,180,,119,31,056,,109,29,260,*64
$GAGSV,3,2,08,136,23,318,,121,14,072,,101,12,121,*6D
$GAGSV,3,3,08,104,,,25,1*4F
$GPGSA,A,3,02,05,13,15,29,30,,,,,,,1.7,0.9,1.5*30
$GPGSA,A,3,,,,,,,,,,,,,1.7,0.9,1.5,8*2D
$QZGSA,A,3,01,07,,,,,,,,,,,1.7,0.9,1.5*23
$QZGSA,A,3,01,07,,,,,,,,,,,1.7,0.9,1.5,8*37
$BDGSA,A,3,223,229,,,,,,,,,,,1.7,0.9,1.5*22
$BDGSA,A,3,,,,,,,,,,,,,1.7,0.9,1.5,5*31
$GAGSA,A,3,104,,,,,,,,,,,,1.7,0.9,1.5*1D
$GAGSA,A,3,104,,,,,,,,,,,,1.7,0.9,1.5,1*00
$NCGSA,A,3,,,,,,,,,,,,,1.7,0.9,1.5,1*3E
$GNGSA,A,3,02,05,13,15,29,30,,,,,,,1.7,0.9,1.5*2E
$GNGSA,A,3,66,67,76,81,,,,,,,,,1.7,0.9,1.5*2E
$GPRMC,025050.00,A,3722.839252,N,12640.693886,E,024.0,214.8,231119,,,A*54
$GPGGA,025051.00,3722.833025,N,12640.688716,E,1,19,0.6,9.8,M,17.8,M,,*62
$PGLOR,10,STA,025051.00,0.003,0.000,177,1,6,0,P,D,L,0,C,2,S,00300002,66,5,R,000833F4,TPEF,48,25152,LC,,,DR,0,*6C
$PGLOR,1,UNC,025051.00,0.014,6.0,4.7,0.04,1.00,6.0,6.0,0.0*2B
$PSSGR,GSA,A,3,02,05,13,15,29,30,,,,,,,1.6,0.9,1.3,1,1*49
$PSSGR,GSA,A,3,,,,,,,,,,,,,1.6,0.9,1.3,1,8*49
$PSSGR,GSA,A,3,66,67,75,76,81,,,,,,,,1.6,0.9,1.3,2,1*48
$PSSGR,GSA,A,3,01,07,,,,,,,,,,,1.6,0.9,1.3,5,1*42
$PSSGR,GSA,A,3,01,07,,,,,,,,,,,1.6,0.9,1.3,5,8*4B
$PSSGR,GSA,A,3,223,229,,,,,,,,,,,1.6,0.9,1.3,4,3*4D
$PSSGR,GSA,A,3,,,,,,,,,,,,,1.6,0.9,1.3,4,5*41
$PSSGR,GSA,A,3,104,,,,,,,,,,,,1.6,0.9,1.3,3,7*71
$PSSGR,GSA,A,3,104,,,,,,,,,,,,1.6,0.9,1.3,3,1*77
$PSSGR,GSA,A,3,,,,,,,,,,,,,1.6,0.9,1.3,6,1*47
$GPGSV,4,1,10,13,74,032,36,15,65,263,35,05,52,076,39,29,25,245,41*7D
$GPGSV,4,2,10,30,23,050,31,02,22,156,34,21,27,314,,24,15,189,*7E
$GPGSV,4,3,10,20,05,294,*47
$GPGSV,4,4,10,30,,,23,8*6E
$GLGSV,2,1,08,66,50,021,35,81,44,215,36,67,42,296,35,76,28,097,40*69
$GLGSV,2,2,08,75,19,044,26,83,12,335,,77,09,149,,65,04,068,*62
$QZGSV,2,1,06,01,77,066,34,07,47,179,27,02,21,152,,03,18,182,*6E
$QZGSV,2,2,06,01,,,30,07,,,32,8*73
$BDGSV,4,1,16,223,34,102,36,229,29,295,35,213,74,270,,206,68,254,*6D
$BDGSV,4,2,16,208,66,175,,232,65,026,,216,61,252,,203,44,206,*66
$BDGSV,4,3,16,220,40,291,,209,38,239,,230,36,231,,202,29,238,*68
$BDGSV,4,4,16,237,19,158,,225,17,049,,205,10,258,,227,09,183,*6E
$GAGSV,3,1,08,104,73,327,33,112,36,180,,119,31,056,,109,29,260,*64
$GAGSV,3,2,08,136,23,318,,121,14,072,,101,12,121,*6D
$GAGSV,3,3,08,104,,,25,1*4F
$GPGSA,A,3,02,05,13,15,29,30,,,,,,,1.6,0.9,1.3*37
$GPGSA,A,3,,,,,,,,,,,,,1.6,0.9,1.3,8*2A
$QZGSA,A,3,01,07,,,,,,,,,,,1.6,0.9,1.3*24
$QZGSA,A,3,01,07,,,,,,,,,,,1.6,0.9,1.3,8*30
$BDGSA,A,3,223,229,,,,,,,,,,,1.6,0.9,1.3*25
$BDGSA,A,3,,,,,,,,,,,,,1.6,0.9,1.3,5*36
$GAGSA,A,3,104,,,,,,,,,,,,1.6,0.9,1.3*1A
$GAGSA,A,3,104,,,,,,,,,,,,1.6,0.9,1.3,1*07
$NCGSA,A,3,,,,,,,,,,,,,1.6,0.9,1.3,1*39
$GNGSA,A,3,02,05,13,15,29,30,,,,,,,1.6,0.9,1.3*29
$GNGSA,A,3,66,67,75,76,81,,,,,,,,1.6,0.9,1.3*2B
$GPRMC,025051.00,A,3722.833025,N,12640.688716,E,025.5,216.0,231119,,,A*5F
$GPGGA,025052.00,3722.827056,N,12640.683118,E,1,19,0.6,9.9,M,17.8,M,,*62
$PGLOR,10,STA,025052.00,0.003,0.000,177,1,6,0,P,D,L,0,C,2,S,00300002,79,5,R,000833F4,TPEF,48,26152,LC,,,DR,0,*62
$PGLOR,1,UNC,025052.00,0.014,6.0,4.6,0.04,1.00,6.0,6.0,0.0*29
$PSSGR,GSA,A,3,02,05,13,15,29,30,,,,,,,1.6,0.9,1.3,1,1*49
$PSSGR,GSA,A,3,,,,,,,,,,,,,1.6,0.9,1.3,1,8*49
$PSSGR,GSA,A,3,66,67,75,76,81,,,,,,,,1.6,0.9,1.3,2,1*48
$PSSGR,GSA,A,3,01,07,,,,,,,,,,,1.6,0.9,1.3,5,1*42
$PSSGR,GSA,A,3,01,07,,,,,,,,,,,1.6,0.9,1.3,5,8*4B
$PSSGR,GSA,A,3,223,229,,,,,,,,,,,1.6,0.9,1.3,4,3*4D
$PSSGR,GSA,A,3,,,,,,,,,,,,,1.6,0.9,1.3,4,5*41
$PSSGR,GSA,A,3,104,,,,,,,,,,,,1.6,0.9,1.3,3,7*71
$PSSGR,GSA,A,3,104,,,,,,,,,,,,1.6,0.9,1.3,3,1*77
$PSSGR,GSA,A,3,,,,,,,,,,,,,1.6,0.9,1.3,6,1*47
$GPGSV,4,1,10,13,74,032,36,15,65,263,35,05,52,076,39,29,25,245,41*7D
$GPGSV,4,2,10,30,23,050,31,02,22,156,34,21,27,314,,24,15,189,*7E
$GPGSV,4,3,10,20,05,294,*47
$GPGSV,4,4,10,30,,,22,8*6F
$GLGSV,2,1,08,66,50,021,35,81,44,215,37,67,42,296,37,76,28,097,40*6A
$GLGSV,2,2,08,75,19,044,25,83,12,335,,77,09,149,,65,04,069,*60
$QZGSV,2,1,06,01,77,066,34,07,47,179,27,02,21,152,,03,18,182,*6E
$QZGSV,2,2,06,01,,,30,07,,,32,8*73
$BDGSV,4,1,16,223,34,102,35,229,29,295,36,213,74,270,,206,68,254,*6D
$BDGSV,4,2,16,208,66,175,,232,65,026,,216,61,252,,203,44,206,*66
$BDGSV,4,3,16,220,40,291,,209,38,239,,230,36,231,,202,29,238,*68
$BDGSV,4,4,16,237,19,158,,225,17,049,,205,10,258,,227,09,183,*6E
$GAGSV,3,1,08,104,73,327,33,112,36,180,,119,31,056,,109,29,260,*64
$GAGSV,3,2,08,136,23,318,,121,14,072,,101,12,121,*6D
$GAGSV,3,3,08,104,,,25,1*4F
$GPGSA,A,3,02,05,13,15,29,30,,,,,,,1.6,0.9,1.3*37
$GPGSA,A,3,,,,,,,,,,,,,1.6,0.9,1.3,8*2A
$QZGSA,A,3,01,07,,,,,,,,,,,1.6,0.9,1.3*24
$QZGSA,A,3,01,07,,,,,,,,,,,1.6,0.9,1.3,8*30
$BDGSA,A,3,223,229,,,,,,,,,,,1.6,0.9,1.3*25
$BDGSA,A,3,,,,,,,,,,,,,1.6,0.9,1.3,5*36
$GAGSA,A,3,104,,,,,,,,,,,,1.6,0.9,1.3*1A
$GAGSA,A,3,104,,,,,,,,,,,,1.6,0.9,1.3,1*07
$NCGSA,A,3,,,,,,,,,,,,,1.6,0.9,1.3,1*39
$GNGSA,A,3,02,05,13,15,29,30,,,,,,,1.6,0.9,1.3*29
$GNGSA,A,3,66,67,75,76,81,,,,,,,,1.6,0.9,1.3*2B
$GPRMC,025052.00,A,3722.827056,N,12640.683118,E,026.1,216.9,231119,,,A*50
$GPGGA,025053.00,3722.821225,N,12640.677477,E,1,18,0.6,9.8,M,17.8,M,,*64
$PGLOR,10,STA,025053.00,0.003,0.000,178,1,6,0,P,D,L,0,C,2,S,00300002,93,5,R,000833F4,TPEF,48,27152,LC,,,DR,0,*69
$PGLOR,1,UNC,025053.00,0.013,6.0,4.5,0.04,1.00,6.0,6.0,0.0*2C
$PGLOR,2,PFM,HAL,-,0,0,0,0,RF,-,-180,10.1,0,RTC,,P,STO,P,LTO,P,SW,P,,,OSC,P,P,P*15
$PSSGR,GSA,A,3,02,05,13,15,29,30,,,,,,,1.6,0.9,1.3,1,1*49
$PSSGR,GSA,A,3,,,,,,,,,,,,,1.6,0.9,1.3,1,8*49
$PSSGR,GSA,A,3,66,67,75,76,81,,,,,,,,1.6,0.9,1.3,2,1*48
$PSSGR,GSA,A,3,01,07,,,,,,,,,,,1.6,0.9,1.3,5,1*42
$PSSGR,GSA,A,3,01,07,,,,,,,,,,,1.6,0.9,1.3,5,8*4B
$PSSGR,GSA,A,3,223,229,,,,,,,,,,,1.6,0.9,1.3,4,3*4D
$PSSGR,GSA,A,3,,,,,,,,,,,,,1.6,0.9,1.3,4,5*41
$PSSGR,GSA,A,3,104,,,,,,,,,,,,1.6,0.9,1.3,3,7*71
$PSSGR,GSA,A,3,,,,,,,,,,,,,1.6,0.9,1.3,3,1*42
$PSSGR,GSA,A,3,,,,,,,,,,,,,1.6,0.9,1.3,6,1*47
$GPGSV,4,1,10,13,74,032,37,15,65,263,35,05,52,076,38,29,25,245,41*7D
$GPGSV,4,2,10,30,23,050,31,02,22,156,34,21,27,314,,24,15,189,*7E
$GPGSV,4,3,10,20,05,294,*47
$GPGSV,4,4,10,30,,,21,8*6C
$GLGSV,2,1,08,66,50,021,34,81,44,215,37,67,42,296,38,76,28,097,40*64
$GLGSV,2,2,08,75,19,044,25,83,12,335,,77,09,149,,65,04,069,*60
$QZGSV,2,1,06,01,77,066,33,07,47,179,28,02,21,152,,03,18,182,*66
$QZGSV,2,2,06,01,,,30,07,,,32,8*73
$BDGSV,4,1,16,223,34,102,35,229,29,295,36,213,74,270,,206,68,254,*6D
$BDGSV,4,2,16,208,66,175,,232,65,026,,216,61,252,,203,44,206,*66
$BDGSV,4,3,16,220,40,291,,209,38,239,,230,36,231,,202,29,238,*68
$BDGSV,4,4,16,237,19,158,,225,17,049,,205,10,258,,227,09,183,*6E
$GAGSV,3,1,08,104,73,327,34,112,36,180,,119,31,056,,109,29,260,*63
$GAGSV,3,2,08,136,23,318,,121,14,072,,101,12,121,*6D
$GAGSV,3,3,08,104,,,25,1*4F
$GPGSA,A,3,02,05,13,15,29,30,,,,,,,1.6,0.9,1.3*37
$GPGSA,A,3,,,,,,,,,,,,,1.6,0.9,1.3,8*2A
$QZGSA,A,3,01,07,,,,,,,,,,,1.6,0.9,1.3*24
$QZGSA,A,3,01,07,,,,,,,,,,,1.6,0.9,1.3,8*30
$BDGSA,A,3,223,229,,,,,,,,,,,1.6,0.9,1.3*25
$BDGSA,A,3,,,,,,,,,,,,,1.6,0.9,1.3,5*36
$GAGSA,A,3,104,,,,,,,,,,,,1.6,0.9,1.3*1A
$GAGSA,A,3,,,,,,,,,,,,,1.6,0.9,1.3,1*32
$NCGSA,A,3,,,,,,,,,,,,,1.6,0.9,1.3,1*39
$GNGSA,A,3,02,05,13,15,29,30,,,,,,,1.6,0.9,1.3*29
$GNGSA,A,3,66,67,75,76,81,,,,,,,,1.6,0.9,1.3*2B
$GPRMC,025053.00,A,3722.821225,N,12640.677477,E,026.2,217.4,231119,,,A*59
$GPGGA,025054.00,3722.815416,N,12640.671919,E,1,17,0.6,9.8,M,17.8,M,,*6E
$PGLOR,10,STA,025054.00,0.003,0.000,177,1,6,0,P,D,L,0,C,2,S,00300002,106,5,R,000833F4,TPEF,48,28152,LC,,,DR,0,*53
$PGLOR,1,UNC,025054.00,0.013,6.0,4.4,0.03,1.00,6.0,6.0,0.0*2D
$PSSGR,GSA,A,3,02,05,13,15,29,30,,,,,,,1.6,0.9,1.3,1,1*49
$PSSGR,GSA,A,3,,,,,,,,,,,,,1.6,0.9,1.3,1,8*49
$PSSGR,GSA,A,3,66,67,75,76,81,,,,,,,,1.6,0.9,1.3,2,1*48
$PSSGR,GSA,A,3,01,,,,,,,,,,,,1.6,0.9,1.3,5,1*45
$PSSGR,GSA,A,3,01,07,,,,,,,,,,,1.6,0.9,1.3,5,8*4B
$PSSGR,GSA,A,3,223,229,,,,,,,,,,,1.6,0.9,1.3,4,3*4D
$PSSGR,GSA,A,3,,,,,,,,,,,,,1.6,0.9,1.3,4,5*41
$PSSGR,GSA,A,3,104,,,,,,,,,,,,1.6,0.9,1.3,3,7*71
$PSSGR,GSA,A,3,,,,,,,,,,,,,1.6,0.9,1.3,3,1*42
$PSSGR,GSA,A,3,,,,,,,,,,,,,1.6,0.9,1.3,6,1*47
$GPGSV,4,1,10,13,74,032,37,15,65,263,35,05,52,076,38,29,25,245,41*7D
$GPGSV,4,2,10,30,23,050,31,02,22,156,33,21,27,314,,24,15,189,*79
$GPGSV,4,3,10,20,05,294,*47
$GPGSV,4,4,10,30,,,26,8*6B
$GLGSV,2,1,08,66,50,021,34,81,44,215,37,67,42,296,39,76,28,097,40*65
$GLGSV,2,2,08,75,19,044,25,83,12,335,,77,09,149,,65,04,069,*60
$QZGSV,2,1,06,01,77,066,33,07,47,179,28,02,21,152,,03,18,182,*66
$QZGSV,2,2,06,01,,,30,07,,,32,8*73
$BDGSV,4,1,16,223,34,102,35,229,29,295,36,213,74,270,,206,68,254,*6D
$BDGSV,4,2,16,208,66,175,,232,65,026,,216,61,252,,203,44,206,*66
$BDGSV,4,3,16,220,40,291,,209,38,239,,230,36,231,,202,29,238,*68
$BDGSV,4,4,16,237,19,158,,225,17,049,,205,10,258,,227,09,183,*6E
$GAGSV,3,1,08,104,73,327,35,112,36,180,,119,31,056,,109,29,260,*62
$GAGSV,3,2,08,136,23,318,,121,14,072,,101,12,121,*6D
$GAGSV,3,3,08,104,,,25,1*4F
$GPGSA,A,3,02,05,13,15,29,30,,,,,,,1.6,0.9,1.3*37
$GPGSA,A,3,,,,,,,,,,,,,1.6,0.9,1.3,8*2A
$QZGSA,A,3,01,,,,,,,,,,,,1.6,0.9,1.3*23
$QZGSA,A,3,01,07,,,,,,,,,,,1.6,0.9,1.3,8*30
$BDGSA,A,3,223,229,,,,,,,,,,,1.6,0.9,1.3*25
$BDGSA,A,3,,,,,,,,,,,,,1.6,0.9,1.3,5*36
$GAGSA,A,3,104,,,,,,,,,,,,1.6,0.9,1.3*1A
$GAGSA,A,3,,,,,,,,,,,,,1.6,0.9,1.3,1*32
$NCGSA,A,3,,,,,,,,,,,,,1.6,0.9,1.3,1*39
$GNGSA,A,3,02,05,13,15,29,30,,,,,,,1.6,0.9,1.3*29
$GNGSA,A,3,66,67,75,76,81,,,,,,,,1.6,0.9,1.3*2B
$GPRMC,025054.00,A,3722.815416,N,12640.671919,E,026.1,217.5,231119,,,A*5E
$GPGGA,025055.00,3722.809643,N,12640.666462,E,1,18,0.6,9.8,M,17.8,M,,*68
$PGLOR,10,STA,025055.00,0.003,0.000,178,1,6,0,P,D,L,0,C,2,S,00300002,120,5,R,000833F4,TPEF,48,29152,LC,,,DR,0,*58
$PGLOR,1,UNC,025055.00,0.013,6.0,4.3,0.03,1.00,6.0,6.0,0.0*2B
$PSSGR,GSA,A,3,02,05,13,15,29,30,,,,,,,1.7,0.9,1.5,1,1*4E
$PSSGR,GSA,A,3,30,,,,,,,,,,,,1.7,0.9,1.5,1,8*4D
$PSSGR,GSA,A,3,66,67,76,81,,,,,,,,,1.7,0.9,1.5,2,1*4D
$PSSGR,GSA,A,3,01,,,,,,,,,,,,1.7,0.9,1.5,5,1*42
$PSSGR,GSA,A,3,01,07,,,,,,,,,,,1.7,0.9,1.5,5,8*4C
$PSSGR,GSA,A,3,223,229,,,,,,,,,,,1.7,0.9,1.5,4,3*4A
$PSSGR,GSA,A,3,,,,,,,,,,,,,1.7,0.9,1.5,4,5*46
$PSSGR,GSA,A,3,104,,,,,,,,,,,,1.7,0.9,1.5,3,7*76
$PSSGR,GSA,A,3,104,,,,,,,,,,,,1.7,0.9,1.5,3,1*70
$PSSGR,GSA,A,3,,,,,,,,,,,,,1.7,0.9,1.5,6,1*40
$GPGSV,4,1,10,13,74,032,37,15,65,263,36,05,52,076,38,29,25,245,41*7E
$GPGSV,4,2,10,30,23,050,31,02,22,156,32,21,27,314,,24,15,189,*78
$GPGSV,4,3,10,20,05,294,*47
$GPGSV,4,4,10,30,,,28,8*65
$GLGSV,2,1,08,66,50,021,34,81,44,215,37,67,42,296,39,76,28,097,39*6B
$GLGSV,2,2,08,75,19,044,25,83,12,335,,77,09,149,,65,04,069,*60
$QZGSV,2,1,06,01,77,066,32,07,47,179,28,02,21,152,,03,18,182,*67
$QZGSV,2,2,06,01,,,30,07,,,32,8*73
$BDGSV,4,1,16,223,34,102,34,229,29,295,36,213,74,270,,206,68,254,*6C
$BDGSV,4,2,16,208,66,175,,232,65,026,,216,61,252,,203,44,206,*66
$BDGSV,4,3,16,220,40,291,,209,38,239,,230,36,231,,202,29,238,*68
$BDGSV,4,4,16,237,19,158,,225,17,049,,205,10,258,,227,09,183,*6E
$GAGSV,3,1,08,104,73,327,35,112,36,180,,119,31,056,,109,29,260,*62
$GAGSV,3,2,08,136,23,318,,121,14,072,,101,12,121,*6D
$GAGSV,3,3,08,104,,,25,1*4F
$GPGSA,A,3,02,05,13,15,29,30,,,,,,,1.7,0.9,1.5*30
$GPGSA,A,3,30,,,,,,,,,,,,1.7,0.9,1.5,8*2E
$QZGSA,A,3,01,,,,,,,,,,,,1.7,0.9,1.5*24
$QZGSA,A,3,01,07,,,,,,,,,,,1.7,0.9,1.5,8*37
$BDGSA,A,3,223,229,,,,,,,,,,,1.7,0.9,1.5*22
$BDGSA,A,3,,,,,,,,,,,,,1.7,0.9,1.5,5*31
$GAGSA,A,3,104,,,,,,,,,,,,1.7,0.9,1.5*1D
$GAGSA,A,3,104,,,,,,,,,,,,1.7,0.9,1.5,1*00
$NCGSA,A,3,,,,,,,,,,,,,1.7,0.9,1.5,1*3E
$GNGSA,A,3,02,05,13,15,29,30,,,,,,,1.7,0.9,1.5*2E
$GNGSA,A,3,66,67,76,81,,,,,,,,,1.7,0.9,1.5*2E
$GPRMC,025055.00,A,3722.809643,N,12640.666462,E,026.2,217.3,231119,,,A*52
$GPGGA,025056.00,3722.803809,N,12640.661060,E,1,20,0.4,9.7,M,17.8,M,,*66
$PGLOR,10,STA,025056.00,0.003,0.000,178,1,4,0,P,D,L,0,C,2,S,00300002,133,5,R,000833F4,TPEF,48,30152,LC,,,DR,0,*53
$PGLOR,1,UNC,025056.00,0.013,4.0,4.2,0.03,1.00,4.0,4.0,0.0*2B
$PSSGR,GSA,A,3,02,05,13,15,29,30,,,,,,,1.6,0.9,1.3,1,1*49
$PSSGR,GSA,A,3,30,,,,,,,,,,,,1.6,0.9,1.3,1,8*4A
$PSSGR,GSA,A,3,66,67,75,76,81,,,,,,,,1.6,0.9,1.3,2,1*48
$PSSGR,GSA,A,3,01,07,,,,,,,,,,,1.6,0.9,1.3,5,1*42
$PSSGR,GSA,A,3,01,07,,,,,,,,,,,1.6,0.9,1.3,5,8*4B
$PSSGR,GSA,A,3,223,229,,,,,,,,,,,1.6,0.9,1.3,4,3*4D
$PSSGR,GSA,A,3,,,,,,,,,,,,,1.6,0.9,1.3,4,5*41
$PSSGR,GSA,A,3,104,,,,,,,,,,,,1.6,0.9,1.3,3,7*71
$PSSGR,GSA,A,3,104,,,,,,,,,,,,1.6,0.9,1.3,3,1*77
$PSSGR,GSA,A,3,,,,,,,,,,,,,1.6,0.9,1.3,6,1*47
$GPGSV,4,1,10,13,74,032,37,15,65,263,36,05,52,076,37,29,25,245,42*72
$GPGSV,4,2,10,30,23,050,31,02,22,156,31,21,27,314,,24,15,189,*7B
$GPGSV,4,3,10,20,05,294,*47
$GPGSV,4,4,10,30,,,28,8*65
$GLGSV,2,1,08,66,50,021,34,81,44,215,37,67,42,296,39,76,28,097,39*6B
$GLGSV,2,2,08,75,19,044,28,83,12,335,,77,09,149,,65,04,069,*6D
$QZGSV,2,1,06,01,77,066,32,07,47,179,27,02,21,152,,03,18,182,*68
$QZGSV,2,2,06,01,,,30,07,,,32,8*73
$BDGSV,4,1,16,223,34,102,34,229,29,295,36,213,74,270,,206,68,254,*6C
$BDGSV,4,2,16,208,66,175,,232,65,026,,216,61,252,,203,44,206,*66
$BDGSV,4,3,16,220,40,291,,209,38,239,,230,36,231,,202,29,238,*68
$BDGSV,4,4,16,237,19,158,,225,17,049,,205,10,258,,227,09,183,*6E
$GAGSV,3,1,08,104,73,327,35,112,36,180,,119,31,056,,109,29,260,*62
$GAGSV,3,2,08,136,23,318,,121,14,072,,101,12,121,*6D
$GAGSV,3,3,08,104,,,25,1*4F
$GPGSA,A,3,02,05,13,15,29,30,,,,,,,1.6,0.9,1.3*37
$GPGSA,A,3,30,,,,,,,,,,,,1.6,0.9,1.3,8*29
$QZGSA,A,3,01,07,,,,,,,,,,,1.6,0.9,1.3*24
$QZGSA,A,3,01,07,,,,,,,,,,,1.6,0.9,1.3,8*30
$BDGSA,A,3,223,229,,,,,,,,,,,1.6,0.9,1.3*25
$BDGSA,A,3,,,,,,,,,,,,,1.6,0.9,1.3,5*36
$GAGSA,A,3,104,,,,,,,,,,,,1.6,0.9,1.3*1A
$GAGSA,A,3,104,,,,,,,,,,,,1.6,0.9,1.3,1*07
$NCGSA,A,3,,,,,,,,,,,,,1.6,0.9,1.3,1*39
$GNGSA,A,3,02,05,13,15,29,30,,,,,,,1.6,0.9,1.3*29
$GNGSA,A,3,66,67,75,76,81,,,,,,,,1.6,0.9,1.3*2B
$GPRMC,025056.00,A,3722.803809,N,12640.661060,E,026.2,217.2,231119,,,A*5B
$GPGGA,025057.00,3722.798031,N,12640.655619,E,1,21,0.4,9.6,M,17.8,M,,*66
$PGLOR,10,STA,025057.00,0.003,0.000,178,1,4,0,P,D,L,0,C,3,S,00300002,147,5,R,000833F4,TPEF,51,31152,LC,,,DR,0,*59
$PGLOR,1,UNC,025057.00,0.012,4.0,4.1,0.04,1.24,4.0,4.0,0.0*29
$PSSGR,GSA,A,3,02,05,13,15,21,29,30,,,,,,1.6,0.8,1.4,1,1*4C
$PSSGR,GSA,A,3,30,,,,,,,,,,,,1.6,0.8,1.4,1,8*4C
$PSSGR,GSA,A,3,66,67,75,76,81,,,,,,,,1.6,0.8,1.4,2,1*4E
$PSSGR,GSA,A,3,01,07,,,,,,,,,,,1.6,0.8,1.4,5,1*44
$PSSGR,GSA,A,3,01,07,,,,,,,,,,,1.6,0.8,1.4,5,8*4D
$PSSGR,GSA,A,3,223,229,,,,,,,,,,,1.6,0.8,1.4,4,3*4B
$PSSGR,GSA,A,3,,,,,,,,,,,,,1.6,0.8,1.4,4,5*47
$PSSGR,GSA,A,3,104,,,,,,,,,,,,1.6,0.8,1.4,3,7*77
$PSSGR,GSA,A,3,104,,,,,,,,,,,,1.6,0.8,1.4,3,1*71
$PSSGR,GSA,A,3,,,,,,,,,,,,,1.6,0.8,1.4,6,1*41
$GPGSV,4,1,11,13,74,032,37,15,65,263,36,05,52,076,37,21,27,314,32*7B
$GPGSV,4,2,11,29,25,245,42,30,23,050,30,02,22,156,31,24,15,189,29*79
$GPGSV,4,3,11,20,05,294,*46
$GPGSV,4,4,11,30,,,28,24,,,24,8*64
$GLGSV,2,1,08,66,50,021,34,81,44,215,37,67,42,296,39,76,28,097,39*6B
$GLGSV,2,2,08,75,19,044,27,65,04,069,,83,12,335,,77,09,149,*62
$QZGSV,2,1,08,01,77,066,32,07,47,179,27,02,21,152,29,03,18,182,24*6B
$QZGSV,2,2,08,01,,,30,07,,,32,02,,,24,03,,,24,8*7C
$BDGSV,4,1,16,223,34,102,33,229,29,295,36,213,74,270,,206,68,254,*6B
$BDGSV,4,2,16,208,66,175,,232,65,026,,216,61,252,,203,44,206,*66
$BDGSV,4,3,16,220,40,291,,209,38,239,,230,36,231,,202,29,238,*68
$BDGSV,4,4,16,237,19,158,,225,17,049,,205,10,258,,227,09,183,*6E
$GAGSV,3,1,08,104,73,327,35,112,36,180,,119,31,056,,109,29,260,*62
$GAGSV,3,2,08,136,23,318,,121,14,072,,101,12,121,*6D
$GAGSV,3,3,08,104,,,26,1*4C
$GPGSA,A,3,02,05,13,15,21,29,30,,,,,,1.6,0.8,1.4*32
$GPGSA,A,3,30,,,,,,,,,,,,1.6,0.8,1.4,8*2F
$QZGSA,A,3,01,07,,,,,,,,,,,1.6,0.8,1.4*22
$QZGSA,A,3,01,07,,,,,,,,,,,1.6,0.8,1.4,8*36
$BDGSA,A,3,223,229,,,,,,,,,,,1.6,0.8,1.4*23
$BDGSA,A,3,,,,,,,,,,,,,1.6,0.8,1.4,5*30
$GAGSA,A,3,104,,,,,,,,,,,,1.6,0.8,1.4*1C
$GAGSA,A,3,104,,,,,,,,,,,,1.6,0.8,1.4,1*01
$NCGSA,A,3,,,,,,,,,,,,,1.6,0.8,1.4,1*3F
$GNGSA,A,3,02,05,13,15,21,29,30,,,,,,1.6,0.8,1.4*2C
$GNGSA,A,3,66,67,75,76,81,,,,,,,,1.6,0.8,1.4*2D
$GPRMC,025057.00,A,3722.798031,N,12640.655619,E,026.1,217.2,231119,,,A*58
$GPGGA,025058.00,3722.792343,N,12640.650103,E,1,22,0.4,9.4,M,17.8,M,,*6D
$PGLOR,10,STA,025058.00,0.003,0.000,178,1,4,0,P,D,L,0,C,3,S,00300002,160,5,R,000833F4,TPEF,51,32152,LC,,,DR,0,*50
$PGLOR,1,UNC,025058.00,0.012,4.0,4.1,0.04,1.00,4.0,4.0,0.0*20
$PSSGR,GSA,A,3,02,05,13,15,21,24,29,30,,,,,1.4,0.8,1.2,1,1*4E
$PSSGR,GSA,A,3,30,,,,,,,,,,,,1.4,0.8,1.2,1,8*48
$PSSGR,GSA,A,3,67,75,76,81,,,,,,,,,1.4,0.8,1.2,2,1*4A
$PSSGR,GSA,A,3,01,02,07,,,,,,,,,,1.4,0.8,1.2,5,1*42
$PSSGR,GSA,A,3,01,07,,,,,,,,,,,1.4,0.8,1.2,5,8*49
$PSSGR,GSA,A,3,223,229,,,,,,,,,,,1.4,0.8,1.2,4,3*4F
$PSSGR,GSA,A,3,,,,,,,,,,,,,1.4,0.8,1.2,4,5*43
$PSSGR,GSA,A,3,104,,,,,,,,,,,,1.4,0.8,1.2,3,7*73
$PSSGR,GSA,A,3,104,,,,,,,,,,,,1.4,0.8,1.2,3,1*75
$PSSGR,GSA,A,3,,,,,,,,,,,,,1.4,0.8,1.2,6,1*45
$GPGSV,4,1,11,13,74,032,37,15,65,263,35,05,52,076,37,21,27,314,32*78
$GPGSV,4,2,11,29,25,245,41,30,23,050,30,02,22,156,31,24,15,189,28*7B
$GPGSV,4,3,11,20,05,294,*46
$GPGSV,4,4,11,30,,,28,24,,,23,8*63
$GLGSV,2,1,08,66,50,021,33,81,44,215,37,67,42,296,38,76,28,097,39*6D
$GLGSV,2,2,08,75,19,044,27,65,04,069,,83,12,335,,77,09,149,*62
$QZGSV,2,1,08,01,77,066,33,07,47,179,27,02,21,152,29,03,18,182,23*6D
$QZGSV,2,2,08,01,,,30,07,,,32,02,,,24,03,,,24,8*7C
$BDGSV,4,1,16,223,34,102,33,229,29,295,36,213,74,270,,206,68,254,*6B
$BDGSV,4,2,16,208,66,175,,232,65,026,,216,61,252,,203,44,206,*66
$BDGSV,4,3,16,220,40,291,,209,38,239,,230,36,231,,202,29,238,*68
$BDGSV,4,4,16,237,19,158,,225,17,049,,205,10,258,,227,09,183,*6E
$GAGSV,3,1,08,104,73,327,36,112,36,180,,119,31,056,,109,29,260,*61
$GAGSV,3,2,08,136,23,318,,121,14,072,,101,12,121,*6D
$GAGSV,3,3,08,104,,,26,1*4C
$GPGSA,A,3,02,05,13,15,21,24,29,30,,,,,1.4,0.8,1.2*30
$GPGSA,A,3,30,,,,,,,,,,,,1.4,0.8,1.2,8*2B
$QZGSA,A,3,01,02,07,,,,,,,,,,1.4,0.8,1.2*24
$QZGSA,A,3,01,07,,,,,,,,,,,1.4,0.8,1.2,8*32
$BDGSA,A,3,223,229,,,,,,,,,,,1.4,0.8,1.2*27
$BDGSA,A,3,,,,,,,,,,,,,1.4,0.8,1.2,5*34
$GAGSA,A,3,104,,,,,,,,,,,,1.4,0.8,1.2*18
$GAGSA,A,3,104,,,,,,,,,,,,1.4,0.8,1.2,1*05
$NCGSA,A,3,,,,,,,,,,,,,1.4,0.8,1.2,1*3B
$GNGSA,A,3,02,05,13,15,21,24,29,30,,,,,1.4,0.8,1.2*2E
$GNGSA,A,3,67,75,76,81,,,,,,,,,1.4,0.8,1.2*29
$GPRMC,025058.00,A,3722.792343,N,12640.650103,E,026.1,217.4,231119,,,A*54
$GPGGA,025059.00,3722.786622,N,12640.644582,E,1,25,0.4,9.4,M,17.8,M,,*64
$PGLOR,10,STA,025059.00,0.003,0.000,178,1,4,0,P,D,L,0,C,3,S,00300002,173,5,R,000833F4,TPEF,51,33152,LC,,,DR,0,*52
$PGLOR,1,UNC,025059.00,0.012,4.0,4.0,0.04,1.00,4.0,4.0,0.0*20
$PSSGR,GSA,A,3,02,05,13,15,21,24,29,30,,,,,1.5,0.8,1.3,1,1*4E
$PSSGR,GSA,A,3,24,30,,,,,,,,,,,1.5,0.8,1.3,1,8*4E
$PSSGR,GSA,A,3,66,67,75,76,81,,,,,,,,1.5,0.8,1.3,2,1*4A
$PSSGR,GSA,A,3,01,02,07,,,,,,,,,,1.5,0.8,1.3,5,1*42
$PSSGR,GSA,A,3,01,02,07,,,,,,,,,,1.5,0.8,1.3,5,8*4B
$PSSGR,GSA,A,3,223,229,,,,,,,,,,,1.5,0.8,1.3,4,3*4F
$PSSGR,GSA,A,3,,,,,,,,,,,,,1.5,0.8,1.3,4,5*43
$PSSGR,GSA,A,3,104,,,,,,,,,,,,1.5,0.8,1.3,3,7*73
$PSSGR,GSA,A,3,104,,,,,,,,,,,,1.5,0.8,1.3,3,1*75
$PSSGR,GSA,A,3,,,,,,,,,,,,,1.5,0.8,1.3,6,1*45
$GPGSV,4,1,11,13,74,032,37,15,65,263,35,05,52,076,37,21,27,314,31*7B
$GPGSV,4,2,11,29,25,245,41,30,23,050,29,02,22,156,32,24,15,189,28*70
$GPGSV,4,3,11,20,05,294,*46
$GPGSV,4,4,11,30,,,27,24,,,23,8*6C
$GLGSV,2,1,08,66,50,021,33,81,44,215,37,67,42,296,38,76,28,097,39*6D
$GLGSV,2,2,08,75,19,044,26,83,12,335,24,65,04,069,,77,09,149,*65
$QZGSV,2,1,08,01,77,066,33,07,47,179,28,02,21,152,29,03,18,182,23*62
$QZGSV,2,2,08,01,,,30,07,,,31,02,,,24,03,,,23,8*78
$BDGSV,4,1,16,223,34,102,33,229,29,295,36,213,74,270,,206,68,254,*6B
$BDGSV,4,2,16,208,66,175,,232,65,026,,216,61,252,,203,44,206,*66
$BDGSV,4,3,16,220,40,291,,209,38,239,,230,36,231,,202,29,238,*68
$BDGSV,4,4,16,237,19,158,,225,17,049,,205,10,258,,227,09,183,*6E
$GAGSV,3,1,08,104,73,327,36,112,36,180,,119,31,056,,109,29,260,*61
$GAGSV,3,2,08,136,23,318,,121,14,072,,101,12,121,*6D
$GAGSV,3,3,08,104,,,26,1*4C
$GPGSA,A,3,02,05,13,15,21,24,29,30,,,,,1.5,0.8,1.3*30
$GPGSA,A,3,24,30,,,,,,,,,,,1.5,0.8,1.3,8*2D
$QZGSA,A,3,01,02,07,,,,,,,,,,1.5,0.8,1.3*24
$QZGSA,A,3,01,02,07,,,,,,,,,,1.5,0.8,1.3,8*30
$BDGSA,A,3,223,229,,,,,,,,,,,1.5,0.8,1.3*27
$BDGSA,A,3,,,,,,,,,,,,,1.5,0.8,1.3,5*34
$GAGSA,A,3,104,,,,,,,,,,,,1.5,0.8,1.3*18
$GAGSA,A,3,104,,,,,,,,,,,,1.5,0.8,1.3,1*05
$NCGSA,A,3,,,,,,,,,,,,,1.5,0.8,1.3,1*3B
$GNGSA,A,3,02,05,13,15,21,24,29,30,,,,,1.5,0.8,1.3*2E
$GNGSA,A,3,66,67,75,76,81,,,,,,,,1.5,0.8,1.3*29
$GPRMC,025059.00,A,3722.786622,N,12640.644582,E,026.0,217.5,231119,,,A*5A
$GPGGA,025100.00,3722.780865,N,12640.639040,E,1,28,0.4,9.3,M,17.8,M,,*69
$PGLOR,10,STA,025100.00,0.003,0.000,178,1,4,0,P,D,L,0,C,3,S,00300002,187,5,R,000833F4,TPEF,51,34152,LC,,,DR,0,*53
$PGLOR,1,UNC,025100.00,0.012,4.0,3.9,0.04,1.00,4.0,4.0,0.0*23
$PSSGR,GSA,A,3,02,05,13,15,21,24,29,30,,,,,1.5,0.8,1.3,1,1*4E
$PSSGR,GSA,A,3,30,,,,,,,,,,,,1.5,0.8,1.3,1,8*48
$PSSGR,GSA,A,3,66,67,75,76,81,,,,,,,,1.5,0.8,1.3,2,1*4A
$PSSGR,GSA,A,3,01,02,07,,,,,,,,,,1.5,0.8,1.3,5,1*42
$PSSGR,GSA,A,3,01,02,07,,,,,,,,,,1.5,0.8,1.3,5,8*4B
$PSSGR,GSA,A,3,208,213,216,223,229,232,,,,,,,1.5,0.8,1.3,4,3*43
$PSSGR,GSA,A,3,,,,,,,,,,,,,1.5,0.8,1.3,4,5*43
$PSSGR,GSA,A,3,104,,,,,,,,,,,,1.5,0.8,1.3,3,7*73
$PSSGR,GSA,A,3,104,,,,,,,,,,,,1.5,0.8,1.3,3,1*75
$PSSGR,GSA,A,3,,,,,,,,,,,,,1.5,0.8,1.3,6,1*45
$GPGSV,4,1,11,13,74,032,36,15,65,263,35,05,52,076,37,21,27,314,32*79
$GPGSV,4,2,11,29,25,245,41,30,23,050,28,02,22,156,32,24,15,189,28*71
$GPGSV,4,3,11,20,05,294,*46
$GPGSV,4,4,11,30,,,27,24,,,23,8*6C
$GLGSV,2,1,08,66,50,021,32,81,44,215,36,67,42,296,38,76,28,097,39*6D
$GLGSV,2,2,08,75,19,044,26,83,12,335,24,65,04,069,,77,09,149,*65
$QZGSV,2,1,08,01,77,066,33,07,47,179,29,02,21,152,29,03,18,182,23*63
$QZGSV,2,2,08,01,,,30,07,,,31,02,,,24,03,,,22,8*79
$BDGSV,4,1,16,213,74,270,33,206,68,254,28,208,66,175,32,232,65,026,36*66
$BDGSV,4,2,16,216,61,252,34,203,44,206,,230,36,231,21,223,34,102,33*6C
$BDGSV,4,3,16,229,29,295,36,237,19,158,30,225,17,049,29,227,09,183,24*67
$BDGSV,4,4,16,220,40,291,,209,38,239,,202,29,238,,205,10,258,*62
$GAGSV,3,1,08,104,73,327,36,112,36,180,22,119,31,056,26,109,29,260,13*67
$GAGSV,3,2,08,136,23,318,29,121,14,072,29,101,12,121,31*6F
$GAGSV,3,3,08,104,,,27,1*4D
$GPGSA,A,3,02,05,13,15,21,24,29,30,,,,,1.5,0.8,1.3*30
$GPGSA,A,3,30,,,,,,,,,,,,1.5,0.8,1.3,8*2B
$QZGSA,A,3,01,02,07,,,,,,,,,,1.5,0.8,1.3*24
$QZGSA,A,3,01,02,07,,,,,,,,,,1.5,0.8,1.3,8*30
$BDGSA,A,3,208,213,216,223,229,232,,,,,,,1.5,0.8,1.3*2B
$BDGSA,A,3,,,,,,,,,,,,,1.5,0.8,1.3,5*34
$GAGSA,A,3,104,,,,,,,,,,,,1.5,0.8,1.3*18
$GAGSA,A,3,104,,,,,,,,,,,,1.5,0.8,1.3,1*05
$NCGSA,A,3,,,,,,,,,,,,,1.5,0.8,1.3,1*3B
$GNGSA,A,3,02,05,13,15,21,24,29,30,,,,,1.5,0.8,1.3*2E
$GNGSA,A,3,66,67,75,76,81,,,,,,,,1.5,0.8,1.3*29
$GPRMC,025100.00,A,3722.780865,N,12640.639040,E,026.0,217.5,231119,,,A*5D
$GPGGA,025101.00,3722.775048,N,12640.633499,E,1,30,0.4,9.3,M,17.8,M,,*66
$PGLOR,10,STA,025101.00,0.003,0.000,178,1,4,0,P,D,L,0,C,3,S,00300002,200,5,R,000833F4,TPEF,51,35152,LC,,,DR,0,*5F
$PGLOR,1,UNC,025101.00,0.012,4.0,3.8,0.04,1.00,4.0,4.0,0.0*23
$PSSGR,GSA,A,3,02,05,13,15,21,24,29,30,,,,,1.5,0.8,1.3,1,1*4E
$PSSGR,GSA,A,3,30,,,,,,,,,,,,1.5,0.8,1.3,1,8*48
$PSSGR,GSA,A,3,66,67,75,76,81,,,,,,,,1.5,0.8,1.3,2,1*4A
$PSSGR,GSA,A,3,01,02,07,,,,,,,,,,1.5,0.8,1.3,5,1*42
$PSSGR,GSA,A,3,01,02,07,,,,,,,,,,1.5,0.8,1.3,5,8*4B
$PSSGR,GSA,A,3,206,208,213,216,223,225,229,232,,,,,1.5,0.8,1.3,4,3*42
$PSSGR,GSA,A,3,,,,,,,,,,,,,1.5,0.8,1.3,4,5*43
$PSSGR,GSA,A,3,104,,,,,,,,,,,,1.5,0.8,1.3,3,7*73
$PSSGR,GSA,A,3,104,,,,,,,,,,,,1.5,0.8,1.3,3,1*75
$PSSGR,GSA,A,3,,,,,,,,,,,,,1.5,0.8,1.3,6,1*45
$GPGSV,4,1,11,13,74,032,36,15,65,263,35,05,52,076,36,21,27,314,32*78
$GPGSV,4,2,11,29,25,245,41,30,23,050,28,02,22,156,32,24,15,189,28*71
$GPGSV,4,3,11,20,05,294,*46
$GPGSV,4,4,11,30,,,27,24,,,23,8*6C
$GLGSV,2,1,08,66,50,021,32,81,44,215,36,67,42,296,38,76,29,097,38*6D
$GLGSV,2,2,08,75,19,044,27,83,12,335,24,65,04,069,,77,09,149,*64
$QZGSV,2,1,08,01,77,066,33,07,47,179,29,02,21,152,29,03,18,182,23*63
$QZGSV,2,2,08,01,,,30,07,,,31,02,,,24,03,,,21,8*7A
$BDGSV,4,1,16,213,74,270,33,206,68,254,28,208,66,175,33,232,65,026,37*66
$BDGSV,4,2,16,216,61,252,34,203,44,206,20,230,36,231,20,223,34,102,32*6E
$BDGSV,4,3,16,229,29,295,37,237,19,158,30,225,17,049,29,227,09,183,23*61
$BDGSV,4,4,16,220,40,291,,209,38,239,,202,29,238,,205,10,258,*62
$GAGSV,3,1,08,104,73,327,36,112,36,180,26,119,31,056,28,109,29,260,14*6A
$GAGSV,3,2,08,136,23,318,29,121,14,072,29,101,12,121,31*6F
$GAGSV,3,3,08,104,,,27,1*4D
