$PGLOR,0,RID,4755,106,20,22,415420*35
$GPGGA,024214.30,,,,,0,00,999.9,,M,,M,,*64
$PGLOR,10,STA,024214.30,0.000,1.000,177,98,9999,0,P,D,L,1,C,0,S,00000000,0,1,R,00000000,TPEF,30,105,LC,,,DR,0,*2F
$PGLOR,1,UNC,024214.30,1000000.000,9999.0,9999.0,0.00,0.00,10588.6,10588.6,90.0*17
$PGLOR,2,PFM,HAL,-,0,0,0,0,RF,-,-180,0.0,0,RTC,,P,STO,P,LTO,F,SW,P,,,OSC,U,U,*63
$PSSGR,GSA,A,1,,,,,,,,,,,,,140.0,99.0,99.0,1,1*4B
$PSSGR,GSA,A,1,,,,,,,,,,,,,140.0,99.0,99.0,1,8*42
$PSSGR,GSA,A,1,,,,,,,,,,,,,140.0,99.0,99.0,2,1*48
$PSSGR,GSA,A,1,,,,,,,,,,,,,140.0,99.0,99.0,5,1*4F
$PSSGR,GSA,A,1,,,,,,,,,,,,,140.0,99.0,99.0,5,8*46
$PSSGR,GSA,A,1,,,,,,,,,,,,,140.0,99.0,99.0,4,3*4C
$PSSGR,GSA,A,1,,,,,,,,,,,,,140.0,99.0,99.0,4,5*4A
$PSSGR,GSA,A,1,,,,,,,,,,,,,140.0,99.0,99.0,3,7*4F
$PSSGR,GSA,A,1,,,,,,,,,,,,,140.0,99.0,99.0,3,1*49
$PSSGR,GSA,A,1,,,,,,,,,,,,,140.0,99.0,99.0,6,1*4C
$GPGSV,3,1,10,13,78,031,,15,62,256,,05,54,071,,29,28,249,*78
$GPGSV,3,2,10,30,25,053,,02,25,155,,21,24,315,,24,11,189,*7B
$GPGSV,3,3,10,20,02,291,,07,02,032,*76
$GLGSV,2,1,08,66,52,014,,81,48,218,,67,40,291,,76,26,101,*68
$GLGSV,2,2,08,75,20,048,,83,08,337,,65,07,065,,77,06,151,*61
$QZGSV,1,1,04,01,77,065,,07,47,179,,02,19,153,,03,19,182,*65
$GAGSV,2,1,08,104,73,316,,112,40,180,,119,33,054,,109,27,257,*6C
$GAGSV,2,2,08,136,21,319,,121,13,075,,101,10,124,,127,00,028,*66
$GPGSA,A,1,,,,,,,,,,,,,140.0,99.0,99.0*35
$GPGSA,A,1,,,,,,,,,,,,,140.0,99.0,99.0,8*21
$QZGSA,A,1,,,,,,,,,,,,,140.0,99.0,99.0*29
$QZGSA,A,1,,,,,,,,,,,,,140.0,99.0,99.0,8*3D
$BDGSA,A,1,,,,,,,,,,,,,140.0,99.0,99.0*24
$BDGSA,A,1,,,,,,,,,,,,,140.0,99.0,99.0,5*3D
$GAGSA,A,1,,,,,,,,,,,,,140.0,99.0,99.0*24
$GAGSA,A,1,,,,,,,,,,,,,140.0,99.0,99.0,1*39
$NCGSA,A,1,,,,,,,,,,,,,140.0,99.0,99.0,1*32
$GNGSA,A,1,,,,,,,,,,,,,140.0,99.0,99.0*2B
$GNGSA,A,1,,,,,,,,,,,,,140.0,99.0,99.0*2B
$GPRMC,024214.30,V,,,,,,,231119,,,N*76
$GPGGA,024215.30,,,,,0,00,999.9,,M,,M,,*65
$PGLOR,10,STA,024215.30,0.000,1.000,177,98,9999,0,P,D,L,1,C,0,S,00100000,0,1,R,00000000,TPEF,46,1105,LC,,,DR,0,*1F
$PGLOR,1,UNC,024215.30,1000000.000,9999.0,9999.0,0.00,0.00,10588.6,10588.6,90.0*16
$PGLOR,2,PFM,HAL,-,0,0,0,0,RF,-,-180,0.0,0,RTC,,P,STO,P,LTO,P,SW,P,,,OSC,U,U,*75
$PSSGR,GSA,A,1,,,,,,,,,,,,,140.0,99.0,99.0,1,1*4B
$PSSGR,GSA,A,1,,,,,,,,,,,,,140.0,99.0,99.0,1,8*42
$PSSGR,GSA,A,1,,,,,,,,,,,,,140.0,99.0,99.0,2,1*48
$PSSGR,GSA,A,1,,,,,,,,,,,,,140.0,99.0,99.0,5,1*4F
$PSSGR,GSA,A,1,,,,,,,,,,,,,140.0,99.0,99.0,5,8*46
$PSSGR,GSA,A,1,,,,,,,,,,,,,140.0,99.0,99.0,4,3*4C
$PSSGR,GSA,A,1,,,,,,,,,,,,,140.0,99.0,99.0,4,5*4A
$PSSGR,GSA,A,1,,,,,,,,,,,,,140.0,99.0,99.0,3,7*4F
$PSSGR,GSA,A,1,,,,,,,,,,,,,140.0,99.0,99.0,3,1*49
$PSSGR,GSA,A,1,,,,,,,,,,,,,140.0,99.0,99.0,6,1*4C
$GPGSV,3,1,10,13,78,031,,15,62,256,,05,54,071,,29,28,249,*78
$GPGSV,3,2,10,30,25,053,,02,25,155,,21,24,315,,24,11,189,*7B
$GPGSV,3,3,10,07,02,032,,20,02,291,*76
$GLGSV,2,1,08,66,52,014,,81,48,218,,67,40,291,,76,26,101,*68
$GLGSV,2,2,08,75,20,048,,83,08,337,,65,07,065,,77,06,151,*61
$QZGSV,1,1,04,01,77,065,,07,47,179,,02,19,153,,03,19,182,*65
$BDGSV,4,1,16,213,74,276,,208,68,172,,206,67,250,,232,66,018,*62
$BDGSV,4,2,16,216,61,248,,203,44,206,,230,39,234,,209,38,237,*68
$BDGSV,4,3,16,220,38,287,,223,32,106,,202,29,238,,229,28,299,*68
$BDGSV,4,4,16,225,18,052,,237,16,159,,227,13,184,,205,10,258,*69
$GAGSV,2,1,08,104,73,316,,112,40,180,,119,33,054,,109,27,257,*6C
$GAGSV,2,2,08,136,21,319,,121,13,075,,101,10,124,,127,00,028,*66
$GPGSA,A,1,,,,,,,,,,,,,140.0,99.0,99.0*35
$GPGSA,A,1,,,,,,,,,,,,,140.0,99.0,99.0,8*21
$QZGSA,A,1,,,,,,,,,,,,,140.0,99.0,99.0*29
$QZGSA,A,1,,,,,,,,,,,,,140.0,99.0,99.0,8*3D
$BDGSA,A,1,,,,,,,,,,,,,140.0,99.0,99.0*24
$BDGSA,A,1,,,,,,,,,,,,,140.0,99.0,99.0,5*3D
$GAGSA,A,1,,,,,,,,,,,,,140.0,99.0,99.0*24
$GAGSA,A,1,,,,,,,,,,,,,140.0,99.0,99.0,1*39
$NCGSA,A,1,,,,,,,,,,,,,140.0,99.0,99.0,1*32
$GNGSA,A,1,,,,,,,,,,,,,140.0,99.0,99.0*2B
$GNGSA,A,1,,,,,,,,,,,,,140.0,99.0,99.0*2B
$GPRMC,024215.30,V,,,,,,,231119,,,N*77
$GPGGA,024215.73,,,,,0,00,999.9,,M,,M,,*62
$PGLOR,10,STA,024215.73,0.000,1.000,177,98,9999,0,P,D,L,1,C,0,S,00100000,0,1,R,00000000,TPEF,46,1543,LC,,,DR,0,*1E
$PGLOR,1,UNC,024215.73,1000000.000,9999.0,9999.0,0.00,0.00,10588.6,10588.6,90.0*11
$PSSGR,GSA,A,1,,,,,,,,,,,,,140.0,99.0,99.0,1,1*4B
$PSSGR,GSA,A,1,,,,,,,,,,,,,140.0,99.0,99.0,1,8*42
$PSSGR,GSA,A,1,,,,,,,,,,,,,140.0,99.0,99.0,2,1*48
$PSSGR,GSA,A,1,,,,,,,,,,,,,140.0,99.0,99.0,5,1*4F
$PSSGR,GSA,A,1,,,,,,,,,,,,,140.0,99.0,99.0,5,8*46
$PSSGR,GSA,A,1,,,,,,,,,,,,,140.0,99.0,99.0,4,3*4C
$PSSGR,GSA,A,1,,,,,,,,,,,,,140.0,99.0,99.0,4,5*4A
$PSSGR,GSA,A,1,,,,,,,,,,,,,140.0,99.0,99.0,3,7*4F
$PSSGR,GSA,A,1,,,,,,,,,,,,,140.0,99.0,99.0,3,1*49
$PSSGR,GSA,A,1,,,,,,,,,,,,,140.0,99.0,99.0,6,1*4C
$GPGSV,3,1,10,13,78,031,,15,62,256,,05,54,071,,29,28,249,*78
$GPGSV,3,2,10,30,25,053,,02,25,155,,21,24,315,,24,11,189,*7B
$GPGSV,3,3,10,07,02,032,,20,02,291,*76
$GLGSV,2,1,08,66,52,014,,81,48,218,,67,40,291,,76,26,101,*68
$GLGSV,2,2,08,75,20,048,,83,08,337,,65,07,065,,77,06,151,*61
$QZGSV,1,1,04,01,77,065,29,07,47,179,,02,19,153,,03,19,182,*6E
$BDGSV,4,1,16,213,74,276,,208,68,172,,206,67,250,,232,66,018,*62
$BDGSV,4,2,16,216,61,248,,203,44,206,,230,39,234,,209,38,237,*68
$BDGSV,4,3,16,220,38,287,,223,32,106,,202,29,238,,229,28,299,*68
$BDGSV,4,4,16,225,18,052,,237,16,159,,227,13,184,,205,10,258,*69
$GAGSV,2,1,08,104,73,316,,112,40,180,,119,33,054,,109,27,257,*6C
$GAGSV,2,2,08,136,21,319,,121,13,075,,101,10,124,,127,00,028,*66
$GPGSA,A,1,,,,,,,,,,,,,140.0,99.0,99.0*35
$GPGSA,A,1,,,,,,,,,,,,,140.0,99.0,99.0,8*21
$QZGSA,A,1,,,,,,,,,,,,,140.0,99.0,99.0*29
$QZGSA,A,1,,,,,,,,,,,,,140.0,99.0,99.0,8*3D
$BDGSA,A,1,,,,,,,,,,,,,140.0,99.0,99.0*24
$BDGSA,A,1,,,,,,,,,,,,,140.0,99.0,99.0,5*3D
$GAGSA,A,1,,,,,,,,,,,,,140.0,99.0,99.0*24
$GAGSA,A,1,,,,,,,,,,,,,140.0,99.0,99.0,1*39
$NCGSA,A,1,,,,,,,,,,,,,140.0,99.0,99.0,1*32
$GNGSA,A,1,,,,,,,,,,,,,140.0,99.0,99.0*2B
$GNGSA,A,1,,,,,,,,,,,,,140.0,99.0,99.0*2B
$GPRMC,024215.73,V,,,,,,,231119,,,N*70
$GPGGA,024216.30,,,,,0,00,999.9,,M,,M,,*66
$PGLOR,10,STA,024216.30,0.000,1.000,177,98,9999,0,P,D,L,1,C,2,S,00100000,0,1,R,00000000,TPEF,47,2105,LC,,,DR,0,*1C
$PGLOR,1,UNC,024216.30,1000000.000,9999.0,9999.0,0.00,0.00,10588.6,10588.6,90.0*15
$PSSGR,GSA,A,1,,,,,,,,,,,,,140.0,99.0,99.0,1,1*4B
$PSSGR,GSA,A,1,,,,,,,,,,,,,140.0,99.0,99.0,1,8*42
$PSSGR,GSA,A,1,,,,,,,,,,,,,140.0,99.0,99.0,2,1*48
$PSSGR,GSA,A,1,,,,,,,,,,,,,140.0,99.0,99.0,5,1*4F
$PSSGR,GSA,A,1,,,,,,,,,,,,,140.0,99.0,99.0,5,8*46
$PSSGR,GSA,A,1,,,,,,,,,,,,,140.0,99.0,99.0,4,3*4C
$PSSGR,GSA,A,1,,,,,,,,,,,,,140.0,99.0,99.0,4,5*4A
$PSSGR,GSA,A,1,,,,,,,,,,,,,140.0,99.0,99.0,3,7*4F
$PSSGR,GSA,A,1,,,,,,,,,,,,,140.0,99.0,99.0,3,1*49
$PSSGR,GSA,A,1,,,,,,,,,,,,,140.0,99.0,99.0,6,1*4C
$GPGSV,3,1,10,15,62,256,36,29,28,249,36,13,78,031,,05,54,071,*78
$GPGSV,3,2,10,30,25,053,,02,25,155,,21,24,315,,24,11,189,*7B
$GPGSV,3,3,10,07,02,032,,20,02,291,*76
$GLGSV,2,1,08,81,48,218,38,67,40,291,35,76,26,101,36,66,52,014,*60
$GLGSV,2,2,08,75,20,048,,83,08,337,,65,07,065,,77,06,151,*61
$QZGSV,2,1,05,01,77,065,29,07,47,179,,02,19,153,,03,19,182,*6C
$QZGSV,2,2,05,01,,,,8*75
$BDGSV,4,1,16,213,74,276,,208,68,172,,206,67,250,,232,66,018,*62
$BDGSV,4,2,16,216,61,248,,203,44,206,,230,39,234,,220,38,287,*68
$BDGSV,4,3,16,209,38,237,,223,32,106,,202,29,238,,229,28,299,*68
$BDGSV,4,4,16,225,18,052,,237,16,159,,227,13,184,,205,10,258,*69
$GAGSV,2,1,08,104,73,316,,112,40,180,,119,33,054,,109,27,257,*6C
$GAGSV,2,2,08,136,21,319,,121,13,075,,101,10,124,,127,00,028,*66
$GPGSA,A,1,,,,,,,,,,,,,140.0,99.0,99.0*35
$GPGSA,A,1,,,,,,,,,,,,,140.0,99.0,99.0,8*21
$QZGSA,A,1,,,,,,,,,,,,,140.0,99.0,99.0*29
$QZGSA,A,1,,,,,,,,,,,,,140.0,99.0,99.0,8*3D
$BDGSA,A,1,,,,,,,,,,,,,140.0,99.0,99.0*24
$BDGSA,A,1,,,,,,,,,,,,,140.0,99.0,99.0,5*3D
$GAGSA,A,1,,,,,,,,,,,,,140.0,99.0,99.0*24
$GAGSA,A,1,,,,,,,,,,,,,140.0,99.0,99.0,1*39
$NCGSA,A,1,,,,,,,,,,,,,140.0,99.0,99.0,1*32
$GNGSA,A,1,,,,,,,,,,,,,140.0,99.0,99.0*2B
$GNGSA,A,1,,,,,,,,,,,,,140.0,99.0,99.0*2B
$GPRMC,024216.30,V,,,,,,,231119,,,N*74
$GPGGA,024217.30,,,,,0,06,6.4,0.0,M,17.8,M,,*5D
$PGLOR,10,STA,024217.30,-0.001,0.500,175,98,64,0,P,D,L,1,C,2,S,00100002,0,1,R,00000000,TPEF,47,3105,LC,,,DR,0,*36
$PGLOR,1,UNC,024217.30,500000.083,64.0,30.6,0.95,180.00,67.8,67.8,90.0*29
$PSSGR,GSA,A,1,15,29,,,,,,,,,,,3.6,2.8,2.2,1,1*4E
$PSSGR,GSA,A,1,,,,,,,,,,,,,3.6,2.8,2.2,1,8*48
$PSSGR,GSA,A,1,67,76,81,,,,,,,,,,3.6,2.8,2.2,2,1*4B
$PSSGR,GSA,A,1,01,,,,,,,,,,,,3.6,2.8,2.2,5,1*44
$PSSGR,GSA,A,1,,,,,,,,,,,,,3.6,2.8,2.2,5,8*4C
$PSSGR,GSA,A,1,,,,,,,,,,,,,3.6,2.8,2.2,4,3*46
$PSSGR,GSA,A,1,,,,,,,,,,,,,3.6,2.8,2.2,4,5*40
$PSSGR,GSA,A,1,,,,,,,,,,,,,3.6,2.8,2.2,3,7*45
$PSSGR,GSA,A,1,,,,,,,,,,,,,3.6,2.8,2.2,3,1*43
$PSSGR,GSA,A,1,,,,,,,,,,,,,3.6,2.8,2.2,6,1*46
$GPGSV,3,1,10,15,62,256,38,29,28,249,36,13,78,031,,05,54,071,*76
$GPGSV,3,2,10,30,25,053,,02,25,155,,21,24,315,,24,11,189,*7B
$GPGSV,3,3,10,07,02,032,,20,02,291,*76
$GLGSV,2,1,08,81,48,218,38,67,40,291,36,76,26,101,36,66,52,014,*63
$GLGSV,2,2,08,75,20,048,,83,08,337,,65,07,065,,77,06,151,*61
$QZGSV,2,1,05,01,77,065,29,07,47,179,,02,19,153,,03,19,182,*6C
$QZGSV,2,2,05,01,,,,8*75
$BDGSV,4,1,16,213,74,276,,208,68,172,,206,67,250,,232,66,019,*63
$BDGSV,4,2,16,216,61,248,,203,44,206,,230,39,234,,220,38,287,*68
$BDGSV,4,3,16,209,38,237,,223,32,106,,202,29,238,,229,28,299,*68
$BDGSV,4,4,16,225,18,052,,237,16,159,,227,13,184,,205,10,258,*69
$GAGSV,2,1,08,104,73,316,,112,40,180,,119,33,054,,109,27,257,*6C
$GAGSV,2,2,08,136,21,319,,121,13,075,,101,10,124,,127,00,028,*66
$GPGSA,A,1,15,29,,,,,,,,,,,3.6,2.8,2.2*30
$GPGSA,A,1,,,,,,,,,,,,,3.6,2.8,2.2,8*2B
$QZGSA,A,1,01,,,,,,,,,,,,3.6,2.8,2.2*22
$QZGSA,A,1,,,,,,,,,,,,,3.6,2.8,2.2,8*37
$BDGSA,A,1,,,,,,,,,,,,,3.6,2.8,2.2*2E
$BDGSA,A,1,,,,,,,,,,,,,3.6,2.8,2.2,5*37
$GAGSA,A,1,,,,,,,,,,,,,3.6,2.8,2.2*2E
$GAGSA,A,1,,,,,,,,,,,,,3.6,2.8,2.2,1*33
$NCGSA,A,1,,,,,,,,,,,,,3.6,2.8,2.2,1*38
$GNGSA,A,1,15,29,,,,,,,,,,,3.6,2.8,2.2*2E
$GNGSA,A,1,67,76,81,,,,,,,,,,3.6,2.8,2.2*28
$GPRMC,024217.30,V,,,,,,,231119,,,N*75
$GPGGA,024218.32,,,,,0,06,6.4,0.0,M,17.8,M,,*50
$PGLOR,10,STA,024218.32,-0.018,0.500,176,98,64,0,P,D,L,1,C,2,S,00100002,0,3,R,00000000,TPEF,47,4105,LC,,,DR,0,*35
$PGLOR,1,UNC,024218.32,500000.130,64.0,47.8,1.02,180.00,67.8,67.8,90.0*2C
$PSSGR,GSA,A,1,15,29,,,,,,,,,,,3.6,2.8,2.2,1,1*4E
$PSSGR,GSA,A,1,,,,,,,,,,,,,3.6,2.8,2.2,1,8*48
$PSSGR,GSA,A,1,67,76,81,,,,,,,,,,3.6,2.8,2.2,2,1*4B
$PSSGR,GSA,A,1,01,,,,,,,,,,,,3.6,2.8,2.2,5,1*44
$PSSGR,GSA,A,1,,,,,,,,,,,,,3.6,2.8,2.2,5,8*4C
$PSSGR,GSA,A,1,,,,,,,,,,,,,3.6,2.8,2.2,4,3*46
$PSSGR,GSA,A,1,,,,,,,,,,,,,3.6,2.8,2.2,4,5*40
$PSSGR,GSA,A,1,,,,,,,,,,,,,3.6,2.8,2.2,3,7*45
$PSSGR,GSA,A,1,,,,,,,,,,,,,3.6,2.8,2.2,3,1*43
$PSSGR,GSA,A,1,,,,,,,,,,,,,3.6,2.8,2.2,6,1*46
$GPGSV,3,1,10,15,62,256,40,29,28,249,38,13,78,031,,05,54,071,*77
$GPGSV,3,2,10,30,25,053,,02,25,155,,21,24,315,,24,11,189,*7B
$GPGSV,3,3,10,07,02,032,,20,02,291,*76
$GLGSV,2,1,08,81,48,218,38,67,40,291,36,76,26,101,36,66,52,014,*63
$GLGSV,2,2,08,75,20,048,,83,08,337,,65,07,065,,77,06,151,*61
$QZGSV,2,1,05,01,77,065,30,07,47,179,,02,19,153,,03,19,182,*64
$QZGSV,2,2,05,01,,,24,8*73
$BDGSV,4,1,16,213,74,276,,208,68,172,,206,67,250,,232,66,018,*62
$BDGSV,4,2,16,216,61,248,,203,44,206,,230,39,234,,220,38,287,*68
$BDGSV,4,3,16,209,38,237,,223,32,106,,202,29,238,,229,28,299,*68
$BDGSV,4,4,16,225,18,052,,237,16,159,,227,13,184,,205,10,258,*69
$GAGSV,2,1,08,104,73,316,,112,40,180,,119,33,054,,109,27,257,*6C
$GAGSV,2,2,08,136,21,319,,121,13,075,,101,10,124,,127,00,028,*66
$GPGSA,A,1,15,29,,,,,,,,,,,3.6,2.8,2.2*30
$GPGSA,A,1,,,,,,,,,,,,,3.6,2.8,2.2,8*2B
$QZGSA,A,1,01,,,,,,,,,,,,3.6,2.8,2.2*22
$QZGSA,A,1,,,,,,,,,,,,,3.6,2.8,2.2,8*37
$BDGSA,A,1,,,,,,,,,,,,,3.6,2.8,2.2*2E
$BDGSA,A,1,,,,,,,,,,,,,3.6,2.8,2.2,5*37
$GAGSA,A,1,,,,,,,,,,,,,3.6,2.8,2.2*2E
$GAGSA,A,1,,,,,,,,,,,,,3.6,2.8,2.2,1*33
$NCGSA,A,1,,,,,,,,,,,,,3.6,2.8,2.2,1*38
$GNGSA,A,1,15,29,,,,,,,,,,,3.6,2.8,2.2*2E
$GNGSA,A,1,67,76,81,,,,,,,,,,3.6,2.8,2.2*28
$GPRMC,024218.32,V,,,,,,,231119,,,N*78
$GPGGA,024219.30,3722.863570,N,12640.713746,E,1,06,6.4,0.0,M,17.8,M,,*63
$PGLOR,10,STA,024219.30,-0.007,0.500,176,98,64,0,P,D,L,1,C,2,S,00100002,0,3,R,00000000,TPEF,47,5105,LC,,,DR,0,*39
$PGLOR,1,UNC,024219.30,500000.079,64.0,28.9,1.03,180.00,67.8,67.8,90.0*2A
$PSSGR,GSA,A,3,15,29,,,,,,,,,,,3.6,2.8,2.2,1,1*4C
$PSSGR,GSA,A,3,,,,,,,,,,,,,3.6,2.8,2.2,1,8*4A
$PSSGR,GSA,A,3,67,76,81,,,,,,,,,,3.6,2.8,2.2,2,1*49
$PSSGR,GSA,A,3,,,,,,,,,,,,,3.6,2.8,2.2,5,1*47
$PSSGR,GSA,A,3,01,,,,,,,,,,,,3.6,2.8,2.2,5,8*4F
$PSSGR,GSA,A,3,,,,,,,,,,,,,3.6,2.8,2.2,4,3*44
$PSSGR,GSA,A,3,,,,,,,,,,,,,3.6,2.8,2.2,4,5*42
$PSSGR,GSA,A,3,,,,,,,,,,,,,3.6,2.8,2.2,3,7*47
$PSSGR,GSA,A,3,,,,,,,,,,,,,3.6,2.8,2.2,3,1*41
$PSSGR,GSA,A,3,,,,,,,,,,,,,3.6,2.8,2.2,6,1*44
$GPGSV,3,1,10,15,62,256,40,29,28,249,39,13,78,031,,05,54,071,*76
$GPGSV,3,2,10,30,25,053,,02,25,155,,21,24,315,,24,11,189,*7B
$GPGSV,3,3,10,07,02,032,,20,02,291,*76
$GLGSV,2,1,08,81,48,218,38,67,40,291,35,76,26,101,36,66,52,014,*60
$GLGSV,2,2,08,75,20,048,,83,08,337,,65,07,065,,77,06,151,*61
$QZGSV,2,1,05,01,77,065,30,07,47,179,,02,19,153,,03,19,182,*64
$QZGSV,2,2,05,01,,,30,8*76
$BDGSV,4,1,16,213,74,276,,208,68,172,,206,67,250,,232,66,019,*63
$BDGSV,4,2,16,216,61,248,,203,44,206,,230,39,234,,220,38,287,*68
$BDGSV,4,3,16,209,38,237,,223,32,106,,202,29,238,,229,28,299,*68
$BDGSV,4,4,16,225,18,052,,237,16,159,,227,13,184,,205,10,258,*69
$GAGSV,2,1,08,104,73,316,,112,40,180,,119,33,054,,109,27,257,*6C
$GAGSV,2,2,08,136,21,319,,121,13,075,,101,10,124,,127,00,028,*66
$GPGSA,A,3,15,29,,,,,,,,,,,3.6,2.8,2.2*32
$GPGSA,A,3,,,,,,,,,,,,,3.6,2.8,2.2,8*29
$QZGSA,A,3,,,,,,,,,,,,,3.6,2.8,2.2*21
$QZGSA,A,3,01,,,,,,,,,,,,3.6,2.8,2.2,8*34
$BDGSA,A,3,,,,,,,,,,,,,3.6,2.8,2.2*2C
$BDGSA,A,3,,,,,,,,,,,,,3.6,2.8,2.2,5*35
$GAGSA,A,3,,,,,,,,,,,,,3.6,2.8,2.2*2C
$GAGSA,A,3,,,,,,,,,,,,,3.6,2.8,2.2,1*31
$NCGSA,A,3,,,,,,,,,,,,,3.6,2.8,2.2,1*3A
$GNGSA,A,3,15,29,,,,,,,,,,,3.6,2.8,2.2*2C
$GNGSA,A,3,67,76,81,,,,,,,,,,3.6,2.8,2.2*2A
$GPRMC,024219.30,A,3722.863570,N,12640.713746,E,000.2,274.9,231119,,,A*58
$GPGGA,024220.29,3722.868261,N,12640.714798,E,1,11,1.2,0.0,M,17.8,M,,*6E
$PGLOR,10,STA,024220.29,0.005,0.001,177,98,12,0,P,D,L,0,C,3,S,00100002,0,3,R,00000000,TPEF,49,6105,LC,,,DR,0,*1D
$PGLOR,1,UNC,024220.29,1011.000,12.0,13.8,0.92,180.00,12.7,12.7,90.0*23
$PSSGR,GSA,A,3,05,13,15,29,,,,,,,,,2.2,1.4,1.7,1,1*47
$PSSGR,GSA,A,3,,,,,,,,,,,,,2.2,1.4,1.7,1,8*46
$PSSGR,GSA,A,3,67,76,81,,,,,,,,,,2.2,1.4,1.7,2,1*45
$PSSGR,GSA,A,3,,,,,,,,,,,,,2.2,1.4,1.7,5,1*4B
$PSSGR,GSA,A,3,01,,,,,,,,,,,,2.2,1.4,1.7,5,8*43
$PSSGR,GSA,A,3,208,213,216,,,,,,,,,,2.2,1.4,1.7,4,3*77
$PSSGR,GSA,A,3,,,,,,,,,,,,,2.2,1.4,1.7,4,5*4E
$PSSGR,GSA,A,3,,,,,,,,,,,,,2.2,1.4,1.7,3,7*4B
$PSSGR,GSA,A,3,,,,,,,,,,,,,2.2,1.4,1.7,3,1*4D
$PSSGR,GSA,A,3,,,,,,,,,,,,,2.2,1.4,1.7,6,1*48
$GPGSV,4,1,11,13,78,031,32,15,62,256,40,05,54,071,34,29,28,249,39*76
$GPGSV,4,2,11,30,25,053,30,02,25,155,30,21,24,315,31,07,02,032,*7D
$GPGSV,4,3,11,24,11,189,,20,02,291,*72
$GPGSV,4,4,11,30,,,26,8*6A
$GLGSV,2,1,08,81,48,218,38,67,40,291,35,76,26,101,36,75,20,048,27*6B
$GLGSV,2,2,08,65,07,065,27,66,52,014,,83,08,337,,77,06,151,*6A
$QZGSV,2,1,06,01,77,065,30,02,19,153,30,07,47,179,,03,19,182,*64
$QZGSV,2,2,06,01,,,31,02,,,25,8*71
$BDGSV,4,1,16,213,74,276,32,208,68,172,33,206,67,250,31,216,61,248,34*60
$BDGSV,4,2,16,232,66,019,,203,44,206,,230,39,234,,209,38,237,*6F
$BDGSV,4,3,16,220,38,287,,223,32,106,,202,29,238,,229,28,299,*68
$BDGSV,4,4,16,225,18,052,,237,16,159,,227,13,184,,205,10,258,*69
$GAGSV,2,1,08,104,73,316,,112,40,180,,119,33,054,,109,27,257,*6C
$GAGSV,2,2,08,136,21,319,,121,13,075,,101,10,124,,127,00,028,*66
$GPGSA,A,3,05,13,15,29,,,,,,,,,2.2,1.4,1.7*39
$GPGSA,A,3,,,,,,,,,,,,,2.2,1.4,1.7,8*25
$QZGSA,A,3,,,,,,,,,,,,,2.2,1.4,1.7*2D
$QZGSA,A,3,01,,,,,,,,,,,,2.2,1.4,1.7,8*38
$BDGSA,A,3,208,213,216,,,,,,,,,,2.2,1.4,1.7*1F
$BDGSA,A,3,,,,,,,,,,,,,2.2,1.4,1.7,5*39
$GAGSA,A,3,,,,,,,,,,,,,2.2,1.4,1.7*20
$GAGSA,A,3,,,,,,,,,,,,,2.2,1.4,1.7,1*3D
$NCGSA,A,3,,,,,,,,,,,,,2.2,1.4,1.7,1*36
$GNGSA,A,3,05,13,15,29,,,,,,,,,2.2,1.4,1.7*27
$GNGSA,A,3,67,76,81,,,,,,,,,,2.2,1.4,1.7*26
$GPRMC,024220.29,A,3722.868261,N,12640.714798,E,000.0,119.1,231119,,,A*50
$GPGGA,024221.29,3722.867723,N,12640.714668,E,1,19,1.2,2.7,M,17.8,M,,*60
$PGLOR,10,STA,024221.29,0.005,0.000,177,98,12,0,P,D,L,0,C,3,S,00100002,0,4,R,000833F4,TPEF,50,7105,LC,,,DR,0,*69
$PGLOR,1,UNC,024221.29,0.033,12.0,11.8,0.21,180.00,12.0,12.0,0.0*20
$PSSGR,GSA,A,3,02,05,13,15,21,29,30,,,,,,1.4,0.9,1.2,1,1*49
$PSSGR,GSA,A,3,,,,,,,,,,,,,1.4,0.9,1.2,1,8*4A
$PSSGR,GSA,A,3,65,67,75,76,81,,,,,,,,1.4,0.9,1.2,2,1*48
$PSSGR,GSA,A,3,01,02,,,,,,,,,,,1.4,0.9,1.2,5,1*44
$PSSGR,GSA,A,3,01,,,,,,,,,,,,1.4,0.9,1.2,5,8*4F
$PSSGR,GSA,A,3,206,208,213,216,,,,,,,,,1.4,0.9,1.2,4,3*4F
$PSSGR,GSA,A,3,,,,,,,,,,,,,1.4,0.9,1.2,4,5*42
$PSSGR,GSA,A,3,,,,,,,,,,,,,1.4,0.9,1.2,3,7*47
$PSSGR,GSA,A,3,,,,,,,,,,,,,1.4,0.9,1.2,3,1*41
$PSSGR,GSA,A,3,,,,,,,,,,,,,1.4,0.9,1.2,6,1*44
$GPGSV,4,1,12,13,78,031,32,15,62,256,40,05,54,071,34,29,28,249,39*75
$GPGSV,4,2,12,30,25,053,30,02,25,155,30,21,24,315,30,24,11,189,22*7D
$GPGSV,4,3,12,07,02,032,,20,02,291,*73
$GPGSV,4,4,12,30,,,28,24,,,,8*61
$GLGSV,2,1,08,81,48,218,38,67,40,291,35,76,26,101,35,75,20,048,27*68
$GLGSV,2,2,08,65,07,065,27,66,52,014,,83,08,337,,77,06,151,*6A
$QZGSV,2,1,06,01,77,065,30,02,19,153,30,07,47,179,,03,19,182,*64
$QZGSV,2,2,06,01,,,31,02,,,25,8*71
$BDGSV,4,1,16,213,74,276,32,208,68,172,33,206,67,250,31,216,61,248,33*67
$BDGSV,4,2,16,232,66,019,,203,44,206,,230,39,234,,220,38,287,*6F
$BDGSV,4,3,16,209,38,237,,223,32,106,,202,29,238,,229,28,299,*68
$BDGSV,4,4,16,225,18,052,,237,16,159,,227,13,184,,205,10,258,*69
$GAGSV,2,1,08,104,73,316,,112,40,180,,119,33,054,,109,27,257,*6C
$GAGSV,2,2,08,136,21,319,,121,13,075,,101,10,124,,127,00,028,*66
$GPGSA,A,3,02,05,13,15,21,29,30,,,,,,1.4,0.9,1.2*37
$GPGSA,A,3,,,,,,,,,,,,,1.4,0.9,1.2,8*29
$QZGSA,A,3,01,02,,,,,,,,,,,1.4,0.9,1.2*22
$QZGSA,A,3,01,,,,,,,,,,,,1.4,0.9,1.2,8*34
$BDGSA,A,3,206,208,213,216,,,,,,,,,1.4,0.9,1.2*27
$BDGSA,A,3,,,,,,,,,,,,,1.4,0.9,1.2,5*35
$GAGSA,A,3,,,,,,,,,,,,,1.4,0.9,1.2*2C
$GAGSA,A,3,,,,,,,,,,,,,1.4,0.9,1.2,1*31
$NCGSA,A,3,,,,,,,,,,,,,1.4,0.9,1.2,1*3A
$GNGSA,A,3,02,05,13,15,21,29,30,,,,,,1.4,0.9,1.2*29
$GNGSA,A,3,65,67,75,76,81,,,,,,,,1.4,0.9,1.2*2B
$GPRMC,024221.29,A,3722.867723,N,12640.714668,E,000.0,,231119,,,A*75
$GPGGA,024222.29,3722.867122,N,12640.714668,E,1,21,1.2,3.5,M,17.8,M,,*6C
$PGLOR,10,STA,024222.29,0.005,0.000,176,1,12,0,P,D,L,0,C,3,S,00100002,0,4,R,000833F4,TPEF,50,8105,LC,,,DR,0,*54
$PGLOR,1,UNC,024222.29,0.027,12.0,9.8,0.20,180.00,12.0,12.0,0.0*1E
$PSSGR,GSA,A,3,02,05,13,15,21,29,30,,,,,,1.5,0.8,1.3,1,1*48
$PSSGR,GSA,A,3,30,,,,,,,,,,,,1.5,0.8,1.3,1,8*48
$PSSGR,GSA,A,3,67,75,76,81,,,,,,,,,1.5,0.8,1.3,2,1*4A
$PSSGR,GSA,A,3,01,02,,,,,,,,,,,1.5,0.8,1.3,5,1*45
$PSSGR,GSA,A,3,01,02,,,,,,,,,,,1.5,0.8,1.3,5,8*4C
$PSSGR,GSA,A,3,206,208,213,216,223,,,,,,,,1.5,0.8,1.3,4,3*7D
$PSSGR,GSA,A,3,,,,,,,,,,,,,1.5,0.8,1.3,4,5*43
$PSSGR,GSA,A,3,,,,,,,,,,,,,1.5,0.8,1.3,3,7*46
$PSSGR,GSA,A,3,,,,,,,,,,,,,1.5,0.8,1.3,3,1*40
$PSSGR,GSA,A,3,,,,,,,,,,,,,1.5,0.8,1.3,6,1*45
$GPGSV,4,1,12,13,78,031,32,15,62,256,40,05,54,071,34,29,28,249,39*75
$GPGSV,4,2,12,30,25,053,30,02,25,155,29,21,24,315,30,24,11,189,23*74
$GPGSV,4,3,12,07,02,032,,20,02,291,*73
$GPGSV,4,4,12,30,,,27,24,,,19,8*66
$GLGSV,2,1,08,81,48,218,38,67,40,291,35,76,26,101,35,75,20,048,27*68
$GLGSV,2,2,08,65,07,065,27,66,52,014,,83,08,337,,77,06,151,*6A
$QZGSV,2,1,06,01,77,065,30,02,19,153,31,07,47,179,,03,19,182,*65
$QZGSV,2,2,06,01,,,31,02,,,25,8*71
$BDGSV,4,1,16,213,74,276,32,208,68,172,33,206,67,250,31,216,61,248,33*67
$BDGSV,4,2,16,223,32,106,28,232,66,019,,203,44,206,,230,39,234,*66
$BDGSV,4,3,16,209,38,237,,220,38,287,,202,29,238,,229,28,299,*6B
$BDGSV,4,4,16,225,18,052,,237,16,159,,227,13,184,,205,10,258,*69
$GAGSV,2,1,08,104,73,316,,112,40,180,,119,33,054,,109,27,257,*6C
$GAGSV,2,2,08,136,21,319,,121,13,074,,101,10,124,,127,00,028,*67
$GPGSA,A,3,02,05,13,15,21,29,30,,,,,,1.5,0.8,1.3*36
$GPGSA,A,3,30,,,,,,,,,,,,1.5,0.8,1.3,8*2B
$QZGSA,A,3,01,02,,,,,,,,,,,1.5,0.8,1.3*23
$QZGSA,A,3,01,02,,,,,,,,,,,1.5,0.8,1.3,8*37
$BDGSA,A,3,206,208,213,216,223,,,,,,,,1.5,0.8,1.3*15
$BDGSA,A,3,,,,,,,,,,,,,1.5,0.8,1.3,5*34
$GAGSA,A,3,,,,,,,,,,,,,1.5,0.8,1.3*2D
$GAGSA,A,3,,,,,,,,,,,,,1.5,0.8,1.3,1*30
$NCGSA,A,3,,,,,,,,,,,,,1.5,0.8,1.3,1*3B
$GNGSA,A,3,02,05,13,15,21,29,30,,,,,,1.5,0.8,1.3*28
$GNGSA,A,3,67,75,76,81,,,,,,,,,1.5,0.8,1.3*29
$GPRMC,024222.29,A,3722.867122,N,12640.714668,E,000.0,,231119,,,A*71
$GPGGA,024223.00,3722.866360,N,12640.714252,E,1,24,1.2,5.2,M,17.8,M,,*6A
$PGLOR,10,STA,024223.00,0.005,0.000,177,1,12,0,P,D,L,0,C,3,S,00100002,0,4,R,000833F4,TPEF,50,8813,LC,,,DR,0,*51
$PGLOR,1,UNC,024223.00,0.024,12.0,8.7,0.33,180.00,12.0,12.0,0.0*1B
$PGLOR,2,PFM,HAL,-,0,0,0,0,RF,-,-180,0.0,0,RTC,,P,STO,P,LTO,P,SW,P,,,OSC,U,U,*75
$PSSGR,GSA,A,3,02,05,13,15,21,24,29,30,,,,,1.5,0.8,1.2,1,1*4F
$PSSGR,GSA,A,3,24,30,,,,,,,,,,,1.5,0.8,1.2,1,8*4F
$PSSGR,GSA,A,3,65,67,75,76,81,,,,,,,,1.5,0.8,1.2,2,1*48
$PSSGR,GSA,A,3,01,02,,,,,,,,,,,1.5,0.8,1.2,5,1*44
$PSSGR,GSA,A,3,01,02,,,,,,,,,,,1.5,0.8,1.2,5,8*4D
$PSSGR,GSA,A,3,206,208,213,216,223,,,,,,,,1.5,0.8,1.2,4,3*7C
$PSSGR,GSA,A,3,,,,,,,,,,,,,1.5,0.8,1.2,4,5*42
$PSSGR,GSA,A,3,,,,,,,,,,,,,1.5,0.8,1.2,3,7*47
$PSSGR,GSA,A,3,,,,,,,,,,,,,1.5,0.8,1.2,3,1*41
$PSSGR,GSA,A,3,,,,,,,,,,,,,1.5,0.8,1.2,6,1*44
$GPGSV,4,1,12,13,78,031,32,15,62,256,40,05,54,071,34,29,28,249,39*75
$GPGSV,4,2,12,30,25,053,30,02,25,155,29,21,24,315,30,24,11,189,23*74
$GPGSV,4,3,12,07,02,032,,20,02,291,*73
$GPGSV,4,4,12,30,,,27,24,,,25,8*69
$GLGSV,2,1,08,81,48,218,38,67,40,291,34,76,26,101,35,75,20,048,26*68
$GLGSV,2,2,08,65,07,065,27,66,52,014,,83,08,337,,77,06,151,*6A
$QZGSV,2,1,06,01,77,065,30,02,19,153,31,07,47,179,,03,19,182,*65
$QZGSV,2,2,06,01,,,31,02,,,25,8*71
$BDGSV,4,1,16,213,74,276,32,208,68,172,33,206,67,250,31,216,61,248,33*67
$BDGSV,4,2,16,223,32,106,28,232,66,019,,203,44,206,,230,39,234,*66
$BDGSV,4,3,16,209,38,237,,220,38,287,,202,29,238,,229,28,299,*6B
$BDGSV,4,4,16,225,18,052,,237,16,159,,227,13,184,,205,10,258,*69
$GAGSV,2,1,08,104,73,316,,112,40,180,,119,33,054,,109,27,257,*6C
$GAGSV,2,2,08,136,21,319,,121,13,074,,101,10,124,,127,00,028,*67
$GPGSA,A,3,02,05,13,15,21,24,29,30,,,,,1.5,0.8,1.2*31
$GPGSA,A,3,24,30,,,,,,,,,,,1.5,0.8,1.2,8*2C
$QZGSA,A,3,01,02,,,,,,,,,,,1.5,0.8,1.2*22
$QZGSA,A,3,01,02,,,,,,,,,,,1.5,0.8,1.2,8*36
$BDGSA,A,3,206,208,213,216,223,,,,,,,,1.5,0.8,1.2*14
$BDGSA,A,3,,,,,,,,,,,,,1.5,0.8,1.2,5*35
$GAGSA,A,3,,,,,,,,,,,,,1.5,0.8,1.2*2C
$GAGSA,A,3,,,,,,,,,,,,,1.5,0.8,1.2,1*31
$NCGSA,A,3,,,,,,,,,,,,,1.5,0.8,1.2,1*3A
$GNGSA,A,3,02,05,13,15,21,24,29,30,,,,,1.5,0.8,1.2*2F
$GNGSA,A,3,65,67,75,76,81,,,,,,,,1.5,0.8,1.2*2B
$GPRMC,024223.00,A,3722.866360,N,12640.714252,E,000.0,,231119,,,A*73
$GPGGA,024224.00,3722.866146,N,12640.714613,E,1,23,0.8,5.7,M,17.8,M,,*63
$PGLOR,10,STA,024224.00,0.005,0.000,177,1,8,0,P,D,L,0,C,2,S,00100002,0,4,R,000833F4,TPEF,51,9813,LC,,,DR,0,*6C
$PGLOR,1,UNC,024224.00,0.022,8.0,8.0,0.21,180.00,8.0,8.0,0.0*25
$PSSGR,GSA,A,3,02,05,13,15,21,24,29,30,,,,,1.5,0.8,1.3,1,1*4E
$PSSGR,GSA,A,3,24,30,,,,,,,,,,,1.5,0.8,1.3,1,8*4E
$PSSGR,GSA,A,3,65,67,75,76,81,,,,,,,,1.5,0.8,1.3,2,1*49
$PSSGR,GSA,A,3,02,,,,,,,,,,,,1.5,0.8,1.3,5,1*44
$PSSGR,GSA,A,3,01,02,,,,,,,,,,,1.5,0.8,1.3,5,8*4C
$PSSGR,GSA,A,3,206,208,213,216,223,,,,,,,,1.5,0.8,1.3,4,3*7D
$PSSGR,GSA,A,3,,,,,,,,,,,,,1.5,0.8,1.3,4,5*43
$PSSGR,GSA,A,3,,,,,,,,,,,,,1.5,0.8,1.3,3,7*46
$PSSGR,GSA,A,3,,,,,,,,,,,,,1.5,0.8,1.3,3,1*40
$PSSGR,GSA,A,3,,,,,,,,,,,,,1.5,0.8,1.3,6,1*45
$GPGSV,4,1,12,13,78,031,32,15,62,256,40,05,54,071,33,29,28,249,39*72
$GPGSV,4,2,12,30,25,053,30,02,25,155,29,21,24,315,30,24,11,189,23*74
$GPGSV,4,3,12,07,02,032,,20,02,291,*73
$GPGSV,4,4,12,30,,,27,24,,,26,8*6A
$GLGSV,2,1,08,81,48,218,37,67,40,291,34,76,26,101,35,75,20,048,26*67
$GLGSV,2,2,08,65,07,065,27,66,52,014,,83,08,337,,77,06,151,*6A
$QZGSV,2,1,07,01,77,065,30,07,47,179,20,02,19,153,31,03,19,182,*66
$QZGSV,2,2,07,01,,,31,07,,,,02,,,25,8*77
$BDGSV,4,1,16,213,74,276,32,208,68,172,33,206,67,250,30,216,61,248,33*66
$BDGSV,4,2,16,223,32,106,28,232,66,019,,203,44,206,,230,39,234,*66
$BDGSV,4,3,16,209,38,237,,220,38,287,,202,29,238,,229,28,299,*6B
$BDGSV,4,4,16,225,18,052,,237,16,159,,227,13,184,,205,10,258,*69
$GAGSV,2,1,08,104,73,316,,112,40,180,,119,33,054,,109,27,257,*6C
$GAGSV,2,2,08,136,21,319,,121,13,074,,101,10,124,,127,00,028,*67
$GPGSA,A,3,02,05,13,15,21,24,29,30,,,,,1.5,0.8,1.3*30
$GPGSA,A,3,24,30,,,,,,,,,,,1.5,0.8,1.3,8*2D
$QZGSA,A,3,02,,,,,,,,,,,,1.5,0.8,1.3*22
$QZGSA,A,3,01,02,,,,,,,,,,,1.5,0.8,1.3,8*37
$BDGSA,A,3,206,208,213,216,223,,,,,,,,1.5,0.8,1.3*15
$BDGSA,A,3,,,,,,,,,,,,,1.5,0.8,1.3,5*34
$GAGSA,A,3,,,,,,,,,,,,,1.5,0.8,1.3*2D
$GAGSA,A,3,,,,,,,,,,,,,1.5,0.8,1.3,1*30
$NCGSA,A,3,,,,,,,,,,,,,1.5,0.8,1.3,1*3B
$GNGSA,A,3,02,05,13,15,21,24,29,30,,,,,1.5,0.8,1.3*2E
$GNGSA,A,3,65,67,75,76,81,,,,,,,,1.5,0.8,1.3*2A
$GPRMC,024224.00,A,3722.866146,N,12640.714613,E,000.0,,231119,,,A*73
$GPGGA,024225.00,3722.866068,N,12640.714959,E,1,24,0.8,6.2,M,17.8,M,,*6F
$PGLOR,10,STA,024225.00,0.005,0.000,177,1,8,0,P,D,L,0,C,2,S,00100002,0,4,R,000833F4,TPEF,51,10813,LC,,,DR,0,*55
$PGLOR,1,UNC,024225.00,0.021,8.0,7.4,0.21,180.00,8.0,8.0,0.0*2C
$PSSGR,GSA,A,3,02,05,13,15,21,24,29,30,,,,,1.4,0.8,1.1,1,1*4D
$PSSGR,GSA,A,3,24,30,,,,,,,,,,,1.4,0.8,1.1,1,8*4D
$PSSGR,GSA,A,3,65,67,75,76,81,,,,,,,,1.4,0.8,1.1,2,1*4A
$PSSGR,GSA,A,3,01,02,,,,,,,,,,,1.4,0.8,1.1,5,1*46
$PSSGR,GSA,A,3,01,02,,,,,,,,,,,1.4,0.8,1.1,5,8*4F
$PSSGR,GSA,A,3,206,208,213,216,223,,,,,,,,1.4,0.8,1.1,4,3*7E
$PSSGR,GSA,A,3,,,,,,,,,,,,,1.4,0.8,1.1,4,5*40
$PSSGR,GSA,A,3,,,,,,,,,,,,,1.4,0.8,1.1,3,7*45
$PSSGR,GSA,A,3,,,,,,,,,,,,,1.4,0.8,1.1,3,1*43
$PSSGR,GSA,A,3,,,,,,,,,,,,,1.4,0.8,1.1,6,1*46
$GPGSV,4,1,12,13,78,031,32,15,62,256,40,05,54,071,33,29,28,249,39*72
$GPGSV,4,2,12,30,25,053,30,02,25,155,29,21,24,315,30,24,11,189,23*74
$GPGSV,4,3,12,07,02,032,,20,02,291,*73
$GPGSV,4,4,12,30,,,27,24,,,26,8*6A
$GLGSV,2,1,08,81,48,218,37,67,40,291,34,76,26,101,35,75,20,048,26*67
$GLGSV,2,2,08,65,07,065,27,66,52,014,,83,08,337,,77,06,151,*6A
$QZGSV,2,1,07,01,77,065,30,07,47,179,22,02,19,153,31,03,19,182,*64
$QZGSV,2,2,07,01,,,31,07,,,20,02,,,25,8*75
$BDGSV,4,1,16,213,74,276,32,208,68,172,33,206,67,250,30,216,61,248,33*66
$BDGSV,4,2,16,223,32,106,27,232,66,019,,203,44,206,,230,39,234,*69
$BDGSV,4,3,16,209,38,237,,220,38,287,,202,29,238,,229,28,299,*6B
$BDGSV,4,4,16,225,18,052,,237,16,159,,227,13,184,,205,10,258,*69
$GAGSV,2,1,08,104,73,316,,112,40,180,,119,33,054,,109,27,257,*6C
$GAGSV,2,2,08,136,21,319,,121,13,074,,101,10,124,,127,00,028,*67
$GPGSA,A,3,02,05,13,15,21,24,29,30,,,,,1.4,0.8,1.1*33
$GPGSA,A,3,24,30,,,,,,,,,,,1.4,0.8,1.1,8*2E
$QZGSA,A,3,01,02,,,,,,,,,,,1.4,0.8,1.1*20
$QZGSA,A,3,01,02,,,,,,,,,,,1.4,0.8,1.1,8*34
$BDGSA,A,3,206,208,213,216,223,,,,,,,,1.4,0.8,1.1*16
$BDGSA,A,3,,,,,,,,,,,,,1.4,0.8,1.1,5*37
$GAGSA,A,3,,,,,,,,,,,,,1.4,0.8,1.1*2E
$GAGSA,A,3,,,,,,,,,,,,,1.4,0.8,1.1,1*33
$NCGSA,A,3,,,,,,,,,,,,,1.4,0.8,1.1,1*38
$GNGSA,A,3,02,05,13,15,21,24,29,30,,,,,1.4,0.8,1.1*2D
$GNGSA,A,3,65,67,75,76,81,,,,,,,,1.4,0.8,1.1*29
$GPRMC,024225.00,A,3722.866068,N,12640.714959,E,000.0,,231119,,,A*7E
$GPGGA,024226.00,3722.865899,N,12640.715090,E,1,26,0.8,6.8,M,17.8,M,,*6C
$PGLOR,10,STA,024226.00,0.005,0.000,177,1,8,0,P,D,L,0,C,2,S,00100002,0,4,R,000833F4,TPEF,51,11813,LC,,,DR,0,*57
$PGLOR,1,UNC,024226.00,0.019,8.0,7.0,0.23,180.00,8.0,8.0,0.0*22
$PSSGR,GSA,A,3,02,05,13,15,21,24,29,30,,,,,1.4,0.8,1.1,1,1*4D
$PSSGR,GSA,A,3,24,30,,,,,,,,,,,1.4,0.8,1.1,1,8*4D
$PSSGR,GSA,A,3,65,67,75,76,81,,,,,,,,1.4,0.8,1.1,2,1*4A
$PSSGR,GSA,A,3,01,02,07,,,,,,,,,,1.4,0.8,1.1,5,1*41
$PSSGR,GSA,A,3,01,02,07,,,,,,,,,,1.4,0.8,1.1,5,8*48
$PSSGR,GSA,A,3,206,208,213,216,223,,,,,,,,1.4,0.8,1.1,4,3*7E
$PSSGR,GSA,A,3,,,,,,,,,,,,,1.4,0.8,1.1,4,5*40
$PSSGR,GSA,A,3,,,,,,,,,,,,,1.4,0.8,1.1,3,7*45
$PSSGR,GSA,A,3,,,,,,,,,,,,,1.4,0.8,1.1,3,1*43
$PSSGR,GSA,A,3,,,,,,,,,,,,,1.4,0.8,1.1,6,1*46
$GPGSV,4,1,12,13,78,031,32,15,62,256,40,05,54,071,33,29,28,249,38*73
$GPGSV,4,2,12,30,25,053,29,02,25,155,29,21,24,315,30,24,11,189,23*7C
$GPGSV,4,3,12,07,02,032,,20,02,291,*73
$GPGSV,4,4,12,30,,,27,24,,,25,8*69
$GLGSV,2,1,08,81,48,218,37,67,40,291,34,76,26,101,35,75,20,048,26*67
$GLGSV,2,2,08,65,07,065,29,66,52,014,,83,08,337,,77,06,151,*64
$QZGSV,2,1,07,01,77,065,30,07,47,179,23,02,19,153,31,03,19,182,*65
$QZGSV,2,2,07,01,,,31,07,,,27,02,,,24,8*73
$BDGSV,4,1,16,213,74,276,31,208,68,172,33,206,67,250,30,216,61,248,33*65
$BDGSV,4,2,16,223,32,106,27,232,66,019,,203,44,206,,230,39,234,*69
$BDGSV,4,3,16,209,38,237,,220,38,287,,202,29,238,,229,28,299,*6B
$BDGSV,4,4,16,225,18,052,,237,16,159,,227,13,184,,205,10,258,*69
$GAGSV,2,1,08,104,73,316,,112,40,180,,119,33,054,,109,27,257,*6C
$GAGSV,2,2,08,136,21,319,,121,13,074,,101,10,124,,127,00,028,*67
$GPGSA,A,3,02,05,13,15,21,24,29,30,,,,,1.4,0.8,1.1*33
$GPGSA,A,3,24,30,,,,,,,,,,,1.4,0.8,1.1,8*2E
$QZGSA,A,3,01,02,07,,,,,,,,,,1.4,0.8,1.1*27
$QZGSA,A,3,01,02,07,,,,,,,,,,1.4,0.8,1.1,8*33
$BDGSA,A,3,206,208,213,216,223,,,,,,,,1.4,0.8,1.1*16
$BDGSA,A,3,,,,,,,,,,,,,1.4,0.8,1.1,5*37
$GAGSA,A,3,,,,,,,,,,,,,1.4,0.8,1.1*2E
$GAGSA,A,3,,,,,,,,,,,,,1.4,0.8,1.1,1*33
$NCGSA,A,3,,,,,,,,,,,,,1.4,0.8,1.1,1*38
$GNGSA,A,3,02,05,13,15,21,24,29,30,,,,,1.4,0.8,1.1*2D
$GNGSA,A,3,65,67,75,76,81,,,,,,,,1.4,0.8,1.1*29
$GPRMC,024226.00,A,3722.865899,N,12640.715090,E,000.0,,231119,,,A*75
$GPGGA,024227.00,3722.865450,N,12640.715148,E,1,25,0.8,7.5,M,17.8,M,,*6F
$PGLOR,10,STA,024227.00,0.005,0.000,177,1,8,0,P,D,L,0,C,2,S,00100002,0,5,R,000833F4,TPEF,51,12813,LC,,,DR,0,*54
$PGLOR,1,UNC,024227.00,0.018,8.0,6.6,0.21,180.00,8.0,8.0,0.0*27
$PGLOR,2,PFM,HAL,-,0,0,0,0,RF,-,-180,8.6,0,RTC,,P,STO,P,LTO,P,SW,P,,,OSC,U,U,*7B
$PSSGR,GSA,A,3,02,05,13,15,21,24,29,30,,,,,1.5,0.8,1.2,1,1*4F
$PSSGR,GSA,A,3,24,30,,,,,,,,,,,1.5,0.8,1.2,1,8*4F
$PSSGR,GSA,A,3,67,75,76,81,,,,,,,,,1.5,0.8,1.2,2,1*4B
$PSSGR,GSA,A,3,01,02,07,,,,,,,,,,1.5,0.8,1.2,5,1*43
$PSSGR,GSA,A,3,01,02,07,,,,,,,,,,1.5,0.8,1.2,5,8*4A
$PSSGR,GSA,A,3,206,208,213,216,223,,,,,,,,1.5,0.8,1.2,4,3*7C
$PSSGR,GSA,A,3,,,,,,,,,,,,,1.5,0.8,1.2,4,5*42
$PSSGR,GSA,A,3,,,,,,,,,,,,,1.5,0.8,1.2,3,7*47
$PSSGR,GSA,A,3,,,,,,,,,,,,,1.5,0.8,1.2,3,1*41
$PSSGR,GSA,A,3,,,,,,,,,,,,,1.5,0.8,1.2,6,1*44
$GPGSV,4,1,12,13,78,031,32,15,62,256,40,05,54,071,33,29,28,249,38*73
$GPGSV,4,2,12,30,25,053,32,02,25,155,29,21,24,315,29,24,11,189,23*7E
$GPGSV,4,3,12,07,02,032,,20,02,291,*73
$GPGSV,4,4,12,30,,,27,24,,,26,8*6A
$GLGSV,2,1,08,81,48,218,37,67,40,291,33,76,26,101,35,75,20,048,26*60
$GLGSV,2,2,08,65,07,065,28,66,52,014,,83,08,337,,77,06,151,*65
$QZGSV,2,1,07,01,77,065,30,07,47,179,23,02,19,153,31,03,19,182,*65
$QZGSV,2,2,07,01,,,31,07,,,31,02,,,24,8*74
$BDGSV,4,1,16,213,74,276,31,208,68,172,32,206,67,250,31,216,61,248,32*64
$BDGSV,4,2,16,223,32,106,30,232,66,019,,203,44,206,,230,39,234,*6F
$BDGSV,4,3,16,209,38,237,,220,38,287,,202,29,238,,229,28,299,*6B
$BDGSV,4,4,16,225,18,052,,237,16,159,,227,13,184,,205,10,258,*69
$GAGSV,2,1,08,104,73,316,,112,40,180,,119,33,054,,109,27,257,*6C
$GAGSV,2,2,08,136,21,319,,121,13,074,,101,10,124,,127,00,028,*67
$GPGSA,A,3,02,05,13,15,21,24,29,30,,,,,1.5,0.8,1.2*31
$GPGSA,A,3,24,30,,,,,,,,,,,1.5,0.8,1.2,8*2C
$QZGSA,A,3,01,02,07,,,,,,,,,,1.5,0.8,1.2*25
$QZGSA,A,3,01,02,07,,,,,,,,,,1.5,0.8,1.2,8*31
$BDGSA,A,3,206,208,213,216,223,,,,,,,,1.5,0.8,1.2*14
$BDGSA,A,3,,,,,,,,,,,,,1.5,0.8,1.2,5*35
$GAGSA,A,3,,,,,,,,,,,,,1.5,0.8,1.2*2C
$GAGSA,A,3,,,,,,,,,,,,,1.5,0.8,1.2,1*31
$NCGSA,A,3,,,,,,,,,,,,,1.5,0.8,1.2,1*3A
$GNGSA,A,3,02,05,13,15,21,24,29,30,,,,,1.5,0.8,1.2*2F
$GNGSA,A,3,67,75,76,81,,,,,,,,,1.5,0.8,1.2*28
$GPRMC,024227.00,A,3722.865450,N,12640.715148,E,000.0,,231119,,,A*79
$GPGGA,024228.00,3722.865079,N,12640.715186,E,1,25,0.8,7.9,M,17.8,M,,*61
$PGLOR,10,STA,024228.00,0.005,0.000,177,1,8,0,P,D,L,0,C,2,S,00100002,0,5,R,000833F4,TPEF,52,13813,LC,,,DR,0,*59
$PGLOR,1,UNC,024228.00,0.017,8.0,6.2,0.21,180.00,8.0,8.0,0.0*23
$PSSGR,GSA,A,3,02,13,15,21,24,29,30,,,,,,1.4,0.8,1.1,1,1*48
$PSSGR,GSA,A,3,24,30,,,,,,,,,,,1.4,0.8,1.1,1,8*4D
$PSSGR,GSA,A,3,65,67,75,76,81,,,,,,,,1.4,0.8,1.1,2,1*4A
$PSSGR,GSA,A,3,01,02,07,,,,,,,,,,1.4,0.8,1.1,5,1*41
$PSSGR,GSA,A,3,01,02,07,,,,,,,,,,1.4,0.8,1.1,5,8*48
$PSSGR,GSA,A,3,206,208,213,216,223,,,,,,,,1.4,0.8,1.1,4,3*7E
$PSSGR,GSA,A,3,,,,,,,,,,,,,1.4,0.8,1.1,4,5*40
$PSSGR,GSA,A,3,,,,,,,,,,,,,1.4,0.8,1.1,3,7*45
$PSSGR,GSA,A,3,,,,,,,,,,,,,1.4,0.8,1.1,3,1*43
$PSSGR,GSA,A,3,,,,,,,,,,,,,1.4,0.8,1.1,6,1*46
$GPGSV,4,1,12,13,78,031,32,15,62,256,40,05,54,071,32,29,28,249,38*72
$GPGSV,4,2,12,30,25,053,32,02,25,155,28,21,24,315,29,24,11,189,23*7F
$GPGSV,4,3,12,07,02,032,,20,02,291,*73
$GPGSV,4,4,12,30,,,27,24,,,26,8*6A
$GLGSV,2,1,08,81,48,218,37,67,40,291,33,76,26,101,36,75,20,048,29*6C
$GLGSV,2,2,08,65,07,065,28,66,52,014,,83,08,337,,77,06,151,*65
$QZGSV,2,1,08,01,77,065,31,07,47,179,22,03,19,182,18,02,19,153,30*62
$QZGSV,2,2,08,01,,,31,07,,,31,03,,,19,02,,,24,8*70
$BDGSV,4,1,16,213,74,276,31,208,68,172,32,206,67,250,31,216,61,248,32*64
$BDGSV,4,2,16,223,32,106,31,232,66,019,,203,44,206,,230,39,234,*6E
$BDGSV,4,3,16,209,38,237,,220,38,287,,202,29,238,,229,28,299,*6B
$BDGSV,4,4,16,225,18,052,,237,16,159,,227,13,184,,205,10,258,*69
$GAGSV,2,1,08,104,73,317,,112,40,180,,119,33,054,,109,27,257,*6D
$GAGSV,2,2,08,136,21,319,,121,13,074,,101,10,124,,127,00,028,*67
$GPGSA,A,3,02,13,15,21,24,29,30,,,,,,1.4,0.8,1.1*36
$GPGSA,A,3,24,30,,,,,,,,,,,1.4,0.8,1.1,8*2E
$QZGSA,A,3,01,02,07,,,,,,,,,,1.4,0.8,1.1*27
$QZGSA,A,3,01,02,07,,,,,,,,,,1.4,0.8,1.1,8*33
$BDGSA,A,3,206,208,213,216,223,,,,,,,,1.4,0.8,1.1*16
$BDGSA,A,3,,,,,,,,,,,,,1.4,0.8,1.1,5*37
$GAGSA,A,3,,,,,,,,,,,,,1.4,0.8,1.1*2E
$GAGSA,A,3,,,,,,,,,,,,,1.4,0.8,1.1,1*33
$NCGSA,A,3,,,,,,,,,,,,,1.4,0.8,1.1,1*38
$GNGSA,A,3,02,13,15,21,24,29,30,,,,,,1.4,0.8,1.1*28
$GNGSA,A,3,65,67,75,76,81,,,,,,,,1.4,0.8,1.1*29
$GPRMC,024228.00,A,3722.865079,N,12640.715186,E,000.0,,231119,,,A*7B
$GPGGA,024229.00,3722.865095,N,12640.715329,E,1,26,0.8,8.2,M,17.8,M,,*62
$PGLOR,10,STA,024229.00,0.005,0.000,177,1,8,0,P,D,L,0,C,2,S,00100002,0,5,R,000833F4,TPEF,52,14813,LC,,,DR,0,*5F
$PGLOR,1,UNC,024229.00,0.017,8.0,5.9,0.21,180.00,8.0,8.0,0.0*2A
$PGLOR,2,PFM,HAL,-,0,0,0,0,RF,-,-180,10.3,0,RTC,,P,STO,P,LTO,P,SW,P,,,OSC,U,U,*47
$PSSGR,GSA,A,3,02,05,13,15,21,24,29,30,,,,,1.4,0.8,1.2,1,1*4E
$PSSGR,GSA,A,3,24,30,,,,,,,,,,,1.4,0.8,1.2,1,8*4E
$PSSGR,GSA,A,3,65,67,75,76,81,,,,,,,,1.4,0.8,1.2,2,1*49
$PSSGR,GSA,A,3,01,02,07,,,,,,,,,,1.4,0.8,1.2,5,1*42
$PSSGR,GSA,A,3,01,02,07,,,,,,,,,,1.4,0.8,1.2,5,8*4B
$PSSGR,GSA,A,3,206,208,213,216,223,,,,,,,,1.4,0.8,1.2,4,3*7D
$PSSGR,GSA,A,3,,,,,,,,,,,,,1.4,0.8,1.2,4,5*43
$PSSGR,GSA,A,3,,,,,,,,,,,,,1.4,0.8,1.2,3,7*46
$PSSGR,GSA,A,3,,,,,,,,,,,,,1.4,0.8,1.2,3,1*40
$PSSGR,GSA,A,3,,,,,,,,,,,,,1.4,0.8,1.2,6,1*45
$GPGSV,4,1,12,13,78,031,32,15,62,256,40,05,54,071,32,29,27,249,38*7D
$GPGSV,4,2,12,30,25,053,31,02,25,155,28,21,24,315,29,24,11,189,23*7C
$GPGSV,4,3,12,07,02,032,,20,02,291,*73
$GPGSV,4,4,12,30,,,26,24,,,26,8*6B
$GLGSV,2,1,08,81,48,218,37,67,40,291,33,76,26,101,36,75,20,048,29*6C
$GLGSV,2,2,08,65,07,065,27,66,52,014,,83,08,337,,77,06,151,*6A
$QZGSV,2,1,08,01,77,065,31,07,47,179,22,03,19,182,23,02,19,153,30*6A
$QZGSV,2,2,08,01,,,31,07,,,30,03,,,19,02,,,25,8*70
$BDGSV,4,1,16,213,74,276,32,208,68,172,31,206,67,250,31,216,61,248,32*64
$BDGSV,4,2,16,223,32,106,31,232,66,019,,203,44,206,,230,39,234,*6E
$BDGSV,4,3,16,209,38,237,,220,38,287,,202,29,238,,229,28,299,*6B
$BDGSV,4,4,16,225,18,052,,237,16,159,,227,13,184,,205,10,258,*69
$GAGSV,2,1,08,104,73,317,,112,40,180,,119,33,054,,109,27,257,*6D
$GAGSV,2,2,08,136,21,319,,121,13,074,,101,10,124,,127,00,028,*67
$GPGSA,A,3,02,05,13,15,21,24,29,30,,,,,1.4,0.8,1.2*30
$GPGSA,A,3,24,30,,,,,,,,,,,1.4,0.8,1.2,8*2D
$QZGSA,A,3,01,02,07,,,,,,,,,,1.4,0.8,1.2*24
$QZGSA,A,3,01,02,07,,,,,,,,,,1.4,0.8,1.2,8*30
$BDGSA,A,3,206,208,213,216,223,,,,,,,,1.4,0.8,1.2*15
$BDGSA,A,3,,,,,,,,,,,,,1.4,0.8,1.2,5*34
$GAGSA,A,3,,,,,,,,,,,,,1.4,0.8,1.2*2D
$GAGSA,A,3,,,,,,,,,,,,,1.4,0.8,1.2,1*30
$NCGSA,A,3,,,,,,,,,,,,,1.4,0.8,1.2,1*3B
$GNGSA,A,3,02,05,13,15,21,24,29,30,,,,,1.4,0.8,1.2*2E
$GNGSA,A,3,65,67,75,76,81,,,,,,,,1.4,0.8,1.2*2A
$GPRMC,024229.00,A,3722.865095,N,12640.715329,E,000.0,,231119,,,A*7F
$GPGGA,024230.00,3722.865156,N,12640.715290,E,1,27,0.8,8.3,M,17.8,M,,*67
$PGLOR,10,STA,024230.00,0.005,0.000,177,1,8,0,P,D,L,0,C,3,S,00100002,0,5,R,000833F4,TPEF,52,15813,LC,,,DR,0,*57
$PGLOR,1,UNC,024230.00,0.016,8.0,5.6,0.21,180.00,8.0,8.0,0.0*2C
$PSSGR,GSA,A,3,02,05,13,15,21,24,29,30,,,,,1.4,0.8,1.2,1,1*4E
$PSSGR,GSA,A,3,24,30,,,,,,,,,,,1.4,0.8,1.2,1,8*4E
$PSSGR,GSA,A,3,65,67,75,76,81,,,,,,,,1.4,0.8,1.2,2,1*49
$PSSGR,GSA,A,3,01,02,03,,,,,,,,,,1.4,0.8,1.2,5,1*46
$PSSGR,GSA,A,3,01,02,03,07,,,,,,,,,1.4,0.8,1.2,5,8*48
$PSSGR,GSA,A,3,206,208,213,216,223,,,,,,,,1.4,0.8,1.2,4,3*7D
$PSSGR,GSA,A,3,,,,,,,,,,,,,1.4,0.8,1.2,4,5*43
$PSSGR,GSA,A,3,,,,,,,,,,,,,1.4,0.8,1.2,3,7*46
$PSSGR,GSA,A,3,,,,,,,,,,,,,1.4,0.8,1.2,3,1*40
$PSSGR,GSA,A,3,,,,,,,,,,,,,1.4,0.8,1.2,6,1*45
$GPGSV,4,1,12,13,78,031,32,15,62,256,39,05,54,071,32,29,27,249,37*7C
$GPGSV,4,2,12,30,25,053,31,02,25,155,28,21,24,315,29,24,11,189,22*7D
$GPGSV,4,3,12,07,02,032,,20,02,291,*73
$GPGSV,4,4,12,30,,,26,24,,,27,8*6A
$GLGSV,2,1,08,66,52,014,30,81,48,218,36,67,40,291,33,76,26,101,35*68
$GLGSV,2,2,08,75,20,048,28,65,07,065,27,83,08,337,,77,06,151,*6E
$QZGSV,2,1,08,01,77,065,31,07,47,179,22,03,19,182,23,02,19,153,30*6A
$QZGSV,2,2,08,01,,,31,07,,,30,03,,,23,02,,,25,8*79
$BDGSV,4,1,16,213,74,276,32,208,68,172,31,206,67,250,31,216,61,248,32*64
$BDGSV,4,2,16,223,32,106,32,232,66,019,,203,44,206,,230,39,234,*6D
$BDGSV,4,3,16,209,38,237,,220,38,287,,202,29,238,,229,28,299,*6B
$BDGSV,4,4,16,225,18,052,,237,16,159,,227,12,184,,205,10,258,*68
$GAGSV,2,1,08,104,73,317,,112,40,180,,119,33,054,,109,27,257,*6D
$GAGSV,2,2,08,136,21,319,,121,13,074,,101,10,124,,127,00,028,*67
$GPGSA,A,3,02,05,13,15,21,24,29,30,,,,,1.4,0.8,1.2*30
$GPGSA,A,3,24,30,,,,,,,,,,,1.4,0.8,1.2,8*2D
$QZGSA,A,3,01,02,03,,,,,,,,,,1.4,0.8,1.2*20
$QZGSA,A,3,01,02,03,07,,,,,,,,,1.4,0.8,1.2,8*33
$BDGSA,A,3,206,208,213,216,223,,,,,,,,1.4,0.8,1.2*15
$BDGSA,A,3,,,,,,,,,,,,,1.4,0.8,1.2,5*34
$GAGSA,A,3,,,,,,,,,,,,,1.4,0.8,1.2*2D
$GAGSA,A,3,,,,,,,,,,,,,1.4,0.8,1.2,1*30
$NCGSA,A,3,,,,,,,,,,,,,1.4,0.8,1.2,1*3B
$GNGSA,A,3,02,05,13,15,21,24,29,30,,,,,1.4,0.8,1.2*2E
$GNGSA,A,3,65,67,75,76,81,,,,,,,,1.4,0.8,1.2*2A
$GPRMC,024230.00,A,3722.865156,N,12640.715290,E,000.0,,231119,,,A*7A
$GPGGA,024231.00,3722.865325,N,12640.715116,E,1,25,0.8,8.6,M,17.8,M,,*6A
$PGLOR,10,STA,024231.00,0.005,0.000,177,1,8,0,P,D,L,0,C,3,S,00100002,0,5,R,000833F4,TPEF,54,16813,LC,,,DR,0,*53
$PGLOR,1,UNC,024231.00,0.016,8.0,5.4,0.22,180.00,8.0,8.0,0.0*2C
$PGLOR,2,PFM,HAL,-,0,0,0,0,RF,-,-180,9.5,0,RTC,,P,STO,P,LTO,P,SW,P,,,OSC,P,U,*7C
$PSSGR,GSA,A,3,02,05,13,15,21,24,29,30,,,,,1.5,0.8,1.3,1,1*4E
$PSSGR,GSA,A,3,24,30,,,,,,,,,,,1.5,0.8,1.3,1,8*4E
$PSSGR,GSA,A,3,65,66,67,75,76,81,,,,,,,1.5,0.8,1.3,2,1*49
$PSSGR,GSA,A,3,01,02,03,,,,,,,,,,1.5,0.8,1.3,5,1*46
$PSSGR,GSA,A,3,01,02,,,,,,,,,,,1.5,0.8,1.3,5,8*4C
$PSSGR,GSA,A,3,206,213,216,223,,,,,,,,,1.5,0.8,1.3,4,3*47
$PSSGR,GSA,A,3,,,,,,,,,,,,,1.5,0.8,1.3,4,5*43
$PSSGR,GSA,A,3,,,,,,,,,,,,,1.5,0.8,1.3,3,7*46
$PSSGR,GSA,A,3,,,,,,,,,,,,,1.5,0.8,1.3,3,1*40
$PSSGR,GSA,A,3,,,,,,,,,,,,,1.5,0.8,1.3,6,1*45
$GPGSV,4,1,12,13,78,031,32,15,62,256,39,05,54,071,31,29,27,249,37*7F
$GPGSV,4,2,12,30,25,053,31,02,25,155,29,21,24,315,29,24,11,189,22*7C
$GPGSV,4,3,12,07,02,032,,20,02,291,*73
$GPGSV,4,4,12,30,,,26,24,,,27,8*6A
$GLGSV,2,1,08,66,52,014,29,81,48,218,36,67,40,291,33,76,26,101,35*60
$GLGSV,2,2,08,75,20,048,28,65,07,065,27,83,08,337,,77,06,151,*6E
$QZGSV,2,1,08,01,77,065,31,07,47,179,21,03,19,182,23,02,19,153,29*61
$QZGSV,2,2,08,01,,,31,07,,,30,03,,,23,02,,,25,8*79
$BDGSV,4,1,16,213,74,276,32,208,68,172,30,206,67,250,31,216,61,248,32*65
$BDGSV,4,2,16,223,33,106,32,232,66,019,,203,44,206,,230,39,234,*6C
$BDGSV,4,3,16,220,38,287,,209,38,237,,202,29,238,,229,28,299,*6B
$BDGSV,4,4,16,225,18,052,,237,16,159,,227,12,184,,205,10,258,*68
$GAGSV,3,1,10,104,73,317,,112,40,180,,119,33,054,,109,27,257,*65
$GAGSV,3,2,10,136,21,319,,121,13,074,,101,10,124,,127,00,028,*6F
$GAGSV,3,3,10,119,,,18,121,,,21,1*75
$GPGSA,A,3,02,05,13,15,21,24,29,30,,,,,1.5,0.8,1.3*30
$GPGSA,A,3,24,30,,,,,,,,,,,1.5,0.8,1.3,8*2D
$QZGSA,A,3,01,02,03,,,,,,,,,,1.5,0.8,1.3*20
$QZGSA,A,3,01,02,,,,,,,,,,,1.5,0.8,1.3,8*37
$BDGSA,A,3,206,213,216,223,,,,,,,,,1.5,0.8,1.3*2F
$BDGSA,A,3,,,,,,,,,,,,,1.5,0.8,1.3,5*34
$GAGSA,A,3,,,,,,,,,,,,,1.5,0.8,1.3*2D
$GAGSA,A,3,,,,,,,,,,,,,1.5,0.8,1.3,1*30
$NCGSA,A,3,,,,,,,,,,,,,1.5,0.8,1.3,1*3B
$GNGSA,A,3,02,05,13,15,21,24,29,30,,,,,1.5,0.8,1.3*2E
$GNGSA,A,3,65,66,67,75,76,81,,,,,,,1.5,0.8,1.3*2A
$GPRMC,024231.00,A,3722.865325,N,12640.715116,E,000.0,,231119,,,A*70
$GPGGA,024232.00,3722.865485,N,12640.714877,E,1,27,0.6,8.8,M,17.8,M,,*69
$PGLOR,10,STA,024232.00,0.005,0.000,177,1,6,0,P,D,L,0,C,2,S,00100002,0,5,R,000833F4,TPEF,54,17813,LC,,,DR,0,*5E
$PGLOR,1,UNC,024232.00,0.015,6.0,5.3,0.22,180.00,6.0,6.0,0.0*25
$PSSGR,GSA,A,3,02,05,13,15,21,29,30,,,,,,1.5,0.8,1.3,1,1*48
$PSSGR,GSA,A,3,24,30,,,,,,,,,,,1.5,0.8,1.3,1,8*4E
$PSSGR,GSA,A,3,65,66,67,75,76,81,,,,,,,1.5,0.8,1.3,2,1*49
$PSSGR,GSA,A,3,01,02,03,,,,,,,,,,1.5,0.8,1.3,5,1*46
$PSSGR,GSA,A,3,01,07,,,,,,,,,,,1.5,0.8,1.3,5,8*49
$PSSGR,GSA,A,3,206,208,213,216,223,,,,,,,,1.5,0.8,1.3,4,3*7D
$PSSGR,GSA,A,3,,,,,,,,,,,,,1.5,0.8,1.3,4,5*43
$PSSGR,GSA,A,3,119,121,,,,,,,,,,,1.5,0.8,1.3,3,7*4D
$PSSGR,GSA,A,3,,,,,,,,,,,,,1.5,0.8,1.3,3,1*40
$PSSGR,GSA,A,3,,,,,,,,,,,,,1.5,0.8,1.3,6,1*45
$GPGSV,4,1,12,13,78,031,34,15,62,256,39,05,54,071,31,29,27,249,37*79
$GPGSV,4,2,12,30,25,053,31,02,25,155,30,21,24,315,29,24,11,189,22*74
$GPGSV,4,3,12,07,02,032,,20,02,291,*73
$GPGSV,4,4,12,30,,,26,24,,,26,8*6B
$GLGSV,2,1,08,66,52,014,29,81,48,218,36,67,40,291,33,76,26,101,35*60
$GLGSV,2,2,08,75,20,048,27,65,07,065,27,83,08,337,,77,06,151,*61
$QZGSV,2,1,08,01,77,065,31,07,47,179,21,02,19,153,29,03,19,182,23*61
$QZGSV,2,2,08,01,,,31,07,,,30,03,,,23,02,,,25,8*79
$BDGSV,4,1,16,213,74,276,32,208,68,172,30,206,67,250,31,216,61,248,32*65
$BDGSV,4,2,16,223,33,106,32,232,66,019,,203,44,206,,230,39,234,*6C
$BDGSV,4,3,16,209,38,237,,220,38,287,,202,29,238,,229,28,299,*6B
$BDGSV,4,4,16,225,18,052,,237,16,159,,227,12,184,,205,10,258,*68
$GAGSV,3,1,10,119,33,054,33,136,21,319,34,121,13,074,32,104,73,317,*6E
$GAGSV,3,2,10,112,40,180,,109,27,257,,101,10,124,,127,00,028,*62
$GAGSV,3,3,10,119,,,17,121,,,25,1*7E
$GPGSA,A,3,02,05,13,15,21,29,30,,,,,,1.5,0.8,1.3*36
$GPGSA,A,3,24,30,,,,,,,,,,,1.5,0.8,1.3,8*2D
$QZGSA,A,3,01,02,03,,,,,,,,,,1.5,0.8,1.3*20
$QZGSA,A,3,01,07,,,,,,,,,,,1.5,0.8,1.3,8*32
$BDGSA,A,3,206,208,213,216,223,,,,,,,,1.5,0.8,1.3*15
$BDGSA,A,3,,,,,,,,,,,,,1.5,0.8,1.3,5*34
$GAGSA,A,3,119,121,,,,,,,,,,,1.5,0.8,1.3*26
$GAGSA,A,3,,,,,,,,,,,,,1.5,0.8,1.3,1*30
$NCGSA,A,3,,,,,,,,,,,,,1.5,0.8,1.3,1*3B
$GNGSA,A,3,02,05,13,15,21,29,30,,,,,,1.5,0.8,1.3*28
$GNGSA,A,3,65,66,67,75,76,81,,,,,,,1.5,0.8,1.3*2A
$GPRMC,024232.00,A,3722.865485,N,12640.714877,E,000.0,,231119,,,A*71
$GPGGA,024233.00,3722.865609,N,12640.714663,E,1,28,0.6,8.9,M,17.8,M,,*6B
$PGLOR,10,STA,024233.00,0.005,0.000,177,1,6,0,P,D,L,0,C,2,S,00100002,0,5,R,000833F4,TPEF,55,18813,LC,,,DR,0,*51
$PGLOR,1,UNC,024233.00,0.015,6.0,5.1,0.26,180.00,6.0,6.0,0.0*22
$PSSGR,GSA,A,3,02,05,13,15,21,29,30,,,,,,1.5,0.8,1.2,1,1*49
$PSSGR,GSA,A,3,24,30,,,,,,,,,,,1.5,0.8,1.2,1,8*4F
$PSSGR,GSA,A,3,65,66,67,75,76,81,,,,,,,1.5,0.8,1.2,2,1*48
$PSSGR,GSA,A,3,01,02,03,,,,,,,,,,1.5,0.8,1.2,5,1*47
$PSSGR,GSA,A,3,01,07,,,,,,,,,,,1.5,0.8,1.2,5,8*48
$PSSGR,GSA,A,3,206,208,213,216,223,,,,,,,,1.5,0.8,1.2,4,3*7C
$PSSGR,GSA,A,3,,,,,,,,,,,,,1.5,0.8,1.2,4,5*42
$PSSGR,GSA,A,3,119,136,,,,,,,,,,,1.5,0.8,1.2,3,7*4A
$PSSGR,GSA,A,3,121,,,,,,,,,,,,1.5,0.8,1.2,3,1*73
$PSSGR,GSA,A,3,,,,,,,,,,,,,1.5,0.8,1.2,6,1*44
$GPGSV,4,1,12,13,78,031,34,15,62,257,39,05,54,071,31,29,27,249,37*78
$GPGSV,4,2,12,30,25,053,31,02,25,155,30,21,24,315,28,24,11,189,21*76
$GPGSV,4,3,12,07,02,032,,20,02,291,*73
$GPGSV,4,4,12,30,,,27,24,,,28,8*64
$GLGSV,2,1,08,66,52,014,29,81,48,218,36,67,40,291,33,76,26,101,35*60
$GLGSV,2,2,08,75,20,048,26,65,07,065,30,83,08,337,,77,06,151,*66
$QZGSV,2,1,08,01,77,065,31,07,47,179,21,02,19,153,29,03,19,182,23*61
$QZGSV,2,2,08,01,,,31,07,,,29,02,,,25,03,,,22,8*70
$BDGSV,4,1,16,213,74,276,32,208,68,172,30,206,67,250,30,216,61,248,32*64
$BDGSV,4,2,16,223,33,106,32,232,66,019,,203,44,206,,230,39,234,*6C
$BDGSV,4,3,16,220,38,287,,209,38,237,,202,29,238,,229,28,299,*6B
$BDGSV,4,4,16,225,18,052,,237,16,159,,227,12,184,,205,10,258,*68
$GAGSV,3,1,11,119,33,054,33,136,21,319,34,121,13,074,32,104,73,317,*6F
$GAGSV,3,2,11,112,40,180,,109,27,257,,101,10,124,,127,00,028,*63
$GAGSV,3,3,11,119,,,17,136,,,24,121,,,25,1*4D
$GPGSA,A,3,02,05,13,15,21,29,30,,,,,,1.5,0.8,1.2*37
$GPGSA,A,3,24,30,,,,,,,,,,,1.5,0.8,1.2,8*2C
$QZGSA,A,3,01,02,03,,,,,,,,,,1.5,0.8,1.2*21
$QZGSA,A,3,01,07,,,,,,,,,,,1.5,0.8,1.2,8*33
$BDGSA,A,3,206,208,213,216,223,,,,,,,,1.5,0.8,1.2*14
$BDGSA,A,3,,,,,,,,,,,,,1.5,0.8,1.2,5*35
$GAGSA,A,3,119,136,,,,,,,,,,,1.5,0.8,1.2*21
$GAGSA,A,3,121,,,,,,,,,,,,1.5,0.8,1.2,1*03
$NCGSA,A,3,,,,,,,,,,,,,1.5,0.8,1.2,1*3A
$GNGSA,A,3,02,05,13,15,21,29,30,,,,,,1.5,0.8,1.2*29
$GNGSA,A,3,65,66,67,75,76,81,,,,,,,1.5,0.8,1.2*2B
$GPRMC,024233.00,A,3722.865609,N,12640.714663,E,000.0,,231119,,,A*7D
$GPGGA,024234.00,3722.865774,N,12640.714483,E,1,31,0.6,8.9,M,17.8,M,,*63
$PGLOR,10,STA,024234.00,0.005,0.000,177,1,6,0,P,D,L,0,C,2,S,00100002,0,5,R,000833F4,TPEF,55,19813,LC,,,DR,0,*57
$PGLOR,1,UNC,024234.00,0.014,6.0,4.9,0.21,180.00,6.0,6.0,0.0*2A
$PSSGR,GSA,A,3,02,05,13,15,21,29,30,,,,,,1.5,0.8,1.2,1,1*49
$PSSGR,GSA,A,3,24,30,,,,,,,,,,,1.5,0.8,1.2,1,8*4F
$PSSGR,GSA,A,3,65,66,67,75,76,81,,,,,,,1.5,0.8,1.2,2,1*48
$PSSGR,GSA,A,3,01,02,03,,,,,,,,,,1.5,0.8,1.2,5,1*47
$PSSGR,GSA,A,3,01,02,07,,,,,,,,,,1.5,0.8,1.2,5,8*4A
$PSSGR,GSA,A,3,206,208,213,216,223,,,,,,,,1.5,0.8,1.2,4,3*7C
$PSSGR,GSA,A,3,,,,,,,,,,,,,1.5,0.8,1.2,4,5*42
$PSSGR,GSA,A,3,119,121,136,,,,,,,,,,1.5,0.8,1.2,3,7*78
$PSSGR,GSA,A,3,121,136,,,,,,,,,,,1.5,0.8,1.2,3,1*47
$PSSGR,GSA,A,3,,,,,,,,,,,,,1.5,0.8,1.2,6,1*44
$GPGSV,4,1,12,13,78,031,34,15,62,257,38,05,54,071,30,29,27,249,37*78
$GPGSV,4,2,12,30,25,053,31,02,25,155,30,21,24,315,28,24,11,189,21*76
$GPGSV,4,3,12,07,02,032,,20,02,291,*73
$GPGSV,4,4,12,30,,,28,24,,,28,8*6B
$GLGSV,2,1,08,66,52,014,29,81,48,218,36,67,40,291,33,76,26,101,35*60
$GLGSV,2,2,08,75,20,048,26,65,07,065,32,83,08,337,,77,06,151,*64
$QZGSV,2,1,08,01,77,065,31,07,47,179,20,02,19,153,29,03,19,182,23*60
$QZGSV,2,2,08,01,,,31,07,,,29,02,,,26,03,,,22,8*73
$BDGSV,4,1,16,213,74,276,32,208,68,172,29,206,67,250,30,216,61,248,32*6C
$BDGSV,4,2,16,223,33,106,32,232,66,019,,203,44,206,,230,39,234,*6C
$BDGSV,4,3,16,220,38,287,,209,38,237,,202,29,238,,229,28,299,*6B
$BDGSV,4,4,16,225,18,052,,237,16,159,,227,12,184,,205,10,258,*68
$GAGSV,3,1,11,119,33,054,33,136,21,319,33,121,13,074,32,104,73,317,*68
$GAGSV,3,2,11,112,40,180,,109,27,257,,101,10,124,,127,00,028,*63
$GAGSV,3,3,11,119,,,19,136,,,26,121,,,25,1*41
$GPGSA,A,3,02,05,13,15,21,29,30,,,,,,1.5,0.8,1.2*37
$GPGSA,A,3,24,30,,,,,,,,,,,1.5,0.8,1.2,8*2C
$QZGSA,A,3,01,02,03,,,,,,,,,,1.5,0.8,1.2*21
$QZGSA,A,3,01,02,07,,,,,,,,,,1.5,0.8,1.2,8*31
$BDGSA,A,3,206,208,213,216,223,,,,,,,,1.5,0.8,1.2*14
$BDGSA,A,3,,,,,,,,,,,,,1.5,0.8,1.2,5*35
$GAGSA,A,3,119,121,136,,,,,,,,,,1.5,0.8,1.2*13
$GAGSA,A,3,121,136,,,,,,,,,,,1.5,0.8,1.2,1*37
$NCGSA,A,3,,,,,,,,,,,,,1.5,0.8,1.2,1*3A
$GNGSA,A,3,02,05,13,15,21,29,30,,,,,,1.5,0.8,1.2*29
$GNGSA,A,3,65,66,67,75,76,81,,,,,,,1.5,0.8,1.2*2B
$GPRMC,024234.00,A,3722.865774,N,12640.714483,E,000.0,,231119,,,A*7D
$GPGGA,024235.00,3722.865594,N,12640.714468,E,1,31,0.6,9.2,M,17.8,M,,*61
$PGLOR,10,STA,024235.00,0.005,0.000,177,1,6,0,P,D,L,0,C,2,S,00100002,0,5,R,000833F4,TPEF,55,20813,LC,,,DR,0,*5C
$PGLOR,1,UNC,024235.00,0.014,6.0,4.7,0.21,180.00,6.0,6.0,0.0*25
$PSSGR,GSA,A,3,02,05,13,15,21,29,30,,,,,,1.5,0.8,1.3,1,1*48
$PSSGR,GSA,A,3,24,30,,,,,,,,,,,1.5,0.8,1.3,1,8*4E
$PSSGR,GSA,A,3,65,66,67,75,76,81,,,,,,,1.5,0.8,1.3,2,1*49
$PSSGR,GSA,A,3,01,02,03,,,,,,,,,,1.5,0.8,1.3,5,1*46
$PSSGR,GSA,A,3,01,02,07,,,,,,,,,,1.5,0.8,1.3,5,8*4B
$PSSGR,GSA,A,3,206,208,213,216,223,,,,,,,,1.5,0.8,1.3,4,3*7D
$PSSGR,GSA,A,3,,,,,,,,,,,,,1.5,0.8,1.3,4,5*43
$PSSGR,GSA,A,3,119,121,136,,,,,,,,,,1.5,0.8,1.3,3,7*79
$PSSGR,GSA,A,3,121,136,,,,,,,,,,,1.5,0.8,1.3,3,1*46
$PSSGR,GSA,A,3,,,,,,,,,,,,,1.5,0.8,1.3,6,1*45
$GPGSV,4,1,12,13,78,031,34,15,62,257,38,05,54,071,29,29,27,249,38*7F
$GPGSV,4,2,12,30,25,053,31,02,25,155,30,21,24,315,28,24,11,189,21*76
$GPGSV,4,3,12,07,02,032,,20,02,291,*73
$GPGSV,4,4,12,30,,,29,24,,,28,8*6A
$GLGSV,2,1,08,66,52,014,29,81,48,218,36,67,40,291,33,76,26,101,35*60
$GLGSV,2,2,08,75,20,048,26,65,07,065,32,83,08,337,,77,06,151,*64
$QZGSV,2,1,08,01,77,065,31,07,47,179,20,02,19,153,29,03,19,182,23*60
$QZGSV,2,2,08,01,,,32,07,,,28,02,,,26,03,,,24,8*77
$BDGSV,4,1,16,213,74,276,32,208,68,172,29,206,67,250,30,216,61,248,31*6F
$BDGSV,4,2,16,223,33,106,32,232,66,019,,203,44,206,,230,39,234,*6C
$BDGSV,4,3,16,220,38,287,,209,38,237,,202,29,238,,229,28,299,*6B
$BDGSV,4,4,16,225,18,052,,237,16,159,,227,12,184,,205,10,258,*68
$GAGSV,3,1,11,119,33,054,33,136,21,319,33,121,13,074,31,104,73,317,*6B
$GAGSV,3,2,11,112,40,180,,109,27,257,,101,10,124,,127,00,028,*63
$GAGSV,3,3,11,119,,,19,136,,,26,121,,,25,1*41
$GPGSA,A,3,02,05,13,15,21,29,30,,,,,,1.5,0.8,1.3*36
$GPGSA,A,3,24,30,,,,,,,,,,,1.5,0.8,1.3,8*2D
$QZGSA,A,3,01,02,03,,,,,,,,,,1.5,0.8,1.3*20
$QZGSA,A,3,01,02,07,,,,,,,,,,1.5,0.8,1.3,8*30
$BDGSA,A,3,206,208,213,216,223,,,,,,,,1.5,0.8,1.3*15
$BDGSA,A,3,,,,,,,,,,,,,1.5,0.8,1.3,5*34
$GAGSA,A,3,119,121,136,,,,,,,,,,1.5,0.8,1.3*12
$GAGSA,A,3,121,136,,,,,,,,,,,1.5,0.8,1.3,1*36
$NCGSA,A,3,,,,,,,,,,,,,1.5,0.8,1.3,1*3B
$GNGSA,A,3,02,05,13,15,21,29,30,,,,,,1.5,0.8,1.3*28
$GNGSA,A,3,65,66,67,75,76,81,,,,,,,1.5,0.8,1.3*2A
$GPRMC,024235.00,A,3722.865594,N,12640.714468,E,000.0,,231119,,,A*75
$GPGGA,024236.00,3722.865369,N,12640.714543,E,1,30,0.6,9.6,M,17.8,M,,*6B
$PGLOR,10,STA,024236.00,0.005,0.000,177,1,6,0,P,D,L,0,C,2,S,00100002,0,5,R,000833F4,TPEF,55,21813,LC,,,DR,0,*5E
$PGLOR,1,UNC,024236.00,0.013,6.0,4.6,0.21,180.00,6.0,6.0,0.0*20
$PSSGR,GSA,A,3,02,05,13,15,21,29,30,,,,,,1.4,0.8,1.2,1,1*48
$PSSGR,GSA,A,3,24,30,,,,,,,,,,,1.4,0.8,1.2,1,8*4E
$PSSGR,GSA,A,3,65,66,67,75,76,81,,,,,,,1.4,0.8,1.2,2,1*49
$PSSGR,GSA,A,3,01,02,03,,,,,,,,,,1.4,0.8,1.2,5,1*46
$PSSGR,GSA,A,3,01,02,03,07,,,,,,,,,1.4,0.8,1.2,5,8*48
$PSSGR,GSA,A,3,206,208,213,216,223,,,,,,,,1.4,0.8,1.2,4,3*7D
$PSSGR,GSA,A,3,,,,,,,,,,,,,1.4,0.8,1.2,4,5*43
$PSSGR,GSA,A,3,119,121,,,,,,,,,,,1.4,0.8,1.2,3,7*4D
$PSSGR,GSA,A,3,121,,,,,,,,,,,,1.4,0.8,1.2,3,1*72
$PSSGR,GSA,A,3,,,,,,,,,,,,,1.4,0.8,1.2,6,1*45
$GPGSV,4,1,12,13,78,031,34,15,62,257,38,05,54,071,29,29,27,249,38*7F
$GPGSV,4,2,12,30,25,053,31,02,25,155,30,21,24,315,27,24,11,189,20*78
$GPGSV,4,3,12,07,02,032,,20,02,292,*70
$GPGSV,4,4,12,30,,,29,24,,,27,8*65
$GLGSV,2,1,08,66,52,014,29,81,48,218,35,67,40,291,33,76,26,101,36*60
$GLGSV,2,2,08,75,20,048,30,65,07,065,32,83,08,337,,77,06,151,*63
$QZGSV,2,1,08,01,77,065,31,07,47,179,20,02,19,153,29,03,19,182,25*66
$QZGSV,2,2,08,01,,,32,07,,,28,02,,,26,03,,,24,8*77
$BDGSV,4,1,16,213,74,276,32,208,68,172,29,206,67,250,30,216,61,248,31*6F
$BDGSV,4,2,16,223,33,106,32,232,66,019,,203,44,206,,230,39,234,*6C
$BDGSV,4,3,16,220,38,287,,209,38,237,,202,29,238,,229,28,299,*6B
$BDGSV,4,4,16,225,18,052,,237,16,159,,227,12,184,,205,10,258,*68
$GAGSV,3,1,11,119,33,054,32,136,21,319,32,121,13,074,31,104,73,317,*6B
$GAGSV,3,2,11,112,40,180,,109,27,257,,101,10,124,,127,00,028,*63
$GAGSV,3,3,11,119,,,19,136,,,26,121,,,26,1*42
$GPGSA,A,3,02,05,13,15,21,29,30,,,,,,1.4,0.8,1.2*36
$GPGSA,A,3,24,30,,,,,,,,,,,1.4,0.8,1.2,8*2D
$QZGSA,A,3,01,02,03,,,,,,,,,,1.4,0.8,1.2*20
$QZGSA,A,3,01,02,03,07,,,,,,,,,1.4,0.8,1.2,8*33
$BDGSA,A,3,206,208,213,216,223,,,,,,,,1.4,0.8,1.2*15
$BDGSA,A,3,,,,,,,,,,,,,1.4,0.8,1.2,5*34
$GAGSA,A,3,119,121,,,,,,,,,,,1.4,0.8,1.2*26
$GAGSA,A,3,121,,,,,,,,,,,,1.4,0.8,1.2,1*02
$NCGSA,A,3,,,,,,,,,,,,,1.4,0.8,1.2,1*3B
$GNGSA,A,3,02,05,13,15,21,29,30,,,,,,1.4,0.8,1.2*28
$GNGSA,A,3,65,66,67,75,76,81,,,,,,,1.4,0.8,1.2*2A
$GPRMC,024236.00,A,3722.865369,N,12640.714543,E,000.0,,231119,,,A*7A
$GPGGA,024237.00,3722.865193,N,12640.714645,E,1,30,0.6,9.8,M,17.8,M,,*66
$PGLOR,10,STA,024237.00,0.005,0.000,177,1,6,0,P,D,L,0,C,2,S,00100002,0,5,R,000833F4,TPEF,55,22813,LC,,,DR,0,*5C
$PGLOR,1,UNC,024237.00,0.013,6.0,4.4,0.23,180.00,6.0,6.0,0.0*21
$PSSGR,GSA,A,3,02,05,13,15,21,29,30,,,,,,1.4,0.8,1.2,1,1*48
$PSSGR,GSA,A,3,24,30,,,,,,,,,,,1.4,0.8,1.2,1,8*4E
$PSSGR,GSA,A,3,65,66,67,75,76,81,,,,,,,1.4,0.8,1.2,2,1*49
$PSSGR,GSA,A,3,01,02,03,,,,,,,,,,1.4,0.8,1.2,5,1*46
$PSSGR,GSA,A,3,01,02,07,,,,,,,,,,1.4,0.8,1.2,5,8*4B
$PSSGR,GSA,A,3,206,208,213,216,223,,,,,,,,1.4,0.8,1.2,4,3*7D
$PSSGR,GSA,A,3,,,,,,,,,,,,,1.4,0.8,1.2,4,5*43
$PSSGR,GSA,A,3,119,121,,,,,,,,,,,1.4,0.8,1.2,3,7*4D
$PSSGR,GSA,A,3,121,136,,,,,,,,,,,1.4,0.8,1.2,3,1*46
$PSSGR,GSA,A,3,,,,,,,,,,,,,1.4,0.8,1.2,6,1*45
$GPGSV,4,1,12,13,78,031,34,15,62,257,37,05,54,071,29,29,27,249,38*70
$GPGSV,4,2,12,30,25,053,31,02,25,155,30,21,24,315,27,24,11,189,20*78
$GPGSV,4,3,12,07,02,032,,20,02,292,*70
$GPGSV,4,4,12,30,,,29,24,,,27,8*65
$GLGSV,2,1,08,66,52,014,29,81,48,218,35,67,40,291,33,76,26,101,36*60
$GLGSV,2,2,08,75,20,048,30,65,07,065,32,83,08,337,,77,06,151,*63
$QZGSV,2,1,08,01,77,065,30,07,47,179,20,02,19,153,29,03,19,182,25*67
$QZGSV,2,2,08,01,,,31,07,,,28,02,,,25,03,,,23,8*70
$BDGSV,4,1,16,213,74,276,32,208,68,172,29,206,67,250,30,216,61,248,32*6C
$BDGSV,4,2,16,223,33,106,32,232,66,019,,203,44,206,,230,39,234,*6C
$BDGSV,4,3,16,220,38,287,,209,38,237,,202,29,238,,229,28,299,*6B
$BDGSV,4,4,16,225,18,052,,237,16,159,,227,12,184,,205,10,258,*68
$GAGSV,3,1,11,119,33,054,32,136,21,319,31,121,13,074,30,104,73,317,*69
$GAGSV,3,2,11,112,40,180,,109,27,257,,101,10,124,,127,00,028,*63
$GAGSV,3,3,11,119,,,19,136,,,26,121,,,26,1*42
$GPGSA,A,3,02,05,13,15,21,29,30,,,,,,1.4,0.8,1.2*36
$GPGSA,A,3,24,30,,,,,,,,,,,1.4,0.8,1.2,8*2D
$QZGSA,A,3,01,02,03,,,,,,,,,,1.4,0.8,1.2*20
$QZGSA,A,3,01,02,07,,,,,,,,,,1.4,0.8,1.2,8*30
$BDGSA,A,3,206,208,213,216,223,,,,,,,,1.4,0.8,1.2*15
$BDGSA,A,3,,,,,,,,,,,,,1.4,0.8,1.2,5*34
$GAGSA,A,3,119,121,,,,,,,,,,,1.4,0.8,1.2*26
$GAGSA,A,3,121,136,,,,,,,,,,,1.4,0.8,1.2,1*36
$NCGSA,A,3,,,,,,,,,,,,,1.4,0.8,1.2,1*3B
$GNGSA,A,3,02,05,13,15,21,29,30,,,,,,1.4,0.8,1.2*28
$GNGSA,A,3,65,66,67,75,76,81,,,,,,,1.4,0.8,1.2*2A
$GPRMC,024237.00,A,3722.865193,N,12640.714645,E,000.0,,231119,,,A*79
$GPGGA,024238.00,3722.865205,N,12640.714753,E,1,28,0.6,10.0,M,17.8,M,,*5A
$PGLOR,10,STA,024238.00,0.005,0.000,177,1,6,0,P,D,L,0,C,2,S,00100002,0,5,R,000833F4,TPEF,55,23813,LC,,,DR,0,*52
$PGLOR,1,UNC,024238.00,0.013,6.0,4.3,0.21,180.00,6.0,6.0,0.0*2B
$PSSGR,GSA,A,3,02,05,13,15,21,29,30,,,,,,1.4,0.8,1.2,1,1*48
$PSSGR,GSA,A,3,24,30,,,,,,,,,,,1.4,0.8,1.2,1,8*4E
$PSSGR,GSA,A,3,65,66,67,76,81,,,,,,,,1.4,0.8,1.2,2,1*4B
$PSSGR,GSA,A,3,01,02,03,,,,,,,,,,1.4,0.8,1.2,5,1*46
$PSSGR,GSA,A,3,01,02,07,,,,,,,,,,1.4,0.8,1.2,5,8*4B
$PSSGR,GSA,A,3,208,213,216,223,,,,,,,,,1.4,0.8,1.2,4,3*49
$PSSGR,GSA,A,3,,,,,,,,,,,,,1.4,0.8,1.2,4,5*43
$PSSGR,GSA,A,3,121,136,,,,,,,,,,,1.4,0.8,1.2,3,7*40
$PSSGR,GSA,A,3,121,136,,,,,,,,,,,1.4,0.8,1.2,3,1*46
$PSSGR,GSA,A,3,,,,,,,,,,,,,1.4,0.8,1.2,6,1*45
$GPGSV,4,1,12,13,78,031,34,15,62,257,37,05,54,071,30,29,27,249,38*78
$GPGSV,4,2,12,30,25,053,31,02,25,155,29,21,24,315,27,24,11,189,20*70
$GPGSV,4,3,12,07,02,032,,20,02,292,*70
$GPGSV,4,4,12,30,,,29,24,,,27,8*65
$GLGSV,2,1,08,66,52,014,29,81,48,218,35,67,40,291,33,76,26,101,36*60
$GLGSV,2,2,08,75,20,048,30,65,07,065,32,83,08,337,,77,06,151,*63
$QZGSV,2,1,08,01,77,065,30,07,47,179,19,02,19,153,29,03,19,182,25*6D
$QZGSV,2,2,08,01,,,31,07,,,27,02,,,25,03,,,23,8*7F
$BDGSV,4,1,16,213,74,276,32,208,68,172,29,206,67,250,30,216,61,248,31*6F
$BDGSV,4,2,16,223,33,106,32,232,66,019,,203,44,206,,230,39,234,*6C
$BDGSV,4,3,16,220,38,287,,209,38,237,,202,29,238,,229,28,299,*6B
$BDGSV,4,4,16,225,18,052,,237,16,159,,227,12,184,,205,10,258,*68
$GAGSV,3,1,11,119,33,054,32,136,21,319,30,121,13,074,30,104,73,317,*68
$GAGSV,3,2,11,112,40,180,,109,27,257,,101,10,124,,127,00,028,*63
$GAGSV,3,3,11,119,,,18,136,,,26,121,,,26,1*43
$GPGSA,A,3,02,05,13,15,21,29,30,,,,,,1.4,0.8,1.2*36
$GPGSA,A,3,24,30,,,,,,,,,,,1.4,0.8,1.2,8*2D
$QZGSA,A,3,01,02,03,,,,,,,,,,1.4,0.8,1.2*20
$QZGSA,A,3,01,02,07,,,,,,,,,,1.4,0.8,1.2,8*30
$BDGSA,A,3,208,213,216,223,,,,,,,,,1.4,0.8,1.2*21
$BDGSA,A,3,,,,,,,,,,,,,1.4,0.8,1.2,5*34
$GAGSA,A,3,121,136,,,,,,,,,,,1.4,0.8,1.2*2B
$GAGSA,A,3,121,136,,,,,,,,,,,1.4,0.8,1.2,1*36
$NCGSA,A,3,,,,,,,,,,,,,1.4,0.8,1.2,1*3B
$GNGSA,A,3,02,05,13,15,21,29,30,,,,,,1.4,0.8,1.2*28
$GNGSA,A,3,65,66,67,76,81,,,,,,,,1.4,0.8,1.2*28
$GPRMC,024238.00,A,3722.865205,N,12640.714753,E,000.0,,231119,,,A*7C
$GPGGA,024239.00,3722.865223,N,12640.714777,E,1,30,0.6,10.2,M,17.8,M,,*52
$PGLOR,10,STA,024239.00,0.005,0.000,177,1,6,0,P,D,L,0,C,2,S,00100002,0,5,R,000833F4,TPEF,55,24813,LC,,,DR,0,*54
$PGLOR,1,UNC,024239.00,0.013,6.0,4.3,0.21,180.00,6.0,6.0,0.0*2A
$PSSGR,GSA,A,3,02,05,13,15,21,29,30,,,,,,1.4,0.8,1.2,1,1*48
$PSSGR,GSA,A,3,24,30,,,,,,,,,,,1.4,0.8,1.2,1,8*4E
$PSSGR,GSA,A,3,65,66,67,75,76,81,,,,,,,1.4,0.8,1.2,2,1*49
$PSSGR,GSA,A,3,01,02,03,,,,,,,,,,1.4,0.8,1.2,5,1*46
$PSSGR,GSA,A,3,01,02,07,,,,,,,,,,1.4,0.8,1.2,5,8*4B
$PSSGR,GSA,A,3,206,208,213,216,223,,,,,,,,1.4,0.8,1.2,4,3*7D
$PSSGR,GSA,A,3,,,,,,,,,,,,,1.4,0.8,1.2,4,5*43
$PSSGR,GSA,A,3,121,136,,,,,,,,,,,1.4,0.8,1.2,3,7*40
$PSSGR,GSA,A,3,121,136,,,,,,,,,,,1.4,0.8,1.2,3,1*46
$PSSGR,GSA,A,3,,,,,,,,,,,,,1.4,0.8,1.2,6,1*45
$GPGSV,4,1,12,13,78,031,33,15,62,257,38,05,54,071,31,29,27,249,38*71
$GPGSV,4,2,12,30,25,053,31,02,25,155,29,21,24,315,26,24,11,189,20*71
$GPGSV,4,3,12,07,02,032,,20,02,292,*70
$GPGSV,4,4,12,30,,,28,24,,,27,8*64
$GLGSV,2,1,08,66,52,014,29,81,48,218,35,67,40,291,33,76,26,101,36*60
$GLGSV,2,2,08,75,20,048,30,65,07,065,32,83,08,337,,77,06,151,*63
$QZGSV,2,1,08,01,77,065,30,07,47,179,19,02,19,153,29,03,19,182,25*6D
$QZGSV,2,2,08,01,,,31,07,,,27,02,,,25,03,,,24,8*78
$BDGSV,4,1,16,213,74,276,32,208,68,172,29,206,67,250,30,216,61,248,32*6C
$BDGSV,4,2,16,223,33,106,32,232,66,019,,203,44,206,,230,39,234,*6C
$BDGSV,4,3,16,220,38,287,,209,38,237,,202,29,238,,229,28,299,*6B
$BDGSV,4,4,16,225,18,052,,237,16,159,,227,12,184,,205,10,258,*68
$GAGSV,3,1,11,119,33,054,31,136,21,319,30,121,13,074,32,104,73,317,*69
$GAGSV,3,2,11,112,40,180,,109,28,257,,101,10,124,,127,00,028,*6C
$GAGSV,3,3,11,119,,,18,136,,,26,121,,,27,1*42
$GPGSA,A,3,02,05,13,15,21,29,30,,,,,,1.4,0.8,1.2*36
$GPGSA,A,3,24,30,,,,,,,,,,,1.4,0.8,1.2,8*2D
$QZGSA,A,3,01,02,03,,,,,,,,,,1.4,0.8,1.2*20
$QZGSA,A,3,01,02,07,,,,,,,,,,1.4,0.8,1.2,8*30
$BDGSA,A,3,206,208,213,216,223,,,,,,,,1.4,0.8,1.2*15
$BDGSA,A,3,,,,,,,,,,,,,1.4,0.8,1.2,5*34
$GAGSA,A,3,121,136,,,,,,,,,,,1.4,0.8,1.2*2B
$GAGSA,A,3,121,136,,,,,,,,,,,1.4,0.8,1.2,1*36
$NCGSA,A,3,,,,,,,,,,,,,1.4,0.8,1.2,1*3B
$GNGSA,A,3,02,05,13,15,21,29,30,,,,,,1.4,0.8,1.2*28
$GNGSA,A,3,65,66,67,75,76,81,,,,,,,1.4,0.8,1.2*2A
$GPRMC,024239.00,A,3722.865223,N,12640.714777,E,000.0,,231119,,,A*7F
$GPGGA,024240.00,3722.865381,N,12640.714767,E,1,31,0.6,10.4,M,17.8,M,,*53
$PGLOR,10,STA,024240.00,0.005,0.000,177,1,6,0,P,D,L,0,C,2,S,00100002,0,5,R,000833F4,TPEF,55,25813,LC,,,DR,0,*5B
$PGLOR,1,UNC,024240.00,0.013,6.0,4.2,0.21,180.00,6.0,6.0,0.0*25
$PSSGR,GSA,A,3,02,05,13,15,21,29,30,,,,,,1.4,0.8,1.2,1,1*48
$PSSGR,GSA,A,3,24,30,,,,,,,,,,,1.4,0.8,1.2,1,8*4E
$PSSGR,GSA,A,3,65,66,67,75,76,81,,,,,,,1.4,0.8,1.2,2,1*49
$PSSGR,GSA,A,3,01,02,03,,,,,,,,,,1.4,0.8,1.2,5,1*46
$PSSGR,GSA,A,3,01,03,07,,,,,,,,,,1.4,0.8,1.2,5,8*4A
$PSSGR,GSA,A,3,206,208,213,216,223,225,,,,,,,1.4,0.8,1.2,4,3*48
$PSSGR,GSA,A,3,,,,,,,,,,,,,1.4,0.8,1.2,4,5*43
$PSSGR,GSA,A,3,119,121,136,,,,,,,,,,1.4,0.8,1.2,3,7*79
$PSSGR,GSA,A,3,136,,,,,,,,,,,,1.4,0.8,1.2,3,1*74
$PSSGR,GSA,A,3,,,,,,,,,,,,,1.4,0.8,1.2,6,1*45
$GPGSV,4,1,12,13,78,031,33,15,62,257,39,05,54,071,31,29,27,249,38*70
$GPGSV,4,2,12,21,25,315,26,30,25,053,30,02,25,155,30,24,11,189,20*79
$GPGSV,4,3,12,07,02,032,,20,02,292,*70
$GPGSV,4,4,12,30,,,28,24,,,26,8*65
$GLGSV,2,1,08,66,52,014,28,81,48,218,37,67,40,291,34,76,26,101,36*64
$GLGSV,2,2,08,75,20,048,29,65,07,065,32,83,08,337,,77,06,151,*6B
$QZGSV,2,1,08,01,77,065,30,07,47,179,19,02,19,153,28,03,19,182,24*6D
$QZGSV,2,2,08,01,,,31,07,,,27,02,,,25,03,,,24,8*78
$BDGSV,4,1,16,213,74,276,32,208,68,172,28,206,67,250,30,216,61,248,32*6D
$BDGSV,4,2,16,223,33,106,32,225,18,052,33,232,66,019,,203,44,206,*69
$BDGSV,4,3,16,230,39,234,,209,38,237,,220,38,287,,202,29,238,*64
