$GPGGA,024232.00,3722.862948,N,12640.713905,E,1,40,0.6,6.4,M,17.7,M,,*6D
$GPGSV,2,1,08,13,78,031,35,15,62,256,39,05,54,071,41,29,27,249,37*72
$GPGSV,2,2,08,30,25,053,27,02,25,155,38,21,24,315,30,24,11,189,29*75
$GLGSV,2,1,05,66,52,014,27,81,48,218,41,67,40,291,39,76,26,101,34*68
$GLGSV,2,2,05,75,20,048,34*5B
$QZGSV,1,1,03,01,77,065,37,02,19,153,37,03,19,182,41*5C
$BDGSV,4,1,14,213,74,276,29,208,68,172,30,206,67,250,31,216,61,248,31*6E
$BDGSV,4,2,14,203,44,206,29,230,39,234,34,220,38,287,37,209,38,237,30*6B
$BDGSV,4,3,14,204,34,133,,223,33,106,33,229,28,299,26,225,18,052,31*62
$BDGSV,4,4,14,227,12,184,36,205,10,258,24*6E
$GAGSV,2,1,06,104,73,317,30,112,40,180,27,119,33,054,29,109,27,257,25*69
$GAGSV,2,2,06,121,13,074,29,101,10,124,27*65
$GPGSA,A,3,02,05,13,15,21,24,29,30,,,,,1.5,0.9,1.2*30
$GNGSA,A,3,02,05,13,15,21,24,29,30,,,,,1.5,0.9,1.2*2E
$GNGSA,A,3,66,67,75,76,81,,,,,,,,1.5,0.9,1.2*29
$QZGSA,A,3,01,02,03,,,,,,,,,,1.5,0.9,1.2*20
$IMGSA,A,3,,,,,,,,,,,,,1.5,0.9,1.2*2F
$BDGSA,A,3,203,205,206,208,209,213,216,220,223,225,227,229,1.5,0.9,1.2*23
$GAGSA,A,3,101,104,109,112,119,121,,,,,,,1.5,0.9,1.2*29
$GPRMC,024232.00,A,3722.862948,N,12640.713905,E,000.0,217.9,231119,,,A*5A
$GPGGA,024233.00,3722.862948,N,12640.713905,E,1,40,0.6,6.4,M,17.7,M,,*6C
$GPGSV,2,1,08,13,78,031,35,15,62,257,39,05,54,071,41,29,27,249,37*73
$GPGSV,2,2,08,30,25,053,33,02,25,155,38,21,24,315,30,24,11,189,29*70
$GLGSV,2,1,05,66,52,014,27,81,48,218,40,67,40,291,39,76,26,101,34*69
$GLGSV,2,2,05,75,20,048,34*5B
$QZGSV,1,1,03,01,77,065,36,02,19,153,36,03,19,182,41*5C
$BDGSV,4,1,14,213,74,276,29,208,68,172,30,206,67,250,31,216,61,248,30*6F
$BDGSV,4,2,14,203,44,206,29,230,39,234,35,220,38,287,37,209,38,237,30*6A
$BDGSV,4,3,14,204,34,133,,223,33,106,34,229,28,299,25,225,18,052,31*66
$BDGSV,4,4,14,227,12,184,36,205,10,258,24*6E
$GAGSV,2,1,06,104,73,317,30,112,40,180,27,119,33,054,32,109,27,257,25*63
$GAGSV,2,2,06,121,13,074,29,101,10,124,27*65
$GPGSA,A,3,02,05,13,15,21,24,29,30,,,,,2.0,1.3,1.5*3A
$GNGSA,A,3,02,05,13,15,21,24,29,30,,,,,2.0,1.3,1.5*24
$GNGSA,A,3,66,67,75,76,81,,,,,,,,2.0,1.3,1.5*23
$QZGSA,A,3,01,02,03,,,,,,,,,,2.0,1.3,1.5*2A
$IMGSA,A,3,,,,,,,,,,,,,2.0,1.3,1.5*25
$BDGSA,A,3,203,205,206,208,209,213,216,220,223,225,227,229,2.0,1.3,1.5*29
$GAGSA,A,3,101,104,109,112,119,121,,,,,,,2.0,1.3,1.5*23
$GPRMC,024233.00,A,3722.862948,N,12640.713905,E,000.0,217.9,231119,,,A*5B
$GPGGA,024234.00,3722.862948,N,12640.713905,E,1,40,0.6,6.5,M,17.7,M,,*6A
$GPGSV,2,1,08,13,78,031,34,15,62,257,39,05,54,071,41,29,27,249,37*72
$GPGSV,2,2,08,30,25,053,32,02,25,155,43,21,24,315,29,24,11,189,29*75
$GLGSV,2,1,05,66,52,014,26,81,48,218,40,67,40,291,38,76,26,101,39*64
$GLGSV,2,2,05,75,20,048,33*5C
$QZGSV,1,1,03,01,77,065,35,02,19,153,39,03,19,182,40*51
$BDGSV,4,1,14,213,74,276,29,208,68,172,30,206,67,250,31,216,61,248,30*6F
$BDGSV,4,2,14,203,44,206,32,230,39,234,36,220,38,287,36,209,38,237,32*60
$BDGSV,4,3,14,204,34,133,24,223,33,106,34,229,28,299,26,225,18,052,31*63
$BDGSV,4,4,14,227,12,184,36,205,10,258,23*69
$GAGSV,2,1,06,104,73,317,30,112,40,180,26,119,33,054,32,109,27,257,29*6E
$GAGSV,2,2,06,136,21,319,32,121,13,074,29*6B
$GPGSA,A,3,02,05,13,15,21,24,29,30,,,,,1.7,1.1,1.3*3A
$GNGSA,A,3,02,05,13,15,21,24,29,30,,,,,1.7,1.1,1.3*24
$GNGSA,A,3,66,67,75,76,81,,,,,,,,1.7,1.1,1.3*23
$QZGSA,A,3,01,02,03,,,,,,,,,,1.7,1.1,1.3*2A
$IMGSA,A,3,,,,,,,,,,,,,1.7,1.1,1.3*25
$BDGSA,A,3,203,204,206,208,209,213,216,220,223,225,227,229,1.7,1.1,1.3*28
$GAGSA,A,3,104,109,112,119,121,136,,,,,,,1.7,1.1,1.3*27
$GPRMC,024234.00,A,3722.862948,N,12640.713905,E,000.0,217.9,231119,,,A*5C
$GPGGA,024235.00,3722.862948,N,12640.713905,E,1,37,0.6,6.5,M,17.7,M,,*6B
$GPGSV,2,1,08,13,78,031,34,15,62,257,38,05,54,071,41,29,27,249,36*72
$GPGSV,2,2,08,30,25,053,32,02,25,155,43,21,24,315,29,24,11,189,29*75
$GLGSV,2,1,05,66,52,014,26,81,48,218,39,67,40,291,38,76,26,101,39*6A
$GLGSV,2,2,05,75,20,048,33*5C
$QZGSV,1,1,03,01,77,065,34,02,19,153,40,03,19,182,40*5E
$BDGSV,4,1,14,213,74,276,29,208,68,172,31,206,67,250,31,216,61,248,30*6E
$BDGSV,4,2,14,203,44,206,33,230,39,234,37,220,38,287,36,209,38,237,33*61
$BDGSV,4,3,14,204,34,133,25,223,33,106,33,229,28,299,28,225,18,052,30*6A
$BDGSV,4,4,14,227,12,184,35,205,10,258,*6B
$GAGSV,2,1,06,104,73,317,29,112,40,180,26,119,33,054,32,109,27,257,29*66
$GAGSV,2,2,06,121,13,074,28,101,10,124,*61
$GPGSA,A,3,02,05,13,15,21,24,29,30,,,,,1.6,1.0,1.3*3A
$GNGSA,A,3,02,05,13,15,21,24,29,30,,,,,1.6,1.0,1.3*24
$GNGSA,A,3,66,67,75,76,81,,,,,,,,1.6,1.0,1.3*23
$QZGSA,A,3,01,02,03,,,,,,,,,,1.6,1.0,1.3*2A
$IMGSA,A,3,,,,,,,,,,,,,1.6,1.0,1.3*25
$BDGSA,A,3,203,204,206,208,209,213,216,220,223,225,227,229,1.6,1.0,1.3*28
$GAGSA,A,3,104,109,112,119,121,,,,,,,,1.6,1.0,1.3*13
$GPRMC,024235.00,A,3722.862948,N,12640.713905,E,000.0,217.9,231119,,,A*5D
$GPGGA,024236.00,3722.862948,N,12640.713905,E,1,39,0.6,6.5,M,17.7,M,,*66
$GPGSV,2,1,08,13,78,031,33,15,62,257,38,05,54,071,41,29,27,249,35*76
$GPGSV,2,2,08,30,25,053,32,02,25,155,43,21,24,315,29,24,11,189,29*75
$GLGSV,2,1,05,66,52,014,26,81,48,218,38,67,40,291,38,76,26,101,39*6B
$GLGSV,2,2,05,75,20,048,32*5D
$QZGSV,1,1,03,01,77,065,33,02,19,153,40,03,19,182,39*57
$BDGSV,4,1,14,213,74,276,29,208,68,172,33,206,67,250,30,216,61,248,29*65
$BDGSV,4,2,14,203,44,206,33,230,39,234,37,220,38,287,35,209,38,237,33*62
$BDGSV,4,3,14,204,34,133,25,223,33,106,32,229,28,299,28,225,18,052,30*6B
$BDGSV,4,4,14,227,12,184,35,205,10,258,*6B
$GAGSV,2,1,06,104,73,317,28,112,40,180,26,119,33,054,32,109,27,257,28*66
$GAGSV,2,2,06,121,13,074,28,101,10,124,25*66
$GPGSA,A,3,02,05,13,15,21,24,29,30,,,,,1.9,1.2,1.4*30
$GNGSA,A,3,02,05,13,15,21,24,29,30,,,,,1.9,1.2,1.4*2E
$GNGSA,A,3,66,67,75,76,81,,,,,,,,1.9,1.2,1.4*29
$QZGSA,A,3,01,02,03,,,,,,,,,,1.9,1.2,1.4*20
$IMGSA,A,3,,,,,,,,,,,,,1.9,1.2,1.4*2F
$BDGSA,A,3,203,204,206,208,209,213,216,220,223,225,227,229,1.9,1.2,1.4*22
$GAGSA,A,3,101,104,109,112,119,121,,,,,,,1.9,1.2,1.4*29
$GPRMC,024236.00,A,3722.862948,N,12640.713905,E,000.0,217.9,231119,,,A*5E
$GPGGA,024237.00,3722.862948,N,12640.713905,E,1,40,0.6,6.7,M,17.7,M,,*6B
$GPGSV,2,1,08,13,78,031,33,15,62,257,37,05,54,071,41,29,27,249,35*79
$GPGSV,2,2,08,30,25,053,32,02,25,155,42,21,24,315,29,24,11,189,28*75
$GLGSV,2,1,05,66,52,014,31,81,48,218,38,67,40,291,38,76,26,101,38*6C
$GLGSV,2,2,05,75,20,048,31*5E
$QZGSV,1,1,03,01,77,065,32,02,19,153,40,03,19,182,38*57
$BDGSV,4,1,14,213,74,276,28,208,68,172,32,206,67,250,30,216,61,248,29*65
$BDGSV,4,2,14,203,44,206,33,230,39,234,37,220,38,287,35,209,38,237,33*62
$BDGSV,4,3,14,204,34,133,25,223,33,106,33,229,28,299,28,225,18,052,29*62
$BDGSV,4,4,14,227,12,184,34,205,10,258,20*68
$GAGSV,2,1,06,104,73,317,27,112,40,180,28,119,33,054,32,109,27,257,28*67
$GAGSV,2,2,06,121,13,074,28,101,10,124,25*66
$GPGSA,A,3,02,05,13,15,21,24,29,30,,,,,1.6,0.9,1.3*32
$GNGSA,A,3,02,05,13,15,21,24,29,30,,,,,1.6,0.9,1.3*2C
$GNGSA,A,3,66,67,75,76,81,,,,,,,,1.6,0.9,1.3*2B
$QZGSA,A,3,01,02,03,,,,,,,,,,1.6,0.9,1.3*22
$IMGSA,A,3,,,,,,,,,,,,,1.6,0.9,1.3*2D
$BDGSA,A,3,203,204,206,208,209,213,216,220,223,225,227,229,1.6,0.9,1.3*20
$GAGSA,A,3,101,104,109,112,119,121,,,,,,,1.6,0.9,1.3*2B
$GPRMC,024237.00,A,3722.862948,N,12640.713905,E,000.0,217.9,231119,,,A*5F
$GPGGA,024238.00,3722.862948,N,12640.713905,E,1,39,0.6,6.7,M,17.7,M,,*6A
$GPGSV,2,1,08,13,78,031,32,15,62,257,37,05,54,071,41,29,27,249,34*79
$GPGSV,2,2,08,30,25,053,32,02,25,155,42,21,24,315,28,24,11,189,28*74
$GLGSV,2,1,05,66,52,014,34,81,48,218,37,67,40,291,37,76,26,101,38*69
$GLGSV,2,2,05,75,20,048,32*5D
$QZGSV,1,1,03,01,77,065,37,02,19,153,39,03,19,182,37*53
$BDGSV,4,1,14,213,74,276,32,208,68,172,32,206,67,250,36,216,61,248,29*68
$BDGSV,4,2,14,203,44,206,32,230,39,234,37,220,38,287,34,209,38,237,33*62
$BDGSV,4,3,14,204,34,133,30,223,33,106,33,229,28,299,28,225,18,052,28*67
$BDGSV,4,4,14,227,12,184,34,205,10,258,*6A
$GAGSV,2,1,06,104,73,317,27,112,40,180,27,119,33,054,31,109,27,257,28*6B
$GAGSV,2,2,06,121,13,074,28,101,10,124,24*67
$GPGSA,A,3,02,05,13,15,21,24,29,30,,,,,1.7,1.2,1.3*39
$GNGSA,A,3,02,05,13,15,21,24,29,30,,,,,1.7,1.2,1.3*27
$GNGSA,A,3,66,67,75,76,81,,,,,,,,1.7,1.2,1.3*20
$QZGSA,A,3,01,02,03,,,,,,,,,,1.7,1.2,1.3*29
$IMGSA,A,3,,,,,,,,,,,,,1.7,1.2,1.3*26
$BDGSA,A,3,203,204,206,208,209,213,216,220,223,225,227,229,1.7,1.2,1.3*2B
$GAGSA,A,3,101,104,109,112,119,121,,,,,,,1.7,1.2,1.3*20
$GPRMC,024238.00,A,3722.862948,N,12640.713905,E,000.0,217.9,231119,,,A*50
$GPGGA,024239.00,3722.863003,N,12640.713917,E,1,39,0.3,6.8,M,17.7,M,,*65
$GPGSV,2,1,08,13,78,031,32,15,62,257,39,05,54,071,41,29,27,249,33*70
$GPGSV,2,2,08,30,25,053,31,02,25,155,41,21,24,315,28,24,11,189,28*74
$GLGSV,2,1,05,66,52,014,34,81,48,218,36,67,40,291,36,76,26,101,37*66
$GLGSV,2,2,05,75,20,048,34*5B
$QZGSV,1,1,03,01,77,065,38,02,19,153,38,03,19,182,36*5C
$BDGSV,4,1,14,213,74,276,32,208,68,172,34,206,67,250,36,216,61,248,29*6E
$BDGSV,4,2,14,203,44,206,31,230,39,234,37,220,38,287,33,209,38,237,33*66
$BDGSV,4,3,14,204,34,133,30,223,33,106,33,229,28,299,27,225,18,052,27*67
$BDGSV,4,4,14,227,12,184,33,205,10,258,*6D
$GAGSV,2,1,06,104,73,317,27,112,40,180,27,119,33,054,31,109,28,257,27*6B
$GAGSV,2,2,06,136,21,319,28,121,13,074,27*6E
$GPGSA,A,3,02,05,13,15,21,24,29,30,,,,,1.9,1.3,1.4*31
$GNGSA,A,3,02,05,13,15,21,24,29,30,,,,,1.9,1.3,1.4*2F
$GNGSA,A,3,66,67,75,76,81,,,,,,,,1.9,1.3,1.4*28
$QZGSA,A,3,01,02,03,,,,,,,,,,1.9,1.3,1.4*21
$IMGSA,A,3,,,,,,,,,,,,,1.9,1.3,1.4*2E
$BDGSA,A,3,203,204,206,208,209,213,216,220,223,225,227,229,1.9,1.3,1.4*23
$GAGSA,A,3,104,109,112,119,121,136,,,,,,,1.9,1.3,1.4*2C
$GPRMC,024239.00,A,3722.863003,N,12640.713917,E,000.1,217.9,231119,,,A*54
$GPGGA,024240.00,3722.863017,N,12640.713921,E,1,34,0.3,6.8,M,17.7,M,,*66
$GPGSV,2,1,08,13,78,031,31,15,62,257,39,05,54,071,40,29,27,249,32*73
$GPGSV,2,2,08,21,25,315,27,30,25,053,31,02,25,155,40,24,11,189,28*7B
$GLGSV,2,1,05,66,52,014,34,81,48,218,36,67,40,291,35,76,26,101,37*65
$GLGSV,2,2,05,75,20,048,34*5B
$QZGSV,1,1,03,01,77,065,37,02,19,153,37,03,19,182,35*5F
$BDGSV,4,1,14,213,74,276,32,208,68,172,34,206,67,250,36,216,61,248,29*6E
$BDGSV,4,2,14,203,44,206,29,230,39,234,37,209,38,237,32,220,38,287,33*6E
$BDGSV,4,3,14,204,34,133,30,223,33,106,32,229,28,299,26,225,18,052,27*67
$BDGSV,4,4,14,227,12,184,33,205,10,258,*6D
$GAGSV,2,1,06,104,73,317,27,112,40,180,27,119,33,054,30,109,28,257,26*6B
$GAGSV,2,2,06,121,13,074,27,101,10,124,*6E
$GPGSA,A,3,02,05,13,15,21,24,29,30,,,,,2.4,1.8,1.6*36
$GNGSA,A,3,02,05,13,15,21,24,29,30,,,,,2.4,1.8,1.6*28
$GNGSA,A,3,66,67,75,76,81,,,,,,,,2.4,1.8,1.6*2F
$QZGSA,A,3,01,02,03,,,,,,,,,,2.4,1.8,1.6*26
$IMGSA,A,3,,,,,,,,,,,,,2.4,1.8,1.6*29
$BDGSA,A,3,204,206,208,209,213,216,220,223,225,227,229,230,2.4,1.8,1.6*24
$GAGSA,A,3,104,112,119,121,,,,,,,,,2.4,1.8,1.6*27
$GPRMC,024240.00,A,3722.863017,N,12640.713921,E,000.0,217.9,231119,,,A*5B
$GPGGA,024241.00,3722.863029,N,12640.713908,E,1,34,0.3,6.8,M,17.7,M,,*61
$GPGSV,2,1,08,13,78,031,31,15,62,257,39,05,54,071,40,29,27,249,31*70
$GPGSV,2,2,08,21,25,315,27,30,25,053,31,02,25,155,39,24,11,189,27*7A
$GLGSV,2,1,05,66,52,014,34,81,48,218,35,67,40,291,33,76,26,101,37*60
$GLGSV,2,2,05,75,20,048,34*5B
$QZGSV,1,1,03,01,77,065,37,02,19,153,36,03,19,182,34*5F
$BDGSV,4,1,14,213,74,276,32,208,68,172,34,206,67,250,37,216,61,248,29*6F
$BDGSV,4,2,14,203,44,206,,230,39,234,37,209,38,237,32,220,38,287,33*65
$BDGSV,4,3,14,204,34,133,30,223,33,106,32,229,28,299,25,225,18,052,26*65
$BDGSV,4,4,14,227,12,184,32,205,10,258,*6C
$GAGSV,2,1,06,104,73,317,28,112,40,180,27,119,33,054,30,109,28,257,*60
$GAGSV,2,2,06,121,13,074,27,101,10,124,22*6E
$GPGSA,A,3,02,05,13,15,21,24,29,30,,,,,2.0,1.4,1.3*3B
$GNGSA,A,3,02,05,13,15,21,24,29,30,,,,,2.0,1.4,1.3*25
$GNGSA,A,3,66,75,76,81,,,,,,,,,2.0,1.4,1.3*23
$QZGSA,A,3,01,02,03,,,,,,,,,,2.0,1.4,1.3*2B
$IMGSA,A,3,,,,,,,,,,,,,2.0,1.4,1.3*24
$BDGSA,A,3,204,206,208,209,213,216,220,223,227,229,230,,2.0,1.4,1.3*1C
$GAGSA,A,3,101,104,112,119,121,,,,,,,,2.0,1.4,1.3*1A
$GPRMC,024241.00,A,3722.863029,N,12640.713908,E,000.0,217.9,231119,,,A*5C
$GPGGA,024242.00,3722.863037,N,12640.713906,E,1,35,0.3,6.7,M,17.7,M,,*6D
$GPGSV,2,1,08,13,78,031,31,15,62,257,39,05,54,071,39,29,27,249,30*7F
$GPGSV,2,2,08,21,25,315,26,30,25,053,30,02,25,155,38,24,11,189,27*7B
$GLGSV,2,1,05,66,52,014,34,81,48,218,34,67,40,291,32,76,26,101,36*61
$GLGSV,2,2,05,75,20,048,35*5A
$QZGSV,1,1,03,01,77,065,38,02,19,153,36,03,19,182,33*57
$BDGSV,4,1,14,213,74,276,32,208,68,172,34,206,67,250,37,216,61,248,29*6F
$BDGSV,4,2,14,203,44,206,,230,39,234,36,209,38,237,32,220,38,287,32*65
$BDGSV,4,3,14,204,34,133,30,223,33,106,32,229,28,299,24,225,18,052,25*67
$BDGSV,4,4,14,227,12,184,31,205,10,258,*6F
$GAGSV,2,1,06,104,73,317,28,112,40,180,27,119,33,054,29,109,28,257,24*6E
$GAGSV,2,2,06,121,13,074,27,101,10,124,23*6F
$GPGSA,A,3,02,05,13,15,21,24,29,30,,,,,2.5,1.5,2.0*3F
$GNGSA,A,3,02,05,13,15,21,24,29,30,,,,,2.5,1.5,2.0*21
$GNGSA,A,3,66,67,75,76,81,,,,,,,,2.5,1.5,2.0*26
$QZGSA,A,3,01,02,03,,,,,,,,,,2.5,1.5,2.0*2F
$IMGSA,A,3,,,,,,,,,,,,,2.5,1.5,2.0*20
$BDGSA,A,3,204,206,208,209,213,216,220,223,227,230,,,2.5,1.5,2.0*21
$GAGSA,A,3,101,104,112,119,121,,,,,,,,2.5,1.5,2.0*1E
$GPRMC,024242.00,A,3722.863037,N,12640.713906,E,000.0,217.9,231119,,,A*5E
$GPGGA,024243.00,3722.863034,N,12640.713904,E,1,36,0.3,6.7,M,17.7,M,,*6E
$GPGSV,2,1,08,13,78,031,30,15,62,257,39,05,54,071,39,29,27,249,30*7E
$GPGSV,2,2,08,21,25,315,26,30,25,053,30,02,25,155,37,24,11,189,27*74
$GLGSV,2,1,05,66,52,014,34,81,48,218,34,67,40,291,31,76,26,101,35*61
$GLGSV,2,2,05,75,20,048,35*5A
$QZGSV,1,1,03,01,77,065,38,02,19,153,35,03,19,182,32*55
$BDGSV,4,1,14,213,74,276,32,208,68,172,33,206,67,250,37,216,61,248,29*68
$BDGSV,4,2,14,203,44,206,,230,39,234,36,209,38,237,32,220,38,287,32*65
$BDGSV,4,3,14,204,34,133,30,223,33,106,32,229,28,299,23,225,18,052,24*61
$BDGSV,4,4,14,227,12,184,31,205,10,258,*6F
$GAGSV,2,1,06,104,73,317,28,112,40,180,,119,33,054,29,109,28,257,25*6A
$GAGSV,2,2,06,121,13,074,28,101,10,124,27*64
$GPGSA,A,3,02,05,13,15,21,24,29,30,,,,,2.6,1.7,1.9*34
$GNGSA,A,3,02,05,13,15,21,24,29,30,,,,,2.6,1.7,1.9*2A
$GNGSA,A,3,66,67,75,76,81,,,,,,,,2.6,1.7,1.9*2D
$QZGSA,A,3,01,02,03,,,,,,,,,,2.6,1.7,1.9*24
$IMGSA,A,3,,,,,,,,,,,,,2.6,1.7,1.9*2B
$BDGSA,A,3,204,206,208,209,213,216,220,223,227,229,230,,2.6,1.7,1.9*13
$GAGSA,A,3,101,104,109,119,121,,,,,,,,2.6,1.7,1.9*1F
$GPRMC,024243.00,A,3722.863034,N,12640.713904,E,000.0,217.9,231119,,,A*5E
$GPGGA,024244.00,3722.863033,N,12640.713903,E,1,35,0.4,6.6,M,17.7,M,,*6C
$GPGSV,2,1,08,13,78,031,30,15,62,257,39,05,54,071,39,29,27,249,29*76
$GPGSV,2,2,08,21,25,315,26,30,25,053,30,02,25,155,37,24,11,189,27*74
$GLGSV,2,1,05,66,52,014,34,81,48,218,34,67,40,291,29,76,26,101,34*69
$GLGSV,2,2,05,75,20,048,35*5A
$QZGSV,1,1,03,01,77,065,38,02,19,153,34,03,19,182,31*57
$BDGSV,4,1,14,213,74,276,32,208,68,172,33,206,67,250,37,216,61,248,29*68
$BDGSV,4,2,14,203,44,206,,230,39,234,36,209,38,237,31,220,38,287,32*66
$BDGSV,4,3,14,204,34,133,30,223,33,106,31,229,28,299,22,225,18,052,24*63
$BDGSV,4,4,14,227,12,184,30,205,10,258,*6E
$GAGSV,2,1,06,104,73,317,28,112,40,180,28,119,33,054,29,109,28,257,*67
$GAGSV,2,2,06,136,21,319,,121,13,074,27*64
$GPGSA,A,3,02,05,13,15,21,24,29,30,,,,,3.8,2.8,2.6*3B
$GNGSA,A,3,02,05,13,15,21,24,29,30,,,,,3.8,2.8,2.6*25
$GNGSA,A,3,66,75,76,81,,,,,,,,,3.8,2.8,2.6*23
$QZGSA,A,3,01,02,03,,,,,,,,,,3.8,2.8,2.6*2B
$IMGSA,A,3,,,,,,,,,,,,,3.8,2.8,2.6*24
$BDGSA,A,3,204,206,208,209,213,216,220,223,225,227,230,,3.8,2.8,2.6*10
$GAGSA,A,3,104,112,119,121,,,,,,,,,3.8,2.8,2.6*2A
$GPRMC,024244.00,A,3722.863033,N,12640.713903,E,000.0,217.9,231119,,,A*59
$GPGGA,024245.00,3722.863030,N,12640.713903,E,1,36,0.4,6.6,M,17.7,M,,*6D
$GPGSV,2,1,08,13,78,031,29,15,62,257,40,05,54,071,39,29,27,249,28*71
$GPGSV,2,2,08,21,25,315,26,30,25,053,30,02,25,155,36,24,11,189,26*74
$GLGSV,2,1,05,66,52,015,34,81,48,218,33,67,40,291,28,76,26,101,34*6E
$GLGSV,2,2,05,75,20,048,35*5A
$QZGSV,1,1,03,01,77,065,38,02,19,153,33,03,19,182,31*50
$BDGSV,4,1,14,213,74,276,32,208,68,172,33,206,67,250,37,216,61,248,30*60
$BDGSV,4,2,14,203,44,206,,230,39,234,36,209,38,237,31,220,38,287,31*65
$BDGSV,4,3,14,204,34,133,30,223,33,106,31,229,28,299,22,225,18,052,23*64
$BDGSV,4,4,14,227,12,183,30,205,10,258,*69
$GAGSV,2,1,06,104,73,317,28,112,40,180,27,119,33,054,28,109,28,257,27*6C
$GAGSV,2,2,06,121,13,074,27,101,10,123,27*6C
$GPGSA,A,3,02,05,13,15,21,24,29,30,,,,,2.1,1.1,1.8*34
$GNGSA,A,3,02,05,13,15,21,24,29,30,,,,,2.1,1.1,1.8*2A
$GNGSA,A,3,66,67,75,76,81,,,,,,,,2.1,1.1,1.8*2D
$QZGSA,A,3,01,02,03,,,,,,,,,,2.1,1.1,1.8*24
$IMGSA,A,3,,,,,,,,,,,,,2.1,1.1,1.8*2B
$BDGSA,A,3,204,206,208,209,213,216,220,223,225,227,230,,2.1,1.1,1.8*1F
$GAGSA,A,3,101,104,109,112,119,121,,,,,,,2.1,1.1,1.8*2D
$GPRMC,024245.00,A,3722.863030,N,12640.713903,E,000.0,217.9,231119,,,A*5B
$GPGGA,024246.00,3722.863028,N,12640.713899,E,1,40,0.4,6.6,M,17.7,M,,*64
$GPGSV,2,1,08,13,78,031,29,15,62,257,40,05,54,071,39,29,27,249,28*71
$GPGSV,2,2,08,21,25,315,25,30,25,053,29,02,25,155,35,24,11,189,26*7C
$GLGSV,2,1,05,66,52,014,34,81,48,218,33,67,40,291,33,76,26,101,34*65
$GLGSV,2,2,05,75,20,048,34*5B
$QZGSV,1,1,03,01,77,065,38,02,19,153,32,03,19,182,30*50
$BDGSV,4,1,14,213,74,276,32,208,68,172,33,206,67,250,36,216,61,248,30*61
$BDGSV,4,2,14,203,44,206,,230,39,234,36,209,38,237,31,220,38,287,31*65
$BDGSV,4,3,14,204,34,133,30,223,33,106,31,229,28,299,25,225,18,052,23*63
$BDGSV,4,4,14,227,12,184,30,205,10,258,*6E
$GAGSV,2,1,06,104,73,317,28,112,40,180,26,119,33,054,28,109,28,257,27*6D
$GAGSV,2,2,06,121,13,074,26,101,10,124,27*6A
$GPGSA,A,3,02,05,13,15,21,24,29,30,,,,,3.2,2.4,2.1*3A
$GNGSA,A,3,02,05,13,15,21,24,29,30,,,,,3.2,2.4,2.1*24
$GNGSA,A,3,66,67,75,76,81,,,,,,,,3.2,2.4,2.1*23
$QZGSA,A,3,01,02,03,,,,,,,,,,3.2,2.4,2.1*2A
$IMGSA,A,3,,,,,,,,,,,,,3.2,2.4,2.1*25
$BDGSA,A,3,204,206,208,209,213,216,220,223,225,227,229,230,3.2,2.4,2.1*28
$GAGSA,A,3,101,104,109,112,119,121,,,,,,,3.2,2.4,2.1*23
$GPRMC,024246.00,A,3722.863028,N,12640.713899,E,000.1,217.9,231119,,,A*52
$GPGGA,024247.00,3722.862820,N,12640.713732,E,1,39,0.4,6.6,M,17.7,M,,*64
$GPGSV,2,1,08,13,78,031,32,15,62,257,39,05,54,071,40,29,27,249,35*77
$GPGSV,2,2,08,21,25,315,26,30,25,053,29,02,25,155,34,24,11,189,26*7E
$GLGSV,2,1,05,66,52,015,34,81,48,218,37,67,40,291,34,76,26,101,34*67
$GLGSV,2,2,05,75,20,048,34*5B
$QZGSV,1,1,03,01,77,065,38,02,19,153,32,03,19,182,29*58
$BDGSV,4,1,14,213,74,276,32,208,68,172,33,206,67,250,36,216,61,248,30*61
$BDGSV,4,2,14,203,44,206,,230,39,234,35,209,38,237,31,220,38,287,31*66
$BDGSV,4,3,14,204,34,133,32,223,33,106,31,229,28,299,28,225,18,052,23*6C
$BDGSV,4,4,14,227,12,183,29,205,10,258,*61
$GAGSV,2,1,06,104,73,317,27,112,40,180,26,119,33,054,28,109,28,257,27*62
$GAGSV,2,2,06,121,13,074,26,101,10,124,*6F
$GPGSA,A,3,02,05,13,15,21,24,29,30,,,,,2.3,1.4,1.8*33
$GNGSA,A,3,02,05,13,15,21,24,29,30,,,,,2.3,1.4,1.8*2D
$GNGSA,A,3,66,67,75,76,81,,,,,,,,2.3,1.4,1.8*2A
$QZGSA,A,3,01,02,03,,,,,,,,,,2.3,1.4,1.8*23
$IMGSA,A,3,,,,,,,,,,,,,2.3,1.4,1.8*2C
$BDGSA,A,3,204,206,208,209,213,216,220,223,225,227,229,230,2.3,1.4,1.8*21
$GAGSA,A,3,104,109,112,119,121,,,,,,,,2.3,1.4,1.8*1A
$GPRMC,024247.00,A,3722.862820,N,12640.713732,E,001.4,226.2,231119,,,A*51
$GPGGA,024248.00,3722.862003,N,12640.712789,E,1,38,0.6,6.6,M,17.7,M,,*60
$GPGSV,2,1,08,13,78,031,33,15,62,257,39,05,54,071,40,29,27,249,34*77
$GPGSV,2,2,08,21,25,315,26,30,25,053,28,02,25,155,33,24,11,189,25*7B
$GLGSV,2,1,05,66,52,015,37,81,48,218,37,67,40,291,34,76,26,101,34*64
$GLGSV,2,2,05,75,20,048,33*5C
$QZGSV,1,1,03,01,77,065,38,02,19,153,31,03,19,182,29*5B
$BDGSV,4,1,14,213,74,276,32,208,68,172,35,206,67,250,36,216,61,248,30*67
$BDGSV,4,2,14,203,44,206,,230,39,234,35,209,38,237,31,220,38,287,31*66
$BDGSV,4,3,14,204,34,133,32,223,33,106,31,229,28,299,29,225,18,052,22*6C
$BDGSV,4,4,14,227,12,183,29,205,10,258,*61
$GAGSV,2,1,06,104,73,317,27,112,40,180,27,119,33,054,28,109,28,257,26*62
$GAGSV,2,2,06,121,13,074,25,101,10,123,26*6F
$GPGSA,A,3,02,05,13,15,21,24,29,30,,,,,1.8,1.0,1.5*32
$GNGSA,A,3,02,05,13,15,21,24,29,30,,,,,1.8,1.0,1.5*2C
$GNGSA,A,3,66,67,75,76,81,,,,,,,,1.8,1.0,1.5*2B
$QZGSA,A,3,01,02,03,,,,,,,,,,1.8,1.0,1.5*22
$IMGSA,A,3,,,,,,,,,,,,,1.8,1.0,1.5*2D
$BDGSA,A,3,204,206,208,209,213,216,220,223,225,227,229,230,1.8,1.0,1.5*20
$GAGSA,A,3,101,104,109,112,119,121,,,,,,,1.8,1.0,1.5*2B
$GPRMC,024248.00,A,3722.862003,N,12640.712789,E,003.1,217.8,231119,,,A*59
$GPGGA,024249.00,3722.860528,N,12640.711512,E,1,37,0.6,6.9,M,17.7,M,,*6C
$GPGSV,2,1,08,13,78,031,33,15,62,257,38,05,54,071,40,29,27,249,34*76
$GPGSV,2,2,08,21,25,315,28,30,25,053,27,02,25,155,32,24,11,189,24*7A
$GLGSV,2,1,05,66,52,015,37,81,48,218,37,67,40,291,34,76,26,101,33*63
$GLGSV,2,2,05,75,20,048,33*5C
$QZGSV,1,1,03,01,77,065,39,02,19,153,31,03,19,182,29*5A
$BDGSV,4,1,14,213,74,276,32,208,68,172,35,206,67,250,36,216,61,248,31*66
$BDGSV,4,2,14,203,44,206,,230,39,234,35,209,38,237,30,220,38,287,31*67
$BDGSV,4,3,14,204,34,133,31,223,33,106,32,229,28,299,29,225,18,052,21*6F
$BDGSV,4,4,14,227,12,183,29,205,10,258,*61
$GAGSV,2,1,06,104,73,317,27,112,40,180,27,119,33,054,28,109,28,257,26*62
$GAGSV,2,2,06,136,21,319,27,121,13,074,25*63
$GPGSA,A,3,02,05,13,15,21,24,29,30,,,,,1.7,1.0,1.4*3C
$GNGSA,A,3,02,05,13,15,21,24,29,30,,,,,1.7,1.0,1.4*22
$GNGSA,A,3,66,67,75,76,81,,,,,,,,1.7,1.0,1.4*25
$QZGSA,A,3,01,02,03,,,,,,,,,,1.7,1.0,1.4*2C
$IMGSA,A,3,,,,,,,,,,,,,1.7,1.0,1.4*23
$BDGSA,A,3,204,206,208,209,213,216,220,223,227,229,230,,1.7,1.0,1.4*1B
$GAGSA,A,3,104,109,112,119,121,136,,,,,,,1.7,1.0,1.4*21
$GPRMC,024249.00,A,3722.860528,N,12640.711512,E,005.3,219.8,231119,,,A*5F
$GPGGA,024250.00,3722.856939,N,12640.708771,E,1,37,0.6,6.3,M,17.7,M,,*68
$GPGSV,2,1,08,13,78,031,32,15,62,257,38,05,54,071,40,29,27,249,34*77
$GPGSV,2,2,08,21,25,315,28,30,25,053,26,02,25,155,32,24,11,189,24*7B
$GLGSV,2,1,05,66,52,015,36,81,48,218,37,67,40,291,34,76,26,101,34*65
$GLGSV,2,2,05,75,20,048,32*5D
$QZGSV,1,1,03,01,77,065,39,02,19,153,30,03,19,182,30*53
$BDGSV,4,1,14,213,74,276,32,208,68,172,35,206,67,250,36,216,61,248,32*65
$BDGSV,4,2,14,203,44,206,18,230,39,234,35,209,38,237,30,220,38,287,30*6F
$BDGSV,4,3,14,204,34,133,31,223,33,106,32,229,28,299,29,225,18,052,*6C
$BDGSV,4,4,14,227,12,183,29,205,10,258,*61
$GAGSV,2,1,06,104,73,317,26,112,40,180,27,119,33,054,28,109,28,257,25*60
$GAGSV,2,2,06,136,21,319,26,121,13,074,*65
$GPGSA,A,3,02,05,13,15,21,24,29,,,,,,2.7,1.8,2.0*33
$GNGSA,A,3,02,05,13,15,21,24,29,,,,,,2.7,1.8,2.0*2D
$GNGSA,A,3,66,67,75,76,81,,,,,,,,2.7,1.8,2.0*29
$QZGSA,A,3,01,02,03,,,,,,,,,,2.7,1.8,2.0*20
$IMGSA,A,3,,,,,,,,,,,,,2.7,1.8,2.0*2F
$BDGSA,A,3,204,206,208,209,213,216,220,223,227,229,230,,2.7,1.8,2.0*17
$GAGSA,A,3,104,109,112,119,136,,,,,,,,2.7,1.8,2.0*1F
$GPRMC,024250.00,A,3722.856939,N,12640.708771,E,008.8,213.6,231119,,,A*53
$GPGGA,024251.00,3722.853392,N,12640.705466,E,1,37,0.6,6.3,M,17.7,M,,*6F
$GPGSV,2,1,08,13,78,031,32,15,62,257,38,05,54,071,40,29,27,249,33*70
$GPGSV,2,2,08,21,25,315,27,30,25,053,25,02,25,155,31,24,11,189,24*74
$GLGSV,2,1,05,66,52,015,36,81,48,218,37,67,40,291,34,76,26,101,33*62
$GLGSV,2,2,05,75,20,048,31*5E
$QZGSV,1,1,03,01,77,065,39,02,19,153,29,03,19,182,30*5B
$BDGSV,4,1,14,213,74,276,34,208,68,172,35,206,67,250,36,216,61,248,33*62
$BDGSV,4,2,14,203,44,206,21,230,39,234,35,209,38,237,30,220,38,287,29*6D
$BDGSV,4,3,14,204,34,133,31,223,33,106,32,229,28,299,28,225,18,052,*6D
$BDGSV,4,4,14,227,12,183,29,205,10,258,*61
$GAGSV,2,1,06,104,73,317,26,112,40,180,27,119,33,054,28,109,28,257,28*6D
$GAGSV,2,2,06,136,21,319,26,121,13,074,26*61
$GPGSA,A,3,02,05,13,15,21,24,29,30,,,,,2.3,1.9,1.2*34
$GNGSA,A,3,02,05,13,15,21,24,29,30,,,,,2.3,1.9,1.2*2A
$GNGSA,A,3,66,67,75,76,81,,,,,,,,2.3,1.9,1.2*2D
$QZGSA,A,3,01,02,03,,,,,,,,,,2.3,1.9,1.2*24
$IMGSA,A,3,,,,,,,,,,,,,2.3,1.9,1.2*2B
$BDGSA,A,3,203,204,206,208,209,213,216,220,223,227,229,230,2.3,1.9,1.2*22
$GAGSA,A,3,104,109,112,119,121,136,,,,,,,2.3,1.9,1.2*29
$GPRMC,024251.00,A,3722.853392,N,12640.705466,E,011.5,216.3,231119,,,A*51
$GPGGA,024252.00,3722.849653,N,12640.702169,E,1,36,0.6,6.3,M,17.7,M,,*63
$GPGSV,2,1,08,13,78,031,31,15,62,257,38,05,54,071,40,29,27,249,33*73
$GPGSV,2,2,08,21,25,315,27,30,25,053,26,02,25,155,31,24,11,189,24*77
$GLGSV,2,1,05,66,52,015,36,81,48,218,37,67,40,291,34,76,26,101,33*62
$GLGSV,2,2,05,75,20,048,30*5F
$QZGSV,1,1,03,01,77,065,39,02,19,153,28,03,19,182,30*5A
$BDGSV,4,1,14,213,74,276,34,208,68,172,35,206,67,250,36,216,61,248,33*62
$BDGSV,4,2,14,203,44,206,21,230,39,234,35,209,38,237,30,220,38,287,28*6C
$BDGSV,4,3,14,204,34,133,32,223,33,106,31,229,28,299,28,225,18,052,19*65
$BDGSV,4,4,14,227,12,183,28,205,10,258,*60
$GAGSV,2,1,06,104,73,317,26,112,40,180,27,119,33,054,28,109,28,257,28*6D
$GAGSV,2,2,06,136,21,319,26,121,13,074,*65
$GPGSA,A,3,02,05,13,15,21,24,29,30,,,,,1.5,0.9,1.2*30
$GNGSA,A,3,02,05,13,15,21,24,29,30,,,,,1.5,0.9,1.2*2E
$GNGSA,A,3,66,67,75,76,81,,,,,,,,1.5,0.9,1.2*29
$QZGSA,A,3,01,03,,,,,,,,,,,1.5,0.9,1.2*22
$IMGSA,A,3,,,,,,,,,,,,,1.5,0.9,1.2*2F
$BDGSA,A,3,203,204,206,208,209,213,216,223,227,229,230,,1.5,0.9,1.2*16
$GAGSA,A,3,104,109,112,119,136,,,,,,,,1.5,0.9,1.2*1F
$GPRMC,024252.00,A,3722.849653,N,12640.702169,E,013.3,216.6,231119,,,A*5D
$GPGGA,024253.00,3722.845968,N,12640.698838,E,1,37,1.2,6.3,M,17.7,M,,*62
$GPGSV,2,1,08,13,78,031,31,15,62,257,37,05,54,071,40,29,27,249,33*7C
$GPGSV,2,2,08,21,25,315,27,30,25,053,26,02,25,155,30,24,11,189,24*76
$GLGSV,2,1,05,66,52,015,36,81,48,218,37,67,40,291,34,76,26,101,32*63
$GLGSV,2,2,05,75,20,048,30*5F
$QZGSV,1,1,03,01,77,065,39,02,19,153,27,03,19,182,29*5D
$BDGSV,4,1,14,213,74,276,34,208,68,172,35,206,67,250,36,216,61,248,33*62
$BDGSV,4,2,14,203,44,206,21,230,39,234,34,209,38,237,30,220,38,287,27*62
$BDGSV,4,3,14,204,34,133,33,223,33,106,30,229,28,299,27,225,18,052,19*6A
$BDGSV,4,4,14,227,12,183,26,205,10,258,*6E
$GAGSV,2,1,06,104,73,317,25,112,40,180,27,119,33,054,27,109,28,257,28*61
$GAGSV,2,2,06,136,21,319,25,121,13,074,24*60
$GPGSA,A,3,02,05,13,15,21,24,29,30,,,,,3.1,2.4,1.9*32
$GNGSA,A,3,02,05,13,15,21,24,29,30,,,,,3.1,2.4,1.9*2C
$GNGSA,A,3,66,67,75,76,81,,,,,,,,3.1,2.4,1.9*2B
$QZGSA,A,3,01,02,03,,,,,,,,,,3.1,2.4,1.9*22
$IMGSA,A,3,,,,,,,,,,,,,3.1,2.4,1.9*2D
$BDGSA,A,3,204,206,208,209,213,216,220,223,225,229,230,,3.1,2.4,1.9*17
$GAGSA,A,3,104,109,112,119,121,136,,,,,,,3.1,2.4,1.9*2F
$GPRMC,024253.00,A,3722.845968,N,12640.698838,E,016.1,217.0,231119,,,A*58
$GPGGA,024254.00,3722.842462,N,12640.695486,E,1,38,0.8,6.4,M,17.7,M,,*62
$GPGSV,2,1,08,13,78,031,31,15,62,257,37,05,54,071,40,29,27,249,32*7D
$GPGSV,2,2,08,21,25,315,26,30,25,053,26,02,25,155,30,24,11,189,25*76
$GLGSV,2,1,05,66,52,015,36,81,48,218,37,67,40,291,35,76,26,101,32*62
$GLGSV,2,2,05,75,20,048,29*57
$QZGSV,1,1,03,01,77,065,39,02,19,153,26,03,19,182,29*5C
$BDGSV,4,1,14,213,74,276,34,208,68,172,34,206,67,250,36,216,61,248,33*63
$BDGSV,4,2,14,203,44,206,21,230,39,234,34,209,38,237,30,220,38,287,27*62
$BDGSV,4,3,14,204,34,133,33,223,33,106,30,229,28,299,27,225,18,052,19*6A
$BDGSV,4,4,14,227,12,183,26,205,10,258,*6E
$GAGSV,2,1,06,104,73,317,24,112,40,180,28,119,33,054,27,109,28,257,28*6F
$GAGSV,2,2,06,136,21,319,24,121,13,074,27*62
$GPGSA,A,3,02,05,13,15,21,24,29,30,,,,,2.9,1.8,2.3*3D
$GNGSA,A,3,02,05,13,15,21,24,29,30,,,,,2.9,1.8,2.3*23
$GNGSA,A,3,66,67,75,76,81,,,,,,,,2.9,1.8,2.3*24
$QZGSA,A,3,01,02,03,,,,,,,,,,2.9,1.8,2.3*2D
$IMGSA,A,3,,,,,,,,,,,,,2.9,1.8,2.3*22
$BDGSA,A,3,203,204,206,208,209,213,216,220,223,225,229,230,2.9,1.8,2.3*29
$GAGSA,A,3,104,109,112,119,121,136,,,,,,,2.9,1.8,2.3*20
$GPRMC,024254.00,A,3722.842462,N,12640.695486,E,015.9,217.2,231119,,,A*52
$GPGGA,024255.00,3722.838946,N,12640.692102,E,1,35,2.4,6.4,M,17.7,M,,*68
$GPGSV,2,1,08,13,78,031,31,15,62,257,37,05,54,071,40,29,27,249,32*7D
$GPGSV,2,2,08,21,25,315,26,30,25,053,26,02,25,155,29,24,11,189,26*7D
$GLGSV,2,1,05,66,52,015,36,81,48,218,37,67,40,291,35,76,26,101,31*61
$GLGSV,2,2,05,75,19,048,28*5C
$QZGSV,1,1,03,01,77,065,39,02,19,153,25,03,19,182,29*5F
$BDGSV,4,1,14,213,74,276,34,208,68,172,34,206,67,250,36,216,61,248,33*63
$BDGSV,4,2,14,203,44,206,20,230,39,234,34,209,38,237,30,220,38,287,26*62
$BDGSV,4,3,14,204,34,133,32,223,33,106,29,229,28,299,26,225,18,052,18*63
$BDGSV,4,4,14,227,12,183,24,205,10,258,*6C
$GAGSV,2,1,06,104,73,317,24,112,40,180,28,119,33,054,27,109,28,257,27*60
$GAGSV,2,2,06,136,21,319,,121,13,074,27*64
$GPGSA,A,3,02,05,13,15,21,24,29,30,,,,,5.7,4.6,3.4*39
$GNGSA,A,3,02,05,13,15,21,24,29,30,,,,,5.7,4.6,3.4*27
$GNGSA,A,3,66,67,75,76,81,,,,,,,,5.7,4.6,3.4*20
$QZGSA,A,3,01,02,03,,,,,,,,,,5.7,4.6,3.4*29
$IMGSA,A,3,,,,,,,,,,,,,5.7,4.6,3.4*26
$BDGSA,A,3,203,204,206,208,209,213,216,220,223,229,230,,5.7,4.6,3.4*18
$GAGSA,A,3,104,109,112,119,121,,,,,,,,5.7,4.6,3.4*10
$GPRMC,024255.00,A,3722.838946,N,12640.692102,E,015.8,217.2,231119,,,A*5A
$GPGGA,024256.00,3722.835418,N,12640.688736,E,1,37,0.6,6.4,M,17.7,M,,*68
$GPGSV,2,1,08,13,78,031,31,15,62,257,37,05,54,071,40,29,27,249,32*7D
$GPGSV,2,2,08,21,25,315,26,30,25,053,27,02,25,155,29,24,11,189,26*7C
$GLGSV,2,1,05,66,52,015,36,81,48,218,37,67,40,291,35,76,26,101,31*61
$GLGSV,2,2,05,75,19,048,28*5C
$QZGSV,1,1,03,01,77,065,38,02,19,153,25,03,19,182,29*5E
$BDGSV,4,1,14,213,74,276,34,208,68,172,34,206,67,250,36,216,61,248,33*63
$BDGSV,4,2,14,203,44,206,24,230,39,234,34,209,38,237,30,220,38,287,26*66
$BDGSV,4,3,14,204,34,133,32,223,33,106,29,229,28,299,26,225,18,052,18*63
$BDGSV,4,4,14,227,12,183,23,205,10,258,*6B
$GAGSV,2,1,06,104,73,317,23,112,40,180,28,119,33,054,27,109,28,257,26*66
$GAGSV,2,2,06,136,21,319,24,121,13,074,27*62
$GPGSA,A,3,02,05,13,15,21,24,29,30,,,,,1.7,0.9,1.4*34
$GNGSA,A,3,02,05,13,15,21,24,29,30,,,,,1.7,0.9,1.4*2A
$GNGSA,A,3,66,67,75,76,81,,,,,,,,1.7,0.9,1.4*2D
$QZGSA,A,3,01,02,03,,,,,,,,,,1.7,0.9,1.4*24
$IMGSA,A,3,,,,,,,,,,,,,1.7,0.9,1.4*2B
$BDGSA,A,3,203,204,206,208,209,213,216,220,223,229,230,,1.7,0.9,1.4*15
$GAGSA,A,3,104,109,112,119,121,136,,,,,,,1.7,0.9,1.4*29
$GPRMC,024256.00,A,3722.835418,N,12640.688736,E,015.8,217.2,231119,,,A*58
$GPGGA,024257.00,3722.831834,N,12640.685488,E,1,37,0.6,6.4,M,17.7,M,,*64
$GPGSV,2,1,08,13,78,031,32,15,62,257,37,05,54,071,40,29,27,249,32*7E
$GPGSV,2,2,08,21,25,315,25,30,25,053,27,02,25,155,29,24,11,189,25*7C
$GLGSV,2,1,05,66,52,015,36,81,48,218,37,67,40,291,35,76,26,101,32*62
$GLGSV,2,2,05,75,19,048,27*53
$QZGSV,1,1,03,01,77,065,38,02,19,153,24,03,19,182,29*5F
$BDGSV,4,1,14,213,74,276,35,208,68,172,34,206,67,250,36,216,61,248,33*62
$BDGSV,4,2,14,203,44,206,23,230,39,234,33,209,38,237,29,220,38,287,26*6E
$BDGSV,4,3,14,204,34,133,32,223,33,106,29,229,28,299,25,225,18,052,18*60
$BDGSV,4,4,14,227,12,183,22,205,10,258,*6A
$GAGSV,2,1,06,104,73,317,23,112,40,180,28,119,33,054,26,109,28,257,26*67
$GAGSV,2,2,06,136,21,319,,121,13,074,26*65
$GPGSA,A,3,02,05,13,15,21,24,29,30,,,,,1.6,0.8,1.4*34
$GNGSA,A,3,02,05,13,15,21,24,29,30,,,,,1.6,0.8,1.4*2A
$GNGSA,A,3,66,67,75,76,81,,,,,,,,1.6,0.8,1.4*2D
$QZGSA,A,3,01,02,03,,,,,,,,,,1.6,0.8,1.4*24
$IMGSA,A,3,,,,,,,,,,,,,1.6,0.8,1.4*2B
$BDGSA,A,3,203,204,206,208,209,213,216,220,223,225,229,230,1.6,0.8,1.4*20
$GAGSA,A,3,104,109,112,119,121,,,,,,,,1.6,0.8,1.4*1D
$GPRMC,024257.00,A,3722.831834,N,12640.685488,E,015.7,217.4,231119,,,A*5D
$GPGGA,024258.00,3722.828331,N,12640.682138,E,1,37,0.6,6.4,M,17.7,M,,*64
$GPGSV,2,1,08,13,78,031,32,15,62,257,37,05,54,071,41,29,27,249,32*7F
$GPGSV,2,2,08,21,25,315,25,30,25,053,27,02,25,155,28,24,11,189,25*7D
$GLGSV,2,1,05,66,52,015,35,81,48,218,37,67,40,291,35,76,26,101,32*61
$GLGSV,2,2,05,75,19,048,26*52
$QZGSV,1,1,03,01,77,065,39,02,19,153,24,03,19,182,28*5F
$BDGSV,4,1,14,213,74,276,35,208,68,172,33,206,67,250,36,216,61,249,33*64
$BDGSV,4,2,14,203,44,206,23,230,38,234,33,209,38,237,29,220,38,287,25*6C
$BDGSV,4,3,14,204,34,133,32,223,33,106,28,229,28,299,25,225,18,052,17*6E
$BDGSV,4,4,14,227,12,183,,205,10,258,*6A
$GAGSV,2,1,06,104,73,317,23,112,40,180,28,119,33,054,26,109,28,257,26*67
$GAGSV,2,2,06,136,21,319,25,121,13,074,26*62
$GPGSA,A,3,02,05,13,15,21,24,29,30,,,,,1.7,0.9,1.4*34
$GNGSA,A,3,02,05,13,15,21,24,29,30,,,,,1.7,0.9,1.4*2A
$GNGSA,A,3,66,67,75,76,81,,,,,,,,1.7,0.9,1.4*2D
$QZGSA,A,3,01,02,03,,,,,,,,,,1.7,0.9,1.4*24
$IMGSA,A,3,,,,,,,,,,,,,1.7,0.9,1.4*2B
$BDGSA,A,3,203,204,206,208,209,213,216,220,223,229,230,,1.7,0.9,1.4*15
$GAGSA,A,3,104,109,112,119,121,136,,,,,,,1.7,0.9,1.4*29
$GPRMC,024258.00,A,3722.828331,N,12640.682138,E,015.7,217.4,231119,,,A*5D
$GPGGA,024259.00,3722.824802,N,12640.678814,E,1,36,0.6,6.4,M,17.7,M,,*61
$GPGSV,2,1,08,13,78,031,32,15,62,257,37,05,54,071,41,29,27,249,32*7F
$GPGSV,2,2,08,21,25,315,24,30,25,053,27,02,25,155,28,24,11,189,25*7C
$GLGSV,2,1,05,66,52,015,35,81,48,218,37,67,40,291,35,76,26,101,32*61
$GLGSV,2,2,05,75,19,048,26*52
$QZGSV,1,1,03,01,77,065,39,02,19,153,25,03,19,182,28*5E
$BDGSV,4,1,14,213,74,276,35,208,68,172,33,206,67,250,35,216,61,249,34*60
$BDGSV,4,2,14,203,44,206,27,230,38,234,33,209,38,237,29,220,38,287,25*68
$BDGSV,4,3,14,204,34,133,32,223,33,106,28,229,28,299,25,225,18,052,*68
$BDGSV,4,4,14,227,12,183,20,205,10,258,*68
$GAGSV,2,1,06,104,73,317,22,112,40,180,28,119,33,054,26,109,28,257,26*66
$GAGSV,2,2,06,136,21,319,24,121,13,074,25*60
$GPGSA,A,3,02,05,13,15,21,24,29,30,,,,,2.2,0.8,2.1*35
$GNGSA,A,3,02,05,13,15,21,24,29,30,,,,,2.2,0.8,2.1*2B
$GNGSA,A,3,66,67,75,76,81,,,,,,,,2.2,0.8,2.1*2C
$QZGSA,A,3,01,02,03,,,,,,,,,,2.2,0.8,2.1*25
$IMGSA,A,3,,,,,,,,,,,,,2.2,0.8,2.1*2A
$BDGSA,A,3,203,204,206,208,209,213,216,220,223,229,230,,2.2,0.8,2.1*14
$GAGSA,A,3,104,109,112,119,121,136,,,,,,,2.2,0.8,2.1*28
$GPRMC,024259.00,A,3722.824802,N,12640.678814,E,015.7,217.5,231119,,,A*58
$GPGGA,024300.00,3722.821328,N,12640.675529,E,1,34,0.8,6.4,M,17.7,M,,*68
$GPGSV,2,1,08,13,78,031,32,15,62,257,37,05,54,071,42,29,27,249,32*7C
$GPGSV,2,2,08,21,25,315,24,30,25,053,28,02,25,155,28,24,11,189,24*72
$GLGSV,2,1,05,66,52,015,35,81,48,218,38,67,40,291,37,76,26,101,32*6C
$GLGSV,2,2,05,75,19,048,26*52
$QZGSV,1,1,03,01,77,065,39,02,19,153,25,03,19,182,28*5E
$BDGSV,4,1,14,213,74,276,35,208,68,172,33,206,67,250,35,216,61,249,34*60
$BDGSV,4,2,14,203,44,206,29,230,38,234,33,209,38,237,29,220,38,287,25*66
$BDGSV,4,3,14,204,34,133,32,223,33,105,27,229,28,299,24,225,18,052,17*63
$BDGSV,4,4,14,227,12,183,,205,10,258,*6A
$GAGSV,2,1,06,104,73,317,22,112,40,180,27,119,33,054,26,109,28,257,26*69
$GAGSV,2,2,06,136,21,319,,121,13,074,25*66
$GPGSA,A,3,02,05,13,15,21,24,29,30,,,,,3.6,1.1,3.4*3C
$GNGSA,A,3,02,05,13,15,21,24,29,30,,,,,3.6,1.1,3.4*22
$GNGSA,A,3,66,67,75,76,81,,,,,,,,3.6,1.1,3.4*25
$QZGSA,A,3,01,02,03,,,,,,,,,,3.6,1.1,3.4*2C
$IMGSA,A,3,,,,,,,,,,,,,3.6,1.1,3.4*23
$BDGSA,A,3,203,204,206,208,209,213,216,220,223,229,230,,3.6,1.1,3.4*1D
$GAGSA,A,3,104,109,112,119,121,,,,,,,,3.6,1.1,3.4*15
$GPRMC,024300.00,A,3722.821328,N,12640.675529,E,015.7,217.4,231119,,,A*5C
$GPGGA,024301.00,3722.817842,N,12640.672233,E,1,36,0.8,6.5,M,17.7,M,,*63
$GPGSV,2,1,08,13,78,031,32,15,62,257,38,05,54,071,42,29,27,249,31*70
$GPGSV,2,2,08,21,25,315,23,30,25,053,28,02,25,155,28,24,11,189,24*75
$GLGSV,2,1,05,66,52,015,35,81,48,218,38,67,40,291,36,76,26,101,32*6D
$GLGSV,2,2,05,75,19,048,26*52
$QZGSV,1,1,03,01,77,065,39,02,19,153,26,03,19,182,27*52
$BDGSV,4,1,14,213,74,276,35,208,68,172,33,206,67,250,35,216,61,249,34*60
$BDGSV,4,2,14,203,44,206,28,230,38,234,33,209,38,237,29,220,38,287,24*66
$BDGSV,4,3,14,204,34,133,32,223,33,105,27,229,28,299,24,225,18,052,16*62
$BDGSV,4,4,14,227,12,183,19,205,10,258,*62
$GAGSV,2,1,06,104,73,317,22,112,40,180,27,119,33,054,26,109,28,257,25*6A
$GAGSV,2,2,06,136,21,319,,121,13,074,25*66
$GPGSA,A,3,02,05,13,15,21,24,29,30,,,,,1.9,0.9,1.6*38
$GNGSA,A,3,02,05,13,15,21,24,29,30,,,,,1.9,0.9,1.6*26
$GNGSA,A,3,66,67,75,76,81,,,,,,,,1.9,0.9,1.6*21
$QZGSA,A,3,01,02,03,,,,,,,,,,1.9,0.9,1.6*28
$IMGSA,A,3,,,,,,,,,,,,,1.9,0.9,1.6*27
$BDGSA,A,3,203,204,206,208,209,213,216,220,223,227,229,230,1.9,0.9,1.6*2E
$GAGSA,A,3,104,109,112,119,121,,,,,,,,1.9,0.9,1.6*11
$GPRMC,024301.00,A,3722.817842,N,12640.672233,E,015.6,217.4,231119,,,A*55
$GPGGA,024302.00,3722.814354,N,12640.668971,E,1,37,0.8,6.5,M,17.7,M,,*68
$GPGSV,2,1,08,13,78,031,32,15,62,257,38,05,54,071,41,29,27,249,31*73
$GPGSV,2,2,08,21,25,315,23,30,25,053,28,02,25,155,28,24,11,189,23*72
$GLGSV,2,1,05,66,52,015,35,81,48,218,38,67,40,291,36,76,26,101,32*6D
$GLGSV,2,2,05,75,19,048,27*53
$QZGSV,1,1,03,01,77,065,39,02,19,153,27,03,19,182,27*53
$BDGSV,4,1,14,213,74,276,35,208,68,172,33,206,67,250,35,216,61,249,34*60
$BDGSV,4,2,14,203,44,206,28,230,38,234,32,209,38,237,28,220,38,288,24*69
$BDGSV,4,3,14,204,34,133,32,223,33,105,26,229,28,299,26,225,18,052,16*61
$BDGSV,4,4,14,227,12,183,19,205,10,258,*62
$GAGSV,2,1,06,104,73,317,25,112,40,180,27,119,33,054,25,109,28,257,25*6E
$GAGSV,2,2,06,136,21,319,22,121,13,074,25*66
$GPGSA,A,3,02,05,13,15,21,24,29,30,,,,,2.3,0.8,2.1*34
$GNGSA,A,3,02,05,13,15,21,24,29,30,,,,,2.3,0.8,2.1*2A
$GNGSA,A,3,66,67,75,76,81,,,,,,,,2.3,0.8,2.1*2D
$QZGSA,A,3,01,02,03,,,,,,,,,,2.3,0.8,2.1*24
$IMGSA,A,3,,,,,,,,,,,,,2.3,0.8,2.1*2B
$BDGSA,A,3,203,204,206,208,209,213,216,220,223,229,230,,2.3,0.8,2.1*15
$GAGSA,A,3,104,109,112,119,121,136,,,,,,,2.3,0.8,2.1*29
$GPRMC,024302.00,A,3722.814354,N,12640.668971,E,015.6,217.6,231119,,,A*5D
$GPGGA,024303.00,3722.810836,N,12640.665669,E,1,39,0.8,6.5,M,17.7,M,,*67
$GPGSV,2,1,08,13,78,031,32,15,62,257,37,05,54,071,41,29,27,249,31*7C
$GPGSV,2,2,08,21,25,315,23,30,25,053,28,02,25,155,28,24,11,189,23*72
$GLGSV,2,1,05,66,52,015,35,81,48,218,38,67,40,291,36,76,26,101,32*6D
$GLGSV,2,2,05,75,19,048,27*53
$QZGSV,1,1,03,01,77,065,38,02,19,153,27,03,19,182,27*52
$BDGSV,4,1,14,213,74,276,35,208,68,172,33,206,67,250,35,216,61,249,34*60
$BDGSV,4,2,14,203,44,206,28,230,38,234,32,209,38,237,28,220,38,288,24*69
$BDGSV,4,3,14,204,34,133,32,223,33,105,26,229,28,299,26,225,18,052,20*64
$BDGSV,4,4,14,227,12,183,19,205,10,258,*62
$GAGSV,2,1,06,104,73,317,29,112,40,180,26,119,33,054,25,109,28,258,25*6C
$GAGSV,2,2,06,136,21,319,23,121,13,074,25*67
$GPGSA,A,3,02,05,13,15,21,24,29,30,,,,,2.2,1.1,1.9*36
$GNGSA,A,3,02,05,13,15,21,24,29,30,,,,,2.2,1.1,1.9*28
$GNGSA,A,3,66,67,75,76,81,,,,,,,,2.2,1.1,1.9*2F
$QZGSA,A,3,01,02,03,,,,,,,,,,2.2,1.1,1.9*26
$IMGSA,A,3,,,,,,,,,,,,,2.2,1.1,1.9*29
$BDGSA,A,3,203,204,206,208,209,213,216,220,223,225,229,230,2.2,1.1,1.9*22
$GAGSA,A,3,104,109,112,119,121,136,,,,,,,2.2,1.1,1.9*2B
$GPRMC,024303.00,A,3722.810836,N,12640.665669,E,015.7,217.6,231119,,,A*5D
$GPGGA,024304.00,3722.807344,N,12640.662357,E,1,39,0.8,6.4,M,17.7,M,,*66
$GPGSV,2,1,08,13,78,031,32,15,62,257,37,05,54,071,41,29,27,249,31*7C
$GPGSV,2,2,08,21,25,315,23,30,25,053,29,02,25,155,27,24,11,189,22*7D
$GLGSV,2,1,05,66,52,015,35,81,48,218,38,67,40,291,36,76,26,101,32*6D
$GLGSV,2,2,05,75,19,048,27*53
$QZGSV,1,1,03,01,77,065,38,02,19,153,28,03,19,182,27*5D
$BDGSV,4,1,14,213,74,276,35,208,68,172,32,206,67,250,35,216,61,249,34*61
$BDGSV,4,2,14,203,44,206,28,230,38,234,32,209,38,237,28,220,38,288,24*69
$BDGSV,4,3,14,204,34,133,32,223,33,105,26,229,28,299,26,225,18,052,20*64
$BDGSV,4,4,14,227,12,183,18,205,10,258,*63
$GAGSV,2,1,06,104,73,317,28,112,40,180,26,119,33,054,25,109,28,258,24*6C
$GAGSV,2,2,06,136,21,319,,121,13,074,25*66
$GPGSA,A,3,02,05,13,15,21,24,29,30,,,,,2.9,1.1,2.6*31
$GNGSA,A,3,02,05,13,15,21,24,29,30,,,,,2.9,1.1,2.6*2F
$GNGSA,A,3,66,67,75,76,81,,,,,,,,2.9,1.1,2.6*28
$QZGSA,A,3,01,02,03,,,,,,,,,,2.9,1.1,2.6*21
$IMGSA,A,3,,,,,,,,,,,,,2.9,1.1,2.6*2E
$BDGSA,A,3,203,204,206,208,209,213,216,220,223,225,229,230,2.9,1.1,2.6*25
$GAGSA,A,3,104,109,112,119,121,,,,,,,,2.9,1.1,2.6*18
$GPRMC,024304.00,A,3722.807344,N,12640.662357,E,015.6,217.7,231119,,,A*5D
$GPGGA,024305.00,3722.803909,N,12640.659022,E,1,38,0.8,6.5,M,17.7,M,,*69
$GPGSV,2,1,08,13,78,031,32,15,62,257,37,05,54,071,42,29,27,249,31*7F
$GPGSV,2,2,08,21,25,315,22,30,25,053,30,02,25,155,27,24,11,189,22*74
$GLGSV,2,1,05,66,52,015,34,81,48,218,38,67,40,291,37,76,26,101,31*6E
$GLGSV,2,2,05,75,19,048,27*53
$QZGSV,1,1,03,01,77,065,38,02,19,153,29,03,19,182,26*5D
$BDGSV,4,1,14,213,74,276,35,208,68,172,32,206,67,250,35,216,61,249,34*61
$BDGSV,4,2,14,203,44,206,28,230,38,234,32,209,38,237,28,220,38,288,23*6E
$BDGSV,4,3,14,204,34,133,32,223,33,105,26,229,28,299,26,225,18,052,20*64
$BDGSV,4,4,14,227,12,183,18,205,10,258,*63
$GAGSV,2,1,06,104,73,317,28,112,40,180,26,119,33,054,25,109,28,258,24*6C
$GAGSV,2,2,06,136,21,319,,121,13,074,25*66
$GPGSA,A,3,02,05,13,15,21,24,29,30,,,,,2.9,1.2,2.6*32
$GNGSA,A,3,02,05,13,15,21,24,29,30,,,,,2.9,1.2,2.6*2C
$GNGSA,A,3,66,67,75,76,81,,,,,,,,2.9,1.2,2.6*2B
$QZGSA,A,3,01,02,03,,,,,,,,,,2.9,1.2,2.6*22
$IMGSA,A,3,,,,,,,,,,,,,2.9,1.2,2.6*2D
$BDGSA,A,3,203,204,206,208,209,213,216,220,223,225,229,230,2.9,1.2,2.6*26
$GAGSA,A,3,104,109,112,119,121,,,,,,,,2.9,1.2,2.6*1B
$GPRMC,024305.00,A,3722.803909,N,12640.659022,E,015.6,217.8,231119,,,A*5D
$GPGGA,024306.00,3722.800418,N,12640.655679,E,1,38,0.6,6.5,M,17.7,M,,*6E
$GPGSV,2,1,08,13,78,031,32,15,62,257,37,05,54,071,42,29,27,249,31*7F
$GPGSV,2,2,08,21,25,315,22,30,25,053,30,02,25,155,27,24,11,189,22*74
$GLGSV,2,1,05,66,52,015,34,81,48,218,38,67,40,291,37,76,26,101,31*6E
$GLGSV,2,2,05,75,19,048,28*5C
$QZGSV,1,1,03,01,77,065,38,02,19,153,29,03,19,182,26*5D
$BDGSV,4,1,14,213,74,276,35,208,68,172,32,206,67,250,35,216,61,249,34*61
$BDGSV,4,2,14,203,44,206,28,230,38,234,32,209,38,237,28,220,38,288,23*6E
$BDGSV,4,3,14,204,34,133,32,223,33,105,27,229,28,299,25,225,18,052,20*66
$BDGSV,4,4,14,227,12,183,18,205,10,258,*63
$GAGSV,2,1,06,104,73,317,28,112,40,180,26,119,33,054,25,109,28,258,24*6C
$GAGSV,2,2,06,136,21,319,22,121,13,074,24*67
$GPGSA,A,3,02,05,13,15,21,24,29,30,,,,,1.8,0.9,1.6*39
$GNGSA,A,3,02,05,13,15,21,24,29,30,,,,,1.8,0.9,1.6*27
$GNGSA,A,3,66,67,75,76,81,,,,,,,,1.8,0.9,1.6*20
$QZGSA,A,3,01,02,03,,,,,,,,,,1.8,0.9,1.6*29
$IMGSA,A,3,,,,,,,,,,,,,1.8,0.9,1.6*26
$BDGSA,A,3,203,204,206,208,209,213,216,220,223,225,229,230,1.8,0.9,1.6*2D
$GAGSA,A,3,104,109,112,119,121,136,,,,,,,1.8,0.9,1.6*24
$GPRMC,024306.00,A,3722.800418,N,12640.655679,E,015.6,217.8,231119,,,A*54
$GPGGA,024307.00,3722.796989,N,12640.652353,E,1,35,0.6,6.4,M,17.7,M,,*6C
$GPGSV,2,1,08,13,78,031,32,15,62,257,37,05,54,071,42,29,27,249,31*7F
$GPGSV,2,2,08,21,25,315,22,30,25,053,31,02,25,155,27,24,11,189,21*76
$GLGSV,2,1,05,66,52,015,34,81,48,218,37,67,40,291,37,76,26,101,31*61
$GLGSV,2,2,05,75,19,048,27*53
$QZGSV,1,1,03,01,77,065,38,02,19,153,29,03,19,182,26*5D
$BDGSV,4,1,14,213,74,276,34,208,68,172,32,206,67,250,35,216,61,249,34*60
$BDGSV,4,2,14,203,44,206,28,230,38,234,32,209,38,237,28,220,38,288,23*6E
$BDGSV,4,3,14,204,34,133,32,223,33,105,28,229,28,299,25,225,18,052,20*69
$BDGSV,4,4,14,227,12,183,17,205,10,258,*6C
$GAGSV,2,1,06,104,73,317,27,112,40,180,26,119,33,054,25,109,28,258,24*63
$GAGSV,2,2,06,136,21,319,22,121,13,074,*61
$GPGSA,A,3,02,05,13,15,21,24,29,30,,,,,3.1,2.2,2.1*3F
$GNGSA,A,3,02,05,13,15,21,24,29,30,,,,,3.1,2.2,2.1*21
$GNGSA,A,3,66,67,75,76,81,,,,,,,,3.1,2.2,2.1*26
$QZGSA,A,3,01,02,03,,,,,,,,,,3.1,2.2,2.1*2F
$IMGSA,A,3,,,,,,,,,,,,,3.1,2.2,2.1*20
$BDGSA,A,3,203,204,206,208,209,213,216,220,223,229,230,,3.1,2.2,2.1*1E
$GAGSA,A,3,104,109,112,119,,,,,,,,,3.1,2.2,2.1*24
$GPRMC,024307.00,A,3722.796989,N,12640.652353,E,015.6,217.8,231119,,,A*5A
$GPGGA,024308.00,3722.793561,N,12640.649038,E,1,37,0.6,6.4,M,17.7,M,,*6A
$GPGSV,2,1,08,13,78,031,32,15,62,257,37,05,54,071,42,29,27,249,30*7E
$GPGSV,2,2,08,21,25,315,22,30,25,053,31,02,25,155,27,24,11,189,21*76
$GLGSV,2,1,05,66,52,015,34,81,48,218,37,67,40,291,37,76,26,101,31*61
$GLGSV,2,2,05,75,19,048,28*5C
$QZGSV,1,1,03,01,77,065,38,02,19,153,30,03,19,182,26*55
$BDGSV,4,1,14,213,74,276,34,208,68,172,31,206,67,250,35,216,61,249,34*63
$BDGSV,4,2,14,203,44,206,28,230,38,234,32,209,38,237,28,220,38,288,23*6E
$BDGSV,4,3,14,204,34,133,32,223,33,105,28,229,28,299,25,225,18,052,19*63
$BDGSV,4,4,14,227,12,183,17,205,10,258,*6C
$GAGSV,2,1,06,104,73,317,27,112,40,180,26,119,33,054,25,109,28,258,24*63
$GAGSV,2,2,06,136,21,319,23,121,13,074,23*61
$GPGSA,A,3,02,05,13,15,21,24,29,30,,,,,2.0,1.1,1.7*3A
$GNGSA,A,3,02,05,13,15,21,24,29,30,,,,,2.0,1.1,1.7*24
$GNGSA,A,3,66,67,75,76,81,,,,,,,,2.0,1.1,1.7*23
$QZGSA,A,3,01,02,03,,,,,,,,,,2.0,1.1,1.7*2A
$IMGSA,A,3,,,,,,,,,,,,,2.0,1.1,1.7*25
$BDGSA,A,3,203,204,206,208,209,213,216,220,223,229,230,,2.0,1.1,1.7*1B
$GAGSA,A,3,104,109,112,119,121,136,,,,,,,2.0,1.1,1.7*27
$GPRMC,024308.00,A,3722.793561,N,12640.649038,E,015.7,217.9,231119,,,A*5E
$GPGGA,024309.00,3722.790266,N,12640.645593,E,1,38,0.6,6.0,M,17.7,M,,*6B
$GPGSV,2,1,08,13,78,031,31,15,62,257,37,05,54,071,42,29,27,249,30*7D
$GPGSV,2,2,08,21,25,315,26,30,25,053,32,02,25,155,28,24,11,189,21*7E
$GLGSV,2,1,05,66,52,015,34,81,48,218,37,67,40,291,36,76,26,101,32*63
$GLGSV,2,2,05,75,19,048,28*5C
$QZGSV,1,1,03,01,77,065,38,02,19,153,30,03,19,182,26*55
$BDGSV,4,1,14,213,74,276,34,208,68,172,31,206,67,250,35,216,61,249,34*63
$BDGSV,4,2,14,203,44,206,27,230,38,234,32,209,38,237,28,220,38,288,26*64
$BDGSV,4,3,14,204,34,133,32,223,33,105,28,229,28,299,25,225,18,052,23*6A
$BDGSV,4,4,14,227,12,183,17,205,10,258,*6C
$GAGSV,2,1,06,104,73,317,29,112,40,180,26,119,33,054,27,109,28,258,25*6E
$GAGSV,2,2,06,136,21,319,25,121,13,074,28*6C
$GPGSA,A,3,02,05,13,15,21,24,29,30,,,,,1.5,0.9,1.2*30
$GNGSA,A,3,02,05,13,15,21,24,29,30,,,,,1.5,0.9,1.2*2E
$GNGSA,A,3,66,67,75,76,81,,,,,,,,1.5,0.9,1.2*29
$QZGSA,A,3,01,02,03,,,,,,,,,,1.5,0.9,1.2*20
$IMGSA,A,3,,,,,,,,,,,,,1.5,0.9,1.2*2F
$BDGSA,A,3,203,204,206,208,209,213,216,220,223,225,229,230,1.5,0.9,1.2*24
$GAGSA,A,3,104,109,112,119,121,136,,,,,,,1.5,0.9,1.2*2D
$GPRMC,024309.00,A,3722.790266,N,12640.645593,E,015.4,218.1,231119,,,A*50
$GPGGA,024310.00,3722.786965,N,12640.642290,E,1,39,0.6,6.0,M,17.7,M,,*6E
$GPGSV,2,1,08,13,78,031,32,15,62,257,37,05,54,071,42,29,27,249,30*7E
$GPGSV,2,2,08,21,25,315,26,30,25,053,32,02,25,155,31,24,11,189,21*76
$GLGSV,2,1,05,66,52,015,33,81,48,218,39,67,40,291,36,76,26,101,32*6A
$GLGSV,2,2,05,75,19,048,27*53
$QZGSV,1,1,03,01,77,065,38,02,19,153,31,03,19,182,25*57
$BDGSV,4,1,14,213,74,276,35,208,68,172,31,206,67,250,35,216,61,249,35*63
$BDGSV,4,2,14,203,44,206,27,230,38,234,32,209,38,237,28,220,38,288,25*67
$BDGSV,4,3,14,204,34,133,32,223,33,105,29,229,28,299,26,225,18,052,22*69
$BDGSV,4,4,14,227,12,183,17,205,10,258,*6C
$GAGSV,2,1,06,104,73,317,29,112,40,180,30,119,33,054,27,109,28,258,26*6A
$GAGSV,2,2,06,136,21,319,27,121,13,074,28*6E
$GPGSA,A,3,02,05,13,15,21,24,29,30,,,,,1.9,1.0,1.6*30
$GNGSA,A,3,02,05,13,15,21,24,29,30,,,,,1.9,1.0,1.6*2E
$GNGSA,A,3,66,67,75,76,81,,,,,,,,1.9,1.0,1.6*29
$QZGSA,A,3,01,02,03,,,,,,,,,,1.9,1.0,1.6*20
$IMGSA,A,3,,,,,,,,,,,,,1.9,1.0,1.6*2F
$BDGSA,A,3,203,204,206,208,209,213,216,220,223,225,229,230,1.9,1.0,1.6*24
$GAGSA,A,3,104,109,112,119,121,136,,,,,,,1.9,1.0,1.6*2D
$GPRMC,024310.00,A,3722.786965,N,12640.642290,E,015.2,221.1,231119,,,A*58
$GPGGA,024311.00,3722.783553,N,12640.638923,E,1,38,0.6,6.1,M,17.7,M,,*6D
$GPGSV,2,1,08,13,78,031,32,15,62,257,37,05,54,071,42,29,27,249,30*7E
$GPGSV,2,2,08,21,25,315,26,30,25,053,32,02,25,155,32,24,12,189,20*77
$GLGSV,2,1,05,66,52,015,33,81,48,218,39,67,40,291,35,76,26,101,32*69
$GLGSV,2,2,05,75,19,048,27*53
$QZGSV,1,1,03,01,77,065,37,02,19,153,31,03,19,182,25*58
$BDGSV,4,1,14,213,74,276,35,208,68,172,30,206,67,250,35,216,61,249,35*62
$BDGSV,4,2,14,203,44,206,26,230,38,234,31,209,38,237,28,220,38,288,25*65
$BDGSV,4,3,14,204,34,133,32,223,33,105,30,229,28,299,27,225,18,052,22*60
$BDGSV,4,4,14,227,12,183,17,205,10,258,*6C
$GAGSV,2,1,06,104,73,317,30,112,40,180,30,119,33,054,26,109,28,258,29*6C
$GAGSV,2,2,06,136,21,319,26,121,13,074,27*60
$GPGSA,A,3,02,05,13,15,21,24,29,30,,,,,2.3,1.2,2.0*3E
$GNGSA,A,3,02,05,13,15,21,24,29,30,,,,,2.3,1.2,2.0*20
$GNGSA,A,3,66,67,75,76,81,,,,,,,,2.3,1.2,2.0*27
$QZGSA,A,3,01,02,03,,,,,,,,,,2.3,1.2,2.0*2E
$IMGSA,A,3,,,,,,,,,,,,,2.3,1.2,2.0*21
$BDGSA,A,3,203,204,206,208,209,213,216,220,223,225,229,230,2.3,1.2,2.0*2A
$GAGSA,A,3,104,109,112,119,121,136,,,,,,,2.3,1.2,2.0*23
$GPRMC,024311.00,A,3722.783553,N,12640.638923,E,015.7,217.9,231119,,,A*53
$GPGGA,024312.00,3722.780095,N,12640.635557,E,1,34,0.6,6.2,M,17.7,M,,*6F
$GPGSV,2,1,08,13,78,031,32,15,62,257,37,05,54,071,42,29,27,249,29*76
$GPGSV,2,2,08,21,25,315,26,30,25,053,32,02,25,155,32,24,12,189,20*77
$GLGSV,2,1,05,66,52,015,33,81,48,218,39,67,40,291,35,76,26,101,31*6A
$GLGSV,2,2,05,75,19,048,27*53
$QZGSV,1,1,03,01,77,065,37,02,19,153,31,03,19,182,24*59
$BDGSV,4,1,14,213,74,276,36,208,68,172,30,206,67,250,35,216,61,249,35*61
$BDGSV,4,2,14,203,44,206,25,230,38,234,31,209,38,237,27,220,38,288,25*69
$BDGSV,4,3,14,204,34,133,32,223,33,105,31,229,28,299,27,225,18,052,21*62
$BDGSV,4,4,14,227,12,183,16,205,10,258,*6D
$GAGSV,2,1,06,104,73,317,30,112,40,180,30,119,33,054,26,109,28,258,29*6C
$GAGSV,2,2,06,136,21,319,26,121,13,074,26*61
$GPGSA,A,3,02,05,13,15,21,24,29,30,,,,,2.1,1.2,1.7*38
$GNGSA,A,3,02,05,13,15,21,24,29,30,,,,,2.1,1.2,1.7*26
$GNGSA,A,3,66,67,75,76,81,,,,,,,,2.1,1.2,1.7*21
$QZGSA,A,3,01,02,03,,,,,,,,,,2.1,1.2,1.7*28
$IMGSA,A,3,,,,,,,,,,,,,2.1,1.2,1.7*27
$BDGSA,A,3,204,206,208,209,213,216,220,223,229,230,,,2.1,1.2,1.7*28
$GAGSA,A,3,104,109,112,119,121,136,,,,,,,2.1,1.2,1.7*25
$GPRMC,024312.00,A,3722.780095,N,12640.635557,E,015.7,217.7,231119,,,A*50
$GPGGA,024313.00,3722.776646,N,12640.632188,E,1,37,0.6,6.2,M,17.7,M,,*6D
$GPGSV,2,1,08,13,78,031,33,15,62,257,37,05,54,071,42,29,27,249,29*77
$GPGSV,2,2,08,21,25,315,26,30,25,053,32,02,25,155,32,24,12,189,20*77
$GLGSV,2,1,05,66,52,015,33,81,48,218,38,67,40,291,34,76,26,101,31*6A
$GLGSV,2,2,05,75,19,048,27*53
$QZGSV,1,1,03,01,77,065,37,02,19,153,31,03,19,182,24*59
$BDGSV,4,1,14,213,74,276,36,208,68,172,30,206,67,250,35,216,61,249,35*61
$BDGSV,4,2,14,203,44,206,24,230,38,234,31,209,38,237,27,220,38,288,25*68
$BDGSV,4,3,14,204,34,133,31,223,33,105,31,229,28,299,27,225,18,052,21*61
$BDGSV,4,4,14,227,12,183,,205,10,258,*6A
$GAGSV,2,1,06,104,73,317,30,112,39,180,30,119,33,054,26,109,28,258,29*62
$GAGSV,2,2,06,136,21,319,26,121,13,074,*65
$GPGSA,A,3,02,05,13,15,21,24,29,30,,,,,2.8,1.9,2.0*3E
$GNGSA,A,3,02,05,13,15,21,24,29,30,,,,,2.8,1.9,2.0*20
$GNGSA,A,3,66,67,75,76,81,,,,,,,,2.8,1.9,2.0*27
$QZGSA,A,3,01,02,03,,,,,,,,,,2.8,1.9,2.0*2E
$IMGSA,A,3,,,,,,,,,,,,,2.8,1.9,2.0*21
$BDGSA,A,3,203,204,206,208,209,213,216,220,223,229,230,,2.8,1.9,2.0*1F
$GAGSA,A,3,104,109,112,119,136,,,,,,,,2.8,1.9,2.0*11
$GPRMC,024313.00,A,3722.776646,N,12640.632188,E,015.7,217.9,231119,,,A*5F
$GPGGA,024314.00,3722.773204,N,12640.628753,E,1,33,0.8,6.2,M,17.7,M,,*6C
$GPGSV,2,1,08,13,78,031,33,15,62,257,38,05,54,071,42,29,27,249,29*78
$GPGSV,2,2,08,21,25,315,26,30,25,053,32,02,25,155,32,24,12,189,20*77
$GLGSV,2,1,05,66,52,015,33,81,48,218,38,67,40,291,34,76,26,101,30*6B
$GLGSV,2,2,05,75,19,048,27*53
$QZGSV,1,1,03,01,77,065,37,02,19,153,32,03,19,182,25*5B
$BDGSV,4,1,14,213,74,276,36,208,68,172,30,206,67,250,35,216,61,249,35*61
$BDGSV,4,2,14,203,44,206,23,230,38,234,31,209,38,237,27,220,38,288,25*6F
$BDGSV,4,3,14,204,34,133,31,223,33,105,31,229,28,299,27,225,18,052,20*60
$BDGSV,4,4,14,227,12,183,15,205,10,258,*6E
$GAGSV,2,1,06,104,73,318,30,112,39,180,30,119,33,054,25,109,28,258,29*6E
$GAGSV,2,2,06,136,21,319,,121,13,074,24*67
$GPGSA,A,3,02,05,13,15,21,24,29,30,,,,,3.6,2.8,2.3*30
$GNGSA,A,3,02,05,13,15,21,24,29,30,,,,,3.6,2.8,2.3*2E
$GNGSA,A,3,66,67,75,76,81,,,,,,,,3.6,2.8,2.3*29
$QZGSA,A,3,01,02,03,,,,,,,,,,3.6,2.8,2.3*20
$IMGSA,A,3,,,,,,,,,,,,,3.6,2.8,2.3*2F
$BDGSA,A,3,204,206,208,209,213,216,220,223,229,230,,,3.6,2.8,2.3*20
$GAGSA,A,3,104,109,112,119,121,,,,,,,,3.6,2.8,2.3*19
$GPRMC,024314.00,A,3722.773204,N,12640.628753,E,015.8,217.9,231119,,,A*5B
$GPGGA,024315.00,3722.769653,N,12640.625347,E,1,35,0.6,6.2,M,17.7,M,,*64
$GPGSV,2,1,08,13,78,031,33,15,62,257,38,05,54,071,42,29,27,249,30*70
$GPGSV,2,2,08,21,25,315,27,30,25,053,32,02,25,155,32,24,12,189,20*76
$GLGSV,2,1,05,66,52,015,33,81,48,218,38,67,40,291,33,76,26,101,30*6C
$GLGSV,2,2,05,75,19,048,26*52
$QZGSV,1,1,03,01,77,065,37,02,19,153,31,03,19,182,25*58
$BDGSV,4,1,14,213,74,276,36,208,68,172,30,206,67,250,35,216,61,249,35*61
$BDGSV,4,2,14,203,44,206,23,230,38,234,31,209,38,237,27,220,38,288,25*6F
$BDGSV,4,3,14,204,34,133,31,223,33,105,31,229,28,299,27,225,18,052,20*60
$BDGSV,4,4,14,227,12,183,,205,10,258,*6A
$GAGSV,2,1,06,104,73,318,31,112,39,180,30,119,33,054,25,109,28,258,30*67
$GAGSV,2,2,06,136,21,319,30,121,13,074,*62
$GPGSA,A,3,02,05,13,15,21,24,29,30,,,,,1.7,1.1,1.3*3A
$GNGSA,A,3,02,05,13,15,21,24,29,30,,,,,1.7,1.1,1.3*24
$GNGSA,A,3,66,67,75,76,81,,,,,,,,1.7,1.1,1.3*23
$QZGSA,A,3,01,02,03,,,,,,,,,,1.7,1.1,1.3*2A
$IMGSA,A,3,,,,,,,,,,,,,1.7,1.1,1.3*25
$BDGSA,A,3,203,204,206,208,209,213,216,220,223,229,230,,1.7,1.1,1.3*1B
$GAGSA,A,3,104,109,112,119,136,,,,,,,,1.7,1.1,1.3*15
$GPRMC,024315.00,A,3722.769653,N,12640.625347,E,015.8,217.9,231119,,,A*5B
$GPGGA,024316.00,3722.766158,N,12640.621964,E,1,36,0.6,6.2,M,17.7,M,,*68
$GPGSV,2,1,08,13,78,031,33,15,62,257,37,05,54,071,41,29,27,249,31*7D
$GPGSV,2,2,08,21,25,315,27,30,25,053,33,02,25,155,32,24,12,189,19*7D
$GLGSV,2,1,05,66,52,015,33,81,48,218,38,67,40,291,33,76,26,101,30*6C
$GLGSV,2,2,05,75,19,048,26*52
$QZGSV,1,1,03,01,77,065,36,02,19,153,31,03,19,182,26*5A
$BDGSV,4,1,14,213,74,276,36,208,68,172,30,206,67,250,35,216,61,249,35*61
$BDGSV,4,2,14,203,44,206,22,230,38,234,30,209,38,237,27,220,38,288,25*6F
$BDGSV,4,3,14,204,34,133,31,223,33,105,31,229,28,299,27,225,18,052,19*6A
$BDGSV,4,4,14,227,12,183,,205,10,258,*6A
$GAGSV,2,1,06,104,73,318,31,112,39,180,30,119,33,054,25,109,28,258,30*67
$GAGSV,2,2,06,136,21,319,30,121,13,074,23*63
$GPGSA,A,3,02,05,13,15,21,24,29,30,,,,,1.9,1.3,1.4*31
$GNGSA,A,3,02,05,13,15,21,24,29,30,,,,,1.9,1.3,1.4*2F
$GNGSA,A,3,66,67,75,76,81,,,,,,,,1.9,1.3,1.4*28
$QZGSA,A,3,01,02,03,,,,,,,,,,1.9,1.3,1.4*21
$IMGSA,A,3,,,,,,,,,,,,,1.9,1.3,1.4*2E
$BDGSA,A,3,204,206,208,209,213,216,220,223,229,230,,,1.9,1.3,1.4*21
$GAGSA,A,3,104,109,112,119,121,136,,,,,,,1.9,1.3,1.4*2C
$GPRMC,024316.00,A,3722.766158,N,12640.621964,E,015.9,217.7,231119,,,A*5B
$GPGGA,024317.00,3722.762644,N,12640.618611,E,1,38,0.6,6.3,M,17.7,M,,*6F
$GPGSV,2,1,08,13,78,031,32,15,62,257,37,05,54,071,41,29,27,249,31*7C
$GPGSV,2,2,08,21,25,315,27,02,25,155,32,30,24,053,33,24,12,189,19*7C
$GLGSV,2,1,05,66,52,015,33,81,48,218,38,67,40,291,32,76,26,101,30*6D
$GLGSV,2,2,05,75,19,048,26*52
$QZGSV,1,1,03,01,77,065,36,02,19,153,31,03,19,182,26*5A
$BDGSV,4,1,14,213,74,276,36,208,68,172,30,206,67,250,35,216,61,249,35*61
$BDGSV,4,2,14,203,44,206,,209,38,237,27,230,38,234,30,220,38,288,25*6F
$BDGSV,4,3,14,204,34,133,31,223,33,105,31,229,28,299,27,225,18,052,20*60
$BDGSV,4,4,14,227,12,183,,205,10,258,*6A
$GAGSV,2,1,06,104,73,318,31,112,39,180,29,119,33,054,25,109,28,258,30*6F
$GAGSV,2,2,06,136,21,319,29,121,13,074,24*6C
$GPGSA,A,3,02,05,13,15,21,29,30,,,,,,2.8,2.2,1.7*34
$GNGSA,A,3,02,05,13,15,21,29,30,,,,,,2.8,2.2,1.7*2A
$GNGSA,A,3,66,67,75,76,81,,,,,,,,2.8,2.2,1.7*2B
$QZGSA,A,3,01,02,03,,,,,,,,,,2.8,2.2,1.7*22
$IMGSA,A,3,,,,,,,,,,,,,2.8,2.2,1.7*2D
$BDGSA,A,3,204,206,208,209,213,216,220,223,225,229,230,,2.8,2.2,1.7*17
$GAGSA,A,3,104,109,112,119,121,136,,,,,,,2.8,2.2,1.7*2F
$GPRMC,024317.00,A,3722.762644,N,12640.618611,E,015.9,217.5,231119,,,A*51
$GPGGA,024318.00,3722.759110,N,12640.615261,E,1,36,0.6,6.3,M,17.7,M,,*6E
$GPGSV,2,1,08,13,78,031,32,15,62,257,37,05,54,071,41,29,27,249,31*7C
$GPGSV,2,2,08,21,25,315,27,02,25,155,32,30,24,053,33,24,12,189,19*7C
$GLGSV,2,1,05,66,52,015,32,81,48,218,37,67,40,291,31,76,26,101,30*60
$GLGSV,2,2,05,75,19,048,26*52
$QZGSV,1,1,03,01,77,065,36,02,19,153,31,03,19,182,26*5A
$BDGSV,4,1,14,213,74,276,36,208,68,172,30,206,67,250,35,216,61,249,35*61
$BDGSV,4,2,14,203,44,206,,209,38,237,27,230,38,234,30,220,38,288,24*6E
$BDGSV,4,3,14,204,34,133,31,223,33,105,31,229,28,299,27,225,18,052,20*60
$BDGSV,4,4,14,227,12,183,14,205,10,258,*6F
$GAGSV,2,1,06,104,73,318,31,112,39,180,29,119,33,054,25,109,28,258,30*6F
$GAGSV,2,2,06,136,21,319,29,121,13,074,25*6D
$GPGSA,A,3,02,05,13,15,21,29,30,,,,,,2.1,1.3,1.7*3F
$GNGSA,A,3,02,05,13,15,21,29,30,,,,,,2.1,1.3,1.7*21
$GNGSA,A,3,66,67,75,76,81,,,,,,,,2.1,1.3,1.7*20
$QZGSA,A,3,01,02,03,,,,,,,,,,2.1,1.3,1.7*29
$IMGSA,A,3,,,,,,,,,,,,,2.1,1.3,1.7*26
$BDGSA,A,3,204,206,208,209,213,216,220,223,225,229,230,,2.1,1.3,1.7*1C
$GAGSA,A,3,104,109,112,119,121,136,,,,,,,2.1,1.3,1.7*24
$GPRMC,024318.00,A,3722.759110,N,12640.615261,E,015.8,217.5,231119,,,A*5F
$GPGGA,024319.00,3722.755620,N,12640.611932,E,1,38,0.6,6.4,M,17.7,M,,*67
$GPGSV,2,1,08,13,78,031,32,15,62,257,37,05,54,071,41,29,27,248,31*7D
$GPGSV,2,2,08,21,25,315,27,02,25,155,32,30,24,053,33,24,12,189,19*7C
$GLGSV,2,1,05,66,52,015,32,81,48,218,37,67,40,291,30,76,26,101,30*61
$GLGSV,2,2,05,75,19,048,25*51
$QZGSV,1,1,03,01,77,065,36,02,19,153,31,03,19,182,26*5A
$BDGSV,4,1,14,213,74,276,36,208,68,172,30,206,67,250,35,216,61,249,35*61
$BDGSV,4,2,14,203,44,206,20,209,38,237,27,230,38,234,30,220,38,288,24*6C
$BDGSV,4,3,14,204,34,133,31,223,33,105,31,229,28,299,27,225,18,052,20*60
$BDGSV,4,4,14,227,12,183,,205,10,258,*6A
$GAGSV,2,1,06,104,73,318,31,112,39,180,29,119,33,054,25,109,28,258,29*67
$GAGSV,2,2,06,136,21,319,29,121,13,074,25*6D
$GPGSA,A,3,02,05,13,15,21,29,30,,,,,,3.6,1.5,3.3*39
$GNGSA,A,3,02,05,13,15,21,29,30,,,,,,3.6,1.5,3.3*27
$GNGSA,A,3,66,67,75,76,81,,,,,,,,3.6,1.5,3.3*26
$QZGSA,A,3,01,02,03,,,,,,,,,,3.6,1.5,3.3*2F
$IMGSA,A,3,,,,,,,,,,,,,3.6,1.5,3.3*20
$BDGSA,A,3,204,206,208,209,213,216,220,223,225,229,230,,3.6,1.5,3.3*1A
$GAGSA,A,3,104,109,112,119,121,136,,,,,,,3.6,1.5,3.3*22
$GPRMC,024319.00,A,3722.755620,N,12640.611932,E,015.8,217.3,231119,,,A*59
$GPGGA,024320.00,3722.752117,N,12640.608580,E,1,36,1.2,6.4,M,17.7,M,,*6F
$GPGSV,2,1,08,13,78,031,32,15,62,257,37,05,54,071,42,29,27,248,30*7F
$GPGSV,2,2,08,21,25,315,30,02,25,155,32,30,24,053,32,24,12,189,18*7A
$GLGSV,2,1,05,66,52,015,32,81,48,218,37,67,40,291,30,76,26,101,30*61
$GLGSV,2,2,05,75,19,048,25*51
$QZGSV,1,1,03,01,77,065,36,02,19,153,31,03,19,182,25*59
$BDGSV,4,1,14,213,74,276,36,208,68,172,29,206,67,250,35,216,61,249,35*69
$BDGSV,4,2,14,203,44,206,,209,38,237,27,230,38,234,30,220,38,288,24*6E
$BDGSV,4,3,14,204,34,133,31,223,33,105,31,229,28,299,29,225,18,052,20*6E
$BDGSV,4,4,14,227,12,183,,205,10,258,*6A
$GAGSV,2,1,06,104,73,318,32,112,39,180,29,119,33,054,25,109,28,258,29*64
$GAGSV,2,2,06,136,21,319,28,121,13,074,24*6D
$GPGSA,A,3,02,05,13,15,21,24,29,30,,,,,7.6,5.2,5.6*3B
$GNGSA,A,3,02,05,13,15,21,24,29,30,,,,,7.6,5.2,5.6*25
$GNGSA,A,3,66,67,75,76,81,,,,,,,,7.6,5.2,5.6*22
$QZGSA,A,3,01,02,03,,,,,,,,,,7.6,5.2,5.6*2B
$IMGSA,A,3,,,,,,,,,,,,,7.6,5.2,5.6*24
$BDGSA,A,3,204,206,208,209,213,216,220,223,225,229,230,,7.6,5.2,5.6*1E
$GAGSA,A,3,104,109,112,119,121,136,,,,,,,7.6,5.2,5.6*26
$GPRMC,024320.00,A,3722.752117,N,12640.608580,E,015.8,217.2,231119,,,A*5B
$GPGGA,024321.00,3722.748645,N,12640.605252,E,1,38,0.6,6.4,M,17.7,M,,*6B
$GPGSV,2,1,08,13,78,031,32,15,62,257,37,05,54,071,41,29,27,248,30*7C
$GPGSV,2,2,08,21,25,315,30,02,25,155,32,30,24,053,32,24,12,189,18*7A
$GLGSV,2,1,05,66,52,015,32,81,48,218,37,67,40,291,30,76,26,101,29*69
$GLGSV,2,2,05,75,19,048,25*51
$QZGSV,1,1,03,01,77,065,36,02,19,153,31,03,19,182,25*59
$BDGSV,4,1,14,213,74,276,36,208,68,172,29,206,67,250,35,216,61,249,35*69
$BDGSV,4,2,14,203,44,206,,209,38,237,27,230,38,234,30,220,38,288,23*69
$BDGSV,4,3,14,204,34,133,31,223,33,105,30,229,28,299,29,225,18,052,20*6F
$BDGSV,4,4,14,227,12,183,,205,10,258,*6A
$GAGSV,2,1,06,104,73,318,31,112,39,180,29,119,33,054,25,109,28,258,29*67
$GAGSV,2,2,06,136,21,319,28,121,13,074,25*6C
$GPGSA,A,3,02,05,13,15,21,24,29,30,,,,,3.9,2.1,3.3*37
$GNGSA,A,3,02,05,13,15,21,24,29,30,,,,,3.9,2.1,3.3*29
$GNGSA,A,3,66,67,75,76,81,,,,,,,,3.9,2.1,3.3*2E
$QZGSA,A,3,01,02,03,,,,,,,,,,3.9,2.1,3.3*27
$IMGSA,A,3,,,,,,,,,,,,,3.9,2.1,3.3*28
$BDGSA,A,3,204,206,208,209,213,216,220,223,225,229,230,,3.9,2.1,3.3*12
$GAGSA,A,3,104,109,112,119,121,136,,,,,,,3.9,2.1,3.3*2A
$GPRMC,024321.00,A,3722.748645,N,12640.605252,E,015.8,217.2,231119,,,A*54
$GPGGA,024322.00,3722.745182,N,12640.601839,E,1,34,0.6,6.5,M,17.7,M,,*67
$GPGSV,2,1,08,13,78,031,33,15,62,257,37,05,54,071,41,29,27,248,30*7D
$GPGSV,2,2,08,21,25,315,29,02,25,155,32,30,24,053,32,24,12,189,18*72
$GLGSV,2,1,05,66,52,015,32,81,48,218,37,67,40,291,30,76,26,101,29*69
$GLGSV,2,2,05,75,19,048,24*50
$QZGSV,1,1,03,01,77,065,36,02,19,153,31,03,19,182,25*59
$BDGSV,4,1,14,213,74,276,36,208,68,172,30,206,67,250,35,216,61,249,35*61
$BDGSV,4,2,14,203,44,206,21,209,38,237,27,230,38,234,29,220,38,288,24*65
$BDGSV,4,3,14,204,34,133,32,223,33,105,30,229,28,299,29,225,18,052,19*66
$BDGSV,4,4,14,227,12,183,,205,10,258,*6A
$GAGSV,2,1,06,104,73,318,31,112,39,180,29,119,33,054,25,109,28,258,29*67
$GAGSV,2,2,06,136,21,319,28,121,13,074,*6B
$GPGSA,A,3,02,05,13,15,21,29,30,,,,,,1.9,1.1,1.5*34
$GNGSA,A,3,02,05,13,15,21,29,30,,,,,,1.9,1.1,1.5*2A
