$GPGGA,025021.00,3722.864559,N,12640.713864,E,1,38,0.8,8.7,M,17.7,M,,*6C
$GPGSV,2,1,08,13,74,031,35,15,64,263,42,05,52,076,43,21,27,314,34*73
$GPGSV,2,2,08,29,25,246,40,30,23,050,30,02,22,155,39,24,14,189,31*75
$GLGSV,2,1,06,66,50,020,36,81,44,215,38,67,42,296,36,76,28,097,35*6A
$GLGSV,2,2,06,75,19,044,34,83,12,335,15*67
$QZGSV,1,1,03,01,77,066,36,02,21,152,37,03,18,182,33*50
$BDGSV,3,1,12,213,74,270,34,206,68,254,35,208,67,175,33,216,61,252,34*6F
$BDGSV,3,2,12,203,44,206,32,220,40,290,36,209,38,239,34,230,36,231,37*6B
$BDGSV,3,3,12,223,34,102,36,204,34,133,29,229,29,296,33,225,17,049,31*61
$GAGSV,2,1,07,104,73,327,32,112,37,180,27,119,31,056,27,109,29,260,26*6E
$GAGSV,2,2,07,136,23,318,28,121,14,072,27,101,12,122,23*6E
$GPGSA,A,3,02,05,13,15,21,24,29,30,,,,,1.6,0.8,1.4*34
$GNGSA,A,3,02,05,13,15,21,24,29,30,,,,,1.6,0.8,1.4*2A
$GNGSA,A,3,66,67,75,76,81,,,,,,,,1.6,0.8,1.4*2D
$QZGSA,A,3,01,02,03,,,,,,,,,,1.6,0.8,1.4*24
$IMGSA,A,3,,,,,,,,,,,,,1.6,0.8,1.4*2B
$BDGSA,A,3,203,204,206,208,209,213,216,220,223,225,229,230,1.6,0.8,1.4*20
$GAGSA,A,3,101,104,112,119,121,136,,,,,,,1.6,0.8,1.4*21
$GPRMC,025021.00,A,3722.864559,N,12640.713864,E,000.0,218.9,231119,,,A*58
$GPGGA,025022.00,3722.864559,N,12640.713864,E,1,38,0.6,8.6,M,17.7,M,,*60
$GPGSV,2,1,08,13,74,031,35,15,64,263,42,05,52,076,43,21,27,314,33*74
$GPGSV,2,2,08,29,25,246,40,30,23,050,30,02,22,155,39,24,14,189,31*75
$GLGSV,2,1,06,66,50,020,36,81,44,215,38,67,42,296,35,76,28,097,35*69
$GLGSV,2,2,06,75,19,044,33,83,12,335,15*60
$QZGSV,1,1,03,01,77,066,36,02,21,152,37,03,18,182,33*50
$BDGSV,3,1,12,213,74,270,33,206,68,254,35,208,67,175,33,216,61,252,33*6F
$BDGSV,3,2,12,203,44,206,32,220,40,290,35,209,38,239,33,230,36,231,37*6F
$BDGSV,3,3,12,223,34,102,36,204,34,133,28,229,29,296,32,225,17,049,31*61
$GAGSV,2,1,07,104,73,327,31,112,37,180,26,119,31,056,29,109,29,260,34*61
$GAGSV,2,2,07,136,23,318,27,121,14,072,28,101,12,122,*6F
$GPGSA,A,3,02,05,13,15,21,24,29,30,,,,,1.5,0.8,1.3*30
$GNGSA,A,3,02,05,13,15,21,24,29,30,,,,,1.5,0.8,1.3*2E
$GNGSA,A,3,66,67,75,76,81,,,,,,,,1.5,0.8,1.3*29
$QZGSA,A,3,01,02,03,,,,,,,,,,1.5,0.8,1.3*20
$IMGSA,A,3,,,,,,,,,,,,,1.5,0.8,1.3*2F
$BDGSA,A,3,203,204,206,208,209,213,216,220,223,225,229,230,1.5,0.8,1.3*24
$GAGSA,A,3,104,109,112,119,121,136,,,,,,,1.5,0.8,1.3*2D
$GPRMC,025022.00,A,3722.864559,N,12640.713864,E,000.0,218.9,231119,,,A*5B
$GPGGA,025023.00,3722.864559,N,12640.713864,E,1,37,0.6,8.7,M,17.7,M,,*6F
$GPGSV,2,1,08,13,74,031,35,15,64,263,42,05,52,076,43,21,27,314,33*74
$GPGSV,2,2,08,29,25,246,39,30,23,050,30,02,22,155,39,24,15,189,31*7A
$GLGSV,2,1,06,66,50,020,35,81,44,215,38,67,42,296,34,76,28,097,34*6A
$GLGSV,2,2,06,75,19,044,34,83,12,335,15*67
$QZGSV,1,1,03,01,77,066,35,02,21,152,36,03,18,182,32*53
$BDGSV,3,1,12,213,74,270,32,206,68,254,35,208,67,175,35,216,61,252,31*6A
$BDGSV,3,2,12,203,44,206,31,220,40,291,34,209,38,239,33,230,36,231,38*63
$BDGSV,3,3,12,223,34,102,35,204,34,133,27,229,29,296,32,225,17,049,30*6C
$GAGSV,2,1,07,104,73,327,30,112,37,180,26,119,31,056,30,109,29,260,35*69
$GAGSV,2,2,07,136,23,318,26,121,14,072,28,101,12,122,*6E
$GPGSA,A,3,02,05,13,15,21,24,29,30,,,,,2.0,1.0,1.7*3B
$GNGSA,A,3,02,05,13,15,21,24,29,30,,,,,2.0,1.0,1.7*25
$GNGSA,A,3,66,67,75,76,81,,,,,,,,2.0,1.0,1.7*22
$QZGSA,A,3,01,02,03,,,,,,,,,,2.0,1.0,1.7*2B
$IMGSA,A,3,,,,,,,,,,,,,2.0,1.0,1.7*24
$BDGSA,A,3,203,206,208,209,213,216,220,223,225,229,230,,2.0,1.0,1.7*19
$GAGSA,A,3,104,109,112,119,121,136,,,,,,,2.0,1.0,1.7*26
$GPRMC,025023.00,A,3722.864559,N,12640.713864,E,000.0,218.9,231119,,,A*5A
$GPGGA,025024.00,3722.864559,N,12640.713864,E,1,37,0.6,8.7,M,17.7,M,,*68
$GPGSV,2,1,08,13,74,031,35,15,64,263,42,05,52,076,43,21,27,314,32*75
$GPGSV,2,2,08,29,25,246,39,30,23,050,30,02,22,155,38,24,14,189,31*7A
$GLGSV,2,1,06,66,50,020,35,81,44,215,37,67,42,296,34,76,28,097,33*62
$GLGSV,2,2,06,75,19,044,34,83,12,335,15*67
$QZGSV,1,1,03,01,77,066,35,02,21,152,36,03,18,182,31*50
$BDGSV,3,1,12,213,74,270,31,206,68,254,35,208,67,175,35,216,61,252,30*68
$BDGSV,3,2,12,203,44,206,31,220,40,290,33,209,38,239,33,230,36,231,38*65
$BDGSV,3,3,12,223,34,102,35,204,34,133,26,229,29,296,30,225,17,049,30*6F
$GAGSV,2,1,07,104,73,327,29,112,37,180,26,119,31,056,31,109,29,260,35*60
$GAGSV,2,2,07,136,23,318,25,121,14,072,28,101,12,122,*6D
$GPGSA,A,3,02,05,13,15,21,24,29,30,,,,,1.8,0.9,1.5*3A
$GNGSA,A,3,02,05,13,15,21,24,29,30,,,,,1.8,0.9,1.5*24
$GNGSA,A,3,66,67,75,76,81,,,,,,,,1.8,0.9,1.5*23
$QZGSA,A,3,01,02,03,,,,,,,,,,1.8,0.9,1.5*2A
$IMGSA,A,3,,,,,,,,,,,,,1.8,0.9,1.5*25
$BDGSA,A,3,203,204,206,208,209,213,220,223,225,229,230,,1.8,0.9,1.5*1B
$GAGSA,A,3,104,109,112,119,121,136,,,,,,,1.8,0.9,1.5*27
$GPRMC,025024.00,A,3722.864559,N,12640.713864,E,000.0,218.9,231119,,,A*5D
$GPGGA,025025.00,3722.864559,N,12640.713864,E,1,36,0.6,8.6,M,17.7,M,,*69
$GPGSV,2,1,08,13,74,031,35,15,64,263,42,05,52,076,43,21,27,314,31*76
$GPGSV,2,2,08,29,25,246,39,30,23,050,30,02,22,155,38,24,15,189,30*7A
$GLGSV,2,1,06,66,50,020,36,81,44,215,37,67,42,296,34,76,28,097,32*60
$GLGSV,2,2,06,75,19,044,34,83,12,335,*63
$QZGSV,1,1,03,01,77,066,35,02,21,152,36,03,18,182,29*59
$BDGSV,3,1,12,213,74,270,30,206,68,254,35,208,67,175,35,216,61,252,28*60
$BDGSV,3,2,12,203,44,206,31,220,40,291,33,209,38,239,33,230,36,231,37*6B
$BDGSV,3,3,12,223,34,102,35,204,34,133,25,229,29,296,29,225,17,049,29*6C
$GAGSV,2,1,07,104,73,327,29,112,37,180,26,119,31,056,31,109,29,260,36*63
$GAGSV,2,2,07,136,23,318,25,121,14,072,28,101,12,122,20*6F
$GPGSA,A,3,02,05,13,15,21,24,29,30,,,,,1.8,1.0,1.4*33
$GNGSA,A,3,02,05,13,15,21,24,29,30,,,,,1.8,1.0,1.4*2D
$GNGSA,A,3,66,67,75,76,81,,,,,,,,1.8,1.0,1.4*2A
$QZGSA,A,3,01,02,,,,,,,,,,,1.8,1.0,1.4*20
$IMGSA,A,3,,,,,,,,,,,,,1.8,1.0,1.4*2C
$BDGSA,A,3,203,206,208,209,213,220,223,225,229,230,,,1.8,1.0,1.4*24
$GAGSA,A,3,101,104,109,112,119,121,136,,,,,,1.8,1.0,1.4*1E
$GPRMC,025025.00,A,3722.864559,N,12640.713864,E,000.0,218.9,231119,,,A*5C
$GPGGA,025026.00,3722.864559,N,12640.713864,E,1,36,0.6,8.5,M,17.7,M,,*69
$GPGSV,2,1,08,13,74,031,34,15,64,263,42,05,52,076,43,21,27,314,31*77
$GPGSV,2,2,08,29,25,245,39,30,23,050,30,02,22,155,37,24,15,189,30*76
$GLGSV,2,1,06,66,50,020,36,81,44,215,36,67,42,296,33,76,28,097,31*65
$GLGSV,2,2,06,75,19,044,34,83,12,335,*63
$QZGSV,1,1,03,01,77,066,34,02,21,152,36,03,18,182,29*58
$BDGSV,3,1,12,213,74,270,30,206,68,254,35,208,66,175,34,216,61,252,27*6F
$BDGSV,3,2,12,203,44,206,30,220,40,291,32,209,38,239,32,230,36,231,37*6A
$BDGSV,3,3,12,223,34,102,35,204,34,133,24,229,29,296,29,225,17,049,29*6D
$GAGSV,2,1,07,104,73,327,29,112,37,180,26,119,31,056,31,109,29,260,36*63
$GAGSV,2,2,07,136,23,318,24,121,14,072,28,101,12,122,*6C
$GPGSA,A,3,02,05,13,15,21,24,29,30,,,,,1.7,1.0,1.4*3C
$GNGSA,A,3,02,05,13,15,21,24,29,30,,,,,1.7,1.0,1.4*22
$GNGSA,A,3,66,67,75,76,81,,,,,,,,1.7,1.0,1.4*25
$QZGSA,A,3,01,02,03,,,,,,,,,,1.7,1.0,1.4*2C
$IMGSA,A,3,,,,,,,,,,,,,1.7,1.0,1.4*23
$BDGSA,A,3,203,206,208,209,213,220,223,225,229,230,,,1.7,1.0,1.4*2B
$GAGSA,A,3,104,109,112,119,121,136,,,,,,,1.7,1.0,1.4*21
$GPRMC,025026.00,A,3722.864559,N,12640.713864,E,000.0,218.9,231119,,,A*5F
$GPGGA,025027.00,3722.864559,N,12640.713864,E,1,37,0.6,8.7,M,17.7,M,,*6B
$GPGSV,2,1,08,13,74,031,34,15,64,263,41,05,52,076,43,21,27,314,30*75
$GPGSV,2,2,08,29,25,245,39,30,23,050,31,02,22,155,40,24,15,189,30*77
$GLGSV,2,1,06,66,50,020,36,81,44,215,35,67,42,296,33,76,28,097,32*65
$GLGSV,2,2,06,75,19,044,34,83,12,335,*63
$QZGSV,1,1,03,01,77,066,34,02,21,152,38,03,18,182,29*56
$BDGSV,3,1,12,213,74,270,29,206,68,254,35,208,66,175,34,216,61,252,25*65
$BDGSV,3,2,12,203,44,206,30,220,40,291,31,209,38,239,32,230,36,231,37*69
$BDGSV,3,3,12,223,34,102,35,204,34,133,,229,29,296,29,225,17,049,29*6B
$GAGSV,2,1,07,104,73,327,28,112,37,180,25,119,31,056,31,109,29,260,36*61
$GAGSV,2,2,07,136,23,318,24,121,14,072,28,101,12,122,20*6E
$GPGSA,A,3,02,05,13,15,21,24,29,30,,,,,2.1,1.2,1.7*38
$GNGSA,A,3,02,05,13,15,21,24,29,30,,,,,2.1,1.2,1.7*26
$GNGSA,A,3,66,67,75,76,81,,,,,,,,2.1,1.2,1.7*21
$QZGSA,A,3,01,02,03,,,,,,,,,,2.1,1.2,1.7*28
$IMGSA,A,3,,,,,,,,,,,,,2.1,1.2,1.7*27
$BDGSA,A,3,203,206,208,209,213,220,223,225,229,230,,,2.1,1.2,1.7*2F
$GAGSA,A,3,101,104,109,112,119,121,136,,,,,,2.1,1.2,1.7*15
$GPRMC,025027.00,A,3722.864559,N,12640.713864,E,000.0,218.9,231119,,,A*5E
$GPGGA,025028.00,3722.864559,N,12640.713864,E,1,37,0.6,8.7,M,17.7,M,,*64
$GPGSV,2,1,08,13,74,031,34,15,65,263,41,05,52,076,43,21,27,314,30*74
$GPGSV,2,2,08,29,25,245,38,30,23,050,31,02,22,155,41,24,15,189,30*77
$GLGSV,2,1,06,66,50,020,35,81,44,215,34,67,42,296,33,76,28,097,32*67
$GLGSV,2,2,06,75,19,044,35,83,12,335,14*67
$QZGSV,1,1,03,01,77,066,34,02,21,152,39,03,18,182,29*57
$BDGSV,3,1,12,213,74,270,29,206,68,254,34,208,66,175,34,216,61,252,25*64
$BDGSV,3,2,12,203,44,206,30,220,40,291,31,209,38,239,32,230,36,231,37*69
$BDGSV,3,3,12,223,34,102,34,204,34,133,22,229,29,295,28,225,17,049,28*69
$GAGSV,2,1,07,104,73,327,27,112,37,180,25,119,31,056,31,109,29,260,36*6E
$GAGSV,2,2,07,136,23,318,24,121,14,072,27,101,12,122,*63
$GPGSA,A,3,02,05,13,15,21,24,29,30,,,,,1.7,1.0,1.4*3C
$GNGSA,A,3,02,05,13,15,21,24,29,30,,,,,1.7,1.0,1.4*22
$GNGSA,A,3,66,67,75,76,81,,,,,,,,1.7,1.0,1.4*25
$QZGSA,A,3,01,02,03,,,,,,,,,,1.7,1.0,1.4*2C
$IMGSA,A,3,,,,,,,,,,,,,1.7,1.0,1.4*23
$BDGSA,A,3,203,206,208,209,213,216,220,223,225,229,230,,1.7,1.0,1.4*1E
$GAGSA,A,3,104,109,112,119,121,136,,,,,,,1.7,1.0,1.4*21
$GPRMC,025028.00,A,3722.864559,N,12640.713864,E,000.0,218.9,231119,,,A*51
$GPGGA,025029.00,3722.864559,N,12640.713864,E,1,35,0.6,8.7,M,17.7,M,,*67
$GPGSV,2,1,08,13,74,031,34,15,64,263,40,05,52,076,43,21,27,314,31*75
$GPGSV,2,2,08,29,25,245,38,30,23,050,31,02,22,155,40,24,15,189,29*7E
$GLGSV,2,1,06,66,50,020,35,81,44,215,33,67,42,296,34,76,28,097,32*67
$GLGSV,2,2,06,75,19,044,35,83,12,335,14*67
$QZGSV,1,1,03,01,77,066,34,02,21,152,39,03,18,182,29*57
$BDGSV,3,1,12,213,74,270,28,206,68,254,34,208,66,175,33,216,61,252,24*63
$BDGSV,3,2,12,203,44,206,30,220,40,291,30,209,38,239,32,230,36,231,37*68
$BDGSV,3,3,12,223,34,102,33,204,34,133,,229,29,295,28,225,17,049,28*6E
$GAGSV,2,1,07,104,73,327,26,112,37,180,25,119,31,056,30,109,29,260,36*6E
$GAGSV,2,2,07,136,23,318,23,121,14,072,26,101,12,122,*65
$GPGSA,A,3,02,05,13,15,21,24,29,30,,,,,1.5,0.9,1.2*30
$GNGSA,A,3,02,05,13,15,21,24,29,30,,,,,1.5,0.9,1.2*2E
$GNGSA,A,3,66,67,75,76,81,,,,,,,,1.5,0.9,1.2*29
$QZGSA,A,3,01,02,03,,,,,,,,,,1.5,0.9,1.2*20
$IMGSA,A,3,,,,,,,,,,,,,1.5,0.9,1.2*2F
$BDGSA,A,3,203,206,208,209,213,216,220,223,225,229,230,,1.5,0.9,1.2*12
$GAGSA,A,3,109,112,119,136,,,,,,,,,1.5,0.9,1.2*2A
$GPRMC,025029.00,A,3722.864559,N,12640.713864,E,000.0,218.9,231119,,,A*50
$GPGGA,025030.00,3722.864559,N,12640.713864,E,1,37,0.4,8.8,M,17.7,M,,*60
$GPGSV,2,1,08,13,74,031,34,15,65,263,40,05,52,076,43,21,27,314,31*74
$GPGSV,2,2,08,29,25,245,38,30,23,050,31,02,22,155,40,24,15,189,29*7E
$GLGSV,2,1,06,66,50,020,35,81,44,215,32,67,42,296,34,76,28,097,32*66
$GLGSV,2,2,06,75,19,044,35,83,12,335,14*67
$QZGSV,1,1,03,01,77,066,33,02,21,152,39,03,18,182,30*58
$BDGSV,3,1,12,213,74,270,28,206,68,254,33,208,66,175,33,216,61,252,24*64
$BDGSV,3,2,12,203,44,206,30,220,40,291,29,209,38,239,32,230,36,231,37*60
$BDGSV,3,3,12,223,34,102,33,204,34,133,,229,29,295,28,225,17,049,28*6E
$GAGSV,2,1,07,104,73,327,25,112,37,180,25,119,31,056,30,109,29,260,36*6D
$GAGSV,2,2,07,136,23,318,23,121,14,072,25,101,12,122,24*60
$GPGSA,A,3,02,05,13,15,21,24,29,30,,,,,1.5,0.9,1.2*30
$GNGSA,A,3,02,05,13,15,21,24,29,30,,,,,1.5,0.9,1.2*2E
$GNGSA,A,3,66,67,75,76,81,,,,,,,,1.5,0.9,1.2*29
$QZGSA,A,3,01,02,03,,,,,,,,,,1.5,0.9,1.2*20
$IMGSA,A,3,,,,,,,,,,,,,1.5,0.9,1.2*2F
$BDGSA,A,3,203,206,208,209,213,216,220,223,225,229,230,,1.5,0.9,1.2*12
$GAGSA,A,3,101,104,109,112,119,136,,,,,,,1.5,0.9,1.2*2F
$GPRMC,025030.00,A,3722.864559,N,12640.713864,E,000.0,218.9,231119,,,A*58
$GPGGA,025031.00,3722.864559,N,12640.713864,E,1,36,0.6,9.0,M,17.7,M,,*6B
$GPGSV,2,1,08,13,74,032,34,15,65,263,39,05,52,076,43,21,27,314,31*79
$GPGSV,2,2,08,29,25,245,38,30,23,050,31,02,22,155,40,24,15,189,28*7F
$GLGSV,2,1,06,66,50,020,35,81,44,215,30,67,42,296,35,76,28,097,32*65
$GLGSV,2,2,06,75,19,044,36,83,12,335,14*64
$QZGSV,1,1,03,01,77,066,33,02,21,152,39,03,18,182,30*58
$BDGSV,3,1,12,213,74,270,27,206,68,254,33,208,66,175,33,216,61,252,23*6C
$BDGSV,3,2,12,203,44,206,29,220,40,291,28,209,38,239,32,230,36,231,36*68
$BDGSV,3,3,12,223,34,102,32,204,34,133,,229,29,295,28,225,17,049,27*60
$GAGSV,2,1,07,104,73,327,25,112,37,180,24,119,31,056,30,109,29,260,36*6C
$GAGSV,2,2,07,136,23,318,23,121,14,072,24,101,12,122,24*61
$GPGSA,A,3,02,05,13,15,21,24,29,30,,,,,1.7,0.9,1.4*34
$GNGSA,A,3,02,05,13,15,21,24,29,30,,,,,1.7,0.9,1.4*2A
$GNGSA,A,3,66,67,75,76,,,,,,,,,1.7,0.9,1.4*24
$QZGSA,A,3,01,02,03,,,,,,,,,,1.7,0.9,1.4*24
$IMGSA,A,3,,,,,,,,,,,,,1.7,0.9,1.4*2B
$BDGSA,A,3,203,206,208,209,213,216,220,223,225,229,230,,1.7,0.9,1.4*16
$GAGSA,A,3,101,104,109,112,119,136,,,,,,,1.7,0.9,1.4*2B
$GPRMC,025031.00,A,3722.864559,N,12640.713864,E,000.0,218.9,231119,,,A*59
$GPGGA,025032.00,3722.864559,N,12640.713864,E,1,37,0.6,9.2,M,17.7,M,,*6B
$GPGSV,2,1,08,13,74,032,34,15,65,263,39,05,52,076,43,21,27,314,30*78
$GPGSV,2,2,08,29,25,245,38,30,23,050,30,02,22,155,40,24,15,189,28*7E
$GLGSV,2,1,06,66,50,020,34,81,44,215,30,67,42,296,37,76,28,097,31*65
$GLGSV,2,2,06,75,19,044,36,83,12,335,14*64
$QZGSV,1,1,03,01,77,066,34,02,21,152,39,03,18,182,30*5F
$BDGSV,3,1,12,213,74,270,27,206,68,254,33,208,66,175,33,216,61,252,25*6A
$BDGSV,3,2,12,203,44,206,29,220,40,291,28,209,38,239,32,230,36,231,38*66
$BDGSV,3,3,12,204,34,133,,223,34,102,33,229,29,295,28,225,17,049,28*6E
$GAGSV,2,1,07,104,73,327,24,112,36,180,24,119,31,056,30,109,29,260,36*6C
$GAGSV,2,2,07,136,23,318,23,121,14,072,23,101,12,122,24*66
$GPGSA,A,3,02,05,13,15,21,24,29,30,,,,,1.9,1.1,1.5*32
$GNGSA,A,3,02,05,13,15,21,24,29,30,,,,,1.9,1.1,1.5*2C
$GNGSA,A,3,66,67,75,76,81,,,,,,,,1.9,1.1,1.5*2B
$QZGSA,A,3,01,02,03,,,,,,,,,,1.9,1.1,1.5*22
$IMGSA,A,3,,,,,,,,,,,,,1.9,1.1,1.5*2D
$BDGSA,A,3,203,206,208,209,213,216,220,223,225,229,230,,1.9,1.1,1.5*10
$GAGSA,A,3,101,104,109,112,119,136,,,,,,,1.9,1.1,1.5*2D
$GPRMC,025032.00,A,3722.864559,N,12640.713864,E,000.0,218.9,231119,,,A*5A
$GPGGA,025033.00,3722.864559,N,12640.713864,E,1,36,0.6,9.2,M,17.7,M,,*6B
$GPGSV,2,1,08,13,74,032,34,15,65,263,41,05,52,076,43,21,27,314,30*77
$GPGSV,2,2,08,29,25,245,38,30,23,050,30,02,22,155,40,24,15,189,31*76
$GLGSV,2,1,06,66,50,020,34,81,44,215,30,67,42,296,37,76,28,097,31*65
$GLGSV,2,2,06,75,19,044,36,83,12,335,*61
$QZGSV,1,1,03,01,77,066,34,02,21,152,38,03,18,182,33*5D
$BDGSV,3,1,12,213,74,270,26,206,68,254,34,208,66,175,33,216,61,252,27*6E
$BDGSV,3,2,12,203,44,206,29,220,40,291,30,209,38,239,32,230,36,231,38*6F
$BDGSV,3,3,12,204,34,133,,223,34,102,35,229,29,295,28,225,17,049,28*68
$GAGSV,2,1,07,104,73,327,24,112,36,180,24,119,31,056,30,109,29,260,36*6C
$GAGSV,2,2,07,136,23,318,25,121,14,072,22,101,12,122,*67
$GPGSA,A,3,02,05,13,15,21,24,29,30,,,,,2.0,1.0,1.8*34
$GNGSA,A,3,02,05,13,15,21,24,29,30,,,,,2.0,1.0,1.8*2A
$GNGSA,A,3,66,67,75,76,81,,,,,,,,2.0,1.0,1.8*2D
$QZGSA,A,3,01,02,03,,,,,,,,,,2.0,1.0,1.8*24
$IMGSA,A,3,,,,,,,,,,,,,2.0,1.0,1.8*2B
$BDGSA,A,3,203,206,208,209,213,216,220,223,225,229,230,,2.0,1.0,1.8*16
$GAGSA,A,3,104,109,112,119,136,,,,,,,,2.0,1.0,1.8*1B
$GPRMC,025033.00,A,3722.864559,N,12640.713864,E,000.0,218.9,231119,,,A*5B
$GPGGA,025034.00,3722.864559,N,12640.713864,E,1,39,0.6,9.2,M,17.7,M,,*63
$GPGSV,2,1,08,13,74,032,33,15,65,263,42,05,52,076,43,21,27,314,34*77
$GPGSV,2,2,08,29,25,245,39,30,23,050,29,02,22,155,39,24,15,189,31*71
$GLGSV,2,1,06,66,50,020,34,81,44,215,34,67,42,296,36,76,28,097,33*62
$GLGSV,2,2,06,75,19,044,35,83,12,335,*62
$QZGSV,1,1,03,01,77,066,37,02,21,152,38,03,18,182,34*59
$BDGSV,3,1,12,213,74,270,31,206,68,254,34,208,66,175,33,216,61,252,27*68
$BDGSV,3,2,12,203,44,206,31,220,40,291,35,209,38,239,31,230,36,231,37*6F
$BDGSV,3,3,12,204,34,133,27,223,34,102,35,229,29,295,29,225,17,049,33*66
$GAGSV,2,1,07,104,73,327,23,112,36,180,23,119,31,056,30,109,29,260,35*6F
$GAGSV,2,2,07,136,23,318,27,121,14,072,22,101,12,122,22*65
$GPGSA,A,3,02,05,13,15,21,24,29,30,,,,,1.9,1.0,1.6*30
$GNGSA,A,3,02,05,13,15,21,24,29,30,,,,,1.9,1.0,1.6*2E
$GNGSA,A,3,66,67,75,76,81,,,,,,,,1.9,1.0,1.6*29
$QZGSA,A,3,01,02,03,,,,,,,,,,1.9,1.0,1.6*20
$IMGSA,A,3,,,,,,,,,,,,,1.9,1.0,1.6*2F
$BDGSA,A,3,203,204,206,208,209,213,216,220,223,225,229,230,1.9,1.0,1.6*24
$GAGSA,A,3,101,104,109,112,119,121,136,,,,,,1.9,1.0,1.6*1D
$GPRMC,025034.00,A,3722.864559,N,12640.713864,E,000.0,218.9,231119,,,A*5C
$GPGGA,025035.00,3722.864559,N,12640.713864,E,1,39,1.2,9.2,M,17.7,M,,*67
$GPGSV,2,1,08,13,74,032,33,15,65,263,41,05,52,076,44,21,27,314,34*73
$GPGSV,2,2,08,29,25,245,39,30,23,050,29,02,22,155,39,24,15,189,30*70
$GLGSV,2,1,06,66,50,020,33,81,44,215,36,67,42,296,36,76,28,097,33*67
$GLGSV,2,2,06,75,19,044,35,83,12,335,13*60
$QZGSV,1,1,03,01,77,066,37,02,21,152,37,03,18,182,35*57
$BDGSV,3,1,12,213,74,270,31,206,68,254,34,208,66,175,33,216,61,252,28*67
$BDGSV,3,2,12,203,44,206,32,220,40,291,36,209,38,239,31,230,36,231,37*6F
$BDGSV,3,3,12,204,34,133,29,223,34,102,35,229,29,295,30,225,17,049,35*66
$GAGSV,2,1,07,104,73,327,23,112,36,180,23,119,31,056,30,109,29,260,35*6F
$GAGSV,2,2,07,136,23,318,27,121,14,072,22,101,12,122,24*63
$GPGSA,A,3,02,05,13,15,21,24,29,30,,,,,3.1,2.1,2.2*3F
$GNGSA,A,3,02,05,13,15,21,24,29,30,,,,,3.1,2.1,2.2*21
$GNGSA,A,3,66,67,75,76,81,,,,,,,,3.1,2.1,2.2*26
$QZGSA,A,3,01,02,03,,,,,,,,,,3.1,2.1,2.2*2F
$IMGSA,A,3,,,,,,,,,,,,,3.1,2.1,2.2*20
$BDGSA,A,3,203,204,206,208,209,213,216,220,223,225,229,230,3.1,2.1,2.2*2B
$GAGSA,A,3,101,104,109,112,119,121,136,,,,,,3.1,2.1,2.2*12
$GPRMC,025035.00,A,3722.864559,N,12640.713864,E,000.0,218.9,231119,,,A*5D
$GPGGA,025036.00,3722.864559,N,12640.713864,E,1,39,0.6,9.0,M,17.7,M,,*63
$GPGSV,2,1,08,13,74,032,33,15,65,263,41,05,52,076,44,21,27,314,34*73
$GPGSV,2,2,08,29,25,245,38,30,23,050,28,02,22,155,39,24,15,189,30*70
$GLGSV,2,1,06,66,50,020,33,81,44,215,37,67,42,296,36,76,28,097,34*61
$GLGSV,2,2,06,75,19,044,35,83,12,335,13*60
$QZGSV,1,1,03,01,77,066,37,02,21,152,37,03,18,182,36*54
$BDGSV,3,1,12,213,74,270,31,206,68,254,34,208,66,175,32,216,61,252,32*6D
$BDGSV,3,2,12,203,44,206,32,220,40,291,36,209,38,239,30,230,36,231,36*6F
$BDGSV,3,3,12,204,34,133,28,223,34,102,36,229,29,295,33,225,17,049,35*67
$GAGSV,2,1,07,104,73,327,27,112,36,180,23,119,31,056,30,109,29,260,34*6A
$GAGSV,2,2,07,136,23,318,27,121,14,072,21,101,12,122,24*60
$GPGSA,A,3,02,05,13,15,21,24,29,30,,,,,2.7,1.3,2.3*38
$GNGSA,A,3,02,05,13,15,21,24,29,30,,,,,2.7,1.3,2.3*26
$GNGSA,A,3,66,67,75,76,81,,,,,,,,2.7,1.3,2.3*21
$QZGSA,A,3,01,02,03,,,,,,,,,,2.7,1.3,2.3*28
$IMGSA,A,3,,,,,,,,,,,,,2.7,1.3,2.3*27
$BDGSA,A,3,203,204,206,208,209,213,216,220,223,225,229,230,2.7,1.3,2.3*2C
$GAGSA,A,3,101,104,109,112,119,121,136,,,,,,2.7,1.3,2.3*15
$GPRMC,025036.00,A,3722.864559,N,12640.713864,E,000.0,218.9,231119,,,A*5E
$GPGGA,025037.00,3722.864559,N,12640.713864,E,1,39,0.6,9.0,M,17.7,M,,*62
$GPGSV,2,1,08,13,74,032,33,15,65,263,41,05,52,076,45,21,27,314,33*75
$GPGSV,2,2,08,29,25,245,38,30,23,050,28,02,22,155,38,24,15,189,30*71
$GLGSV,2,1,06,66,50,020,32,81,44,215,37,67,42,296,35,76,28,097,34*63
$GLGSV,2,2,06,75,19,044,35,83,12,335,13*60
$QZGSV,1,1,03,01,77,066,36,02,21,152,36,03,18,182,37*55
$BDGSV,3,1,12,213,74,270,30,206,68,254,35,208,66,175,31,216,61,252,32*6E
$BDGSV,3,2,12,203,44,206,32,220,40,291,36,209,38,239,30,230,36,231,36*6F
$BDGSV,3,3,12,204,34,133,28,223,34,102,36,229,29,295,32,225,17,049,35*66
$GAGSV,2,1,07,104,73,327,26,112,36,180,22,119,31,056,30,109,29,260,34*6A
$GAGSV,2,2,07,136,23,318,27,121,14,072,21,101,12,122,25*61
$GPGSA,A,3,02,05,13,15,21,24,29,30,,,,,2.5,1.1,2.3*38
$GNGSA,A,3,02,05,13,15,21,24,29,30,,,,,2.5,1.1,2.3*26
$GNGSA,A,3,66,67,75,76,81,,,,,,,,2.5,1.1,2.3*21
$QZGSA,A,3,01,02,03,,,,,,,,,,2.5,1.1,2.3*28
$IMGSA,A,3,,,,,,,,,,,,,2.5,1.1,2.3*27
$BDGSA,A,3,203,204,206,208,209,213,216,220,223,225,229,230,2.5,1.1,2.3*2C
$GAGSA,A,3,101,104,109,112,119,121,136,,,,,,2.5,1.1,2.3*15
$GPRMC,025037.00,A,3722.864559,N,12640.713864,E,000.0,218.9,231119,,,A*5F
$GPGGA,025038.00,3722.864559,N,12640.713864,E,1,39,0.8,9.0,M,17.7,M,,*63
$GPGSV,2,1,08,13,74,032,33,15,65,263,40,05,52,076,45,21,27,314,33*74
$GPGSV,2,2,08,29,25,245,37,30,23,050,27,02,22,155,38,24,15,189,30*71
$GLGSV,2,1,06,66,50,021,32,81,44,215,37,67,42,296,34,76,28,097,33*64
$GLGSV,2,2,06,75,19,044,35,83,12,335,*62
$QZGSV,1,1,03,01,77,066,36,02,21,152,36,03,18,182,38*5A
$BDGSV,3,1,12,213,74,270,30,206,68,254,34,208,66,175,31,216,61,252,33*6E
$BDGSV,3,2,12,203,44,206,32,220,40,291,36,209,38,239,29,230,36,231,35*64
$BDGSV,3,3,12,204,34,133,27,223,34,102,36,229,29,295,34,225,17,049,34*6E
$GAGSV,2,1,07,104,73,327,26,112,36,180,22,119,31,056,29,109,29,260,33*65
$GAGSV,2,2,07,136,23,318,30,121,14,072,21,101,12,122,25*67
$GPGSA,A,3,02,05,13,15,21,24,29,30,,,,,5.9,1.8,5.6*38
$GNGSA,A,3,02,05,13,15,21,24,29,30,,,,,5.9,1.8,5.6*26
$GNGSA,A,3,66,67,75,76,81,,,,,,,,5.9,1.8,5.6*21
$QZGSA,A,3,01,02,03,,,,,,,,,,5.9,1.8,5.6*28
$IMGSA,A,3,,,,,,,,,,,,,5.9,1.8,5.6*27
$BDGSA,A,3,203,204,206,208,209,213,216,220,223,225,229,230,5.9,1.8,5.6*2C
$GAGSA,A,3,101,104,109,112,119,121,136,,,,,,5.9,1.8,5.6*15
$GPRMC,025038.00,A,3722.864559,N,12640.713864,E,000.0,218.9,231119,,,A*50
$GPGGA,025039.00,3722.864559,N,12640.713864,E,1,38,1.2,9.0,M,17.7,M,,*68
$GPGSV,2,1,08,13,74,032,33,15,65,263,40,05,52,076,45,21,27,314,32*75
$GPGSV,2,2,08,29,25,245,37,30,23,050,28,02,22,155,38,24,15,189,29*76
$GLGSV,2,1,06,66,50,021,33,81,44,215,38,67,42,296,34,76,28,097,33*6A
$GLGSV,2,2,06,75,19,044,36,83,12,335,13*63
$QZGSV,1,1,03,01,77,066,36,02,21,152,36,03,18,182,39*5B
$BDGSV,3,1,12,213,74,270,29,206,68,254,34,208,66,175,30,216,61,252,33*67
$BDGSV,3,2,12,203,44,206,32,220,40,291,35,209,38,239,29,230,36,231,34*66
$BDGSV,3,3,12,204,34,133,26,223,34,102,36,229,29,295,34,225,17,049,34*6F
$GAGSV,2,1,07,104,73,327,25,112,36,180,22,119,31,056,29,109,29,260,33*66
$GAGSV,2,2,07,136,23,318,31,121,14,072,20,101,12,122,*60
$GPGSA,A,3,02,05,13,15,21,24,29,30,,,,,8.1,2.4,7.7*31
$GNGSA,A,3,02,05,13,15,21,24,29,30,,,,,8.1,2.4,7.7*2F
$GNGSA,A,3,66,67,75,76,81,,,,,,,,8.1,2.4,7.7*28
$QZGSA,A,3,01,02,03,,,,,,,,,,8.1,2.4,7.7*21
$IMGSA,A,3,,,,,,,,,,,,,8.1,2.4,7.7*2E
$BDGSA,A,3,203,204,206,208,209,213,216,220,223,225,229,230,8.1,2.4,7.7*25
$GAGSA,A,3,104,109,112,119,121,136,,,,,,,8.1,2.4,7.7*2C
$GPRMC,025039.00,A,3722.864559,N,12640.713864,E,000.0,218.9,231119,,,A*51
$GPGGA,025040.00,3722.864559,N,12640.713864,E,1,40,0.6,9.0,M,17.7,M,,*6C
$GPGSV,2,1,08,13,74,032,33,15,65,263,39,05,52,076,45,21,27,314,31*78
$GPGSV,2,2,08,29,25,245,36,30,23,050,28,02,22,155,38,24,15,189,29*77
$GLGSV,2,1,06,66,50,021,33,81,44,215,38,67,42,296,33,76,28,097,33*6D
$GLGSV,2,2,06,75,19,044,37,83,12,335,13*62
$QZGSV,1,1,03,01,77,066,36,02,21,152,36,03,18,182,39*5B
$BDGSV,3,1,12,213,74,270,29,206,68,254,34,208,66,175,29,216,61,252,33*6F
$BDGSV,3,2,12,203,44,206,32,220,40,291,35,209,38,239,29,230,36,231,33*61
$BDGSV,3,3,12,204,34,133,26,223,34,102,36,229,29,295,34,225,17,049,34*6F
$GAGSV,2,1,07,104,73,327,25,112,36,180,21,119,31,056,28,109,29,260,33*64
$GAGSV,2,2,07,136,23,318,31,121,14,072,20,101,12,122,26*64
$GPGSA,A,3,02,05,13,15,21,24,29,30,,,,,1.9,1.0,1.7*31
$GNGSA,A,3,02,05,13,15,21,24,29,30,,,,,1.9,1.0,1.7*2F
$GNGSA,A,3,66,67,75,76,81,,,,,,,,1.9,1.0,1.7*28
$QZGSA,A,3,01,02,03,,,,,,,,,,1.9,1.0,1.7*21
$IMGSA,A,3,,,,,,,,,,,,,1.9,1.0,1.7*2E
$BDGSA,A,3,203,204,206,208,209,213,216,220,223,225,229,230,1.9,1.0,1.7*25
$GAGSA,A,3,101,104,109,112,119,121,136,,,,,,1.9,1.0,1.7*1C
$GPRMC,025040.00,A,3722.864559,N,12640.713864,E,000.0,218.9,231119,,,A*5F
$GPGGA,025041.00,3722.864559,N,12640.713864,E,1,38,1.6,9.2,M,17.7,M,,*61
$GPGSV,2,1,08,13,74,032,33,15,65,263,39,05,52,076,45,21,27,314,31*78
$GPGSV,2,2,08,29,25,245,36,30,23,050,32,02,22,155,38,24,15,189,28*7D
$GLGSV,2,1,06,66,50,021,35,81,44,215,38,67,42,296,34,76,28,097,35*6A
$GLGSV,2,2,06,75,19,044,36,83,12,335,*61
$QZGSV,1,1,03,01,77,066,35,02,21,152,36,03,18,182,39*58
$BDGSV,3,1,12,213,74,270,28,206,68,254,34,208,66,175,28,216,61,252,33*6F
$BDGSV,3,2,12,203,44,206,32,220,40,291,35,209,38,239,31,230,36,231,33*68
$BDGSV,3,3,12,204,34,133,25,223,34,102,36,229,29,295,33,225,17,049,34*6B
$GAGSV,2,1,07,104,73,327,24,112,36,180,,119,31,056,28,109,29,260,33*66
$GAGSV,2,2,07,136,23,318,31,121,14,072,20,101,12,121,28*69
$GPGSA,A,3,02,05,13,15,21,24,29,30,,,,,6.4,3.6,5.3*3F
$GNGSA,A,3,02,05,13,15,21,24,29,30,,,,,6.4,3.6,5.3*21
$GNGSA,A,3,66,67,75,76,81,,,,,,,,6.4,3.6,5.3*26
$QZGSA,A,3,01,02,03,,,,,,,,,,6.4,3.6,5.3*2F
$IMGSA,A,3,,,,,,,,,,,,,6.4,3.6,5.3*20
$BDGSA,A,3,203,204,206,208,209,213,216,220,223,225,229,230,6.4,3.6,5.3*2B
$GAGSA,A,3,101,104,109,119,121,136,,,,,,,6.4,3.6,5.3*20
$GPRMC,025041.00,A,3722.864559,N,12640.713864,E,000.0,218.9,231119,,,A*5E
$GPGGA,025042.00,3722.863385,N,12640.711694,E,1,39,0.4,9.4,M,17.7,M,,*65
$GPGSV,2,1,08,13,74,032,34,15,65,263,38,05,52,076,45,21,27,314,30*7F
$GPGSV,2,2,08,29,25,245,36,30,23,050,33,02,22,155,38,24,15,189,28*7C
$GLGSV,2,1,06,66,50,021,38,81,44,215,38,67,42,296,33,76,28,097,35*60
$GLGSV,2,2,06,75,19,044,36,83,12,335,*61
$QZGSV,1,1,03,01,77,066,35,02,21,152,35,03,18,182,38*5A
$BDGSV,3,1,12,213,74,270,29,206,68,254,33,208,66,175,29,216,61,252,32*69
$BDGSV,3,2,12,203,44,206,32,220,40,291,34,209,38,239,32,230,36,231,33*6A
$BDGSV,3,3,12,204,34,133,25,223,34,102,36,229,29,295,33,225,17,049,33*6C
$GAGSV,2,1,07,104,73,327,24,112,36,180,24,119,31,056,32,109,29,260,33*6B
$GAGSV,2,2,07,136,23,318,30,121,14,072,21,101,12,121,28*69
$GPGSA,A,3,02,05,13,15,21,24,29,30,,,,,4.3,2.5,3.6*3B
$GNGSA,A,3,02,05,13,15,21,24,29,30,,,,,4.3,2.5,3.6*25
$GNGSA,A,3,66,67,75,76,81,,,,,,,,4.3,2.5,3.6*22
$QZGSA,A,3,01,02,03,,,,,,,,,,4.3,2.5,3.6*2B
$IMGSA,A,3,,,,,,,,,,,,,4.3,2.5,3.6*24
$BDGSA,A,3,203,204,206,208,209,213,216,220,223,225,229,230,4.3,2.5,3.6*2F
$GAGSA,A,3,101,104,109,112,119,121,136,,,,,,4.3,2.5,3.6*16
$GPRMC,025042.00,A,3722.863385,N,12640.711694,E,000.0,218.9,231119,,,A*5E
$GPGGA,025043.00,3722.863284,N,12640.711765,E,1,38,0.4,9.4,M,17.7,M,,*6A
$GPGSV,2,1,08,13,74,032,34,15,65,263,37,05,52,076,45,21,27,314,29*78
$GPGSV,2,2,08,29,25,245,37,30,23,050,35,02,22,156,38,24,15,189,27*77
$GLGSV,2,1,06,66,50,021,39,81,44,215,38,67,42,296,33,76,28,097,36*62
$GLGSV,2,2,06,75,19,044,35,83,12,335,*62
$QZGSV,1,1,03,01,77,066,35,02,21,152,35,03,18,182,38*5A
$BDGSV,3,1,12,213,74,270,30,206,68,254,33,208,66,175,29,216,61,252,32*61
$BDGSV,3,2,12,203,44,206,31,220,40,291,33,209,38,239,32,230,36,231,34*69
$BDGSV,3,3,12,204,34,133,23,223,34,102,35,229,29,295,32,225,17,049,32*69
$GAGSV,2,1,07,104,73,327,24,112,36,180,23,119,31,056,32,109,29,260,32*6D
$GAGSV,2,2,07,136,23,318,30,121,14,072,21,101,12,121,28*69
$GPGSA,A,3,02,05,13,15,21,24,29,30,,,,,3.1,1.6,2.7*3E
$GNGSA,A,3,02,05,13,15,21,24,29,30,,,,,3.1,1.6,2.7*20
$GNGSA,A,3,66,67,75,76,81,,,,,,,,3.1,1.6,2.7*27
$QZGSA,A,3,01,02,03,,,,,,,,,,3.1,1.6,2.7*2E
$IMGSA,A,3,,,,,,,,,,,,,3.1,1.6,2.7*21
$BDGSA,A,3,203,206,208,209,213,216,220,223,225,229,230,,3.1,1.6,2.7*1C
$GAGSA,A,3,101,104,109,112,119,121,136,,,,,,3.1,1.6,2.7*13
$GPRMC,025043.00,A,3722.863284,N,12640.711765,E,000.3,221.7,231119,,,A*57
$GPGGA,025044.00,3722.863160,N,12640.711630,E,1,37,0.4,9.4,M,17.7,M,,*6A
$GPGSV,2,1,08,13,74,032,34,15,65,263,36,05,52,076,44,21,27,314,28*79
$GPGSV,2,2,08,29,25,245,36,30,23,050,35,02,22,156,39,24,15,189,27*77
$GLGSV,2,1,06,66,50,021,39,81,44,215,37,67,42,296,35,76,28,097,36*6B
$GLGSV,2,2,06,75,19,044,34,83,12,335,*63
$QZGSV,1,1,03,01,77,066,35,02,21,152,35,03,18,182,38*5A
$BDGSV,3,1,12,213,74,270,29,206,68,254,32,208,66,175,30,216,61,252,32*60
$BDGSV,3,2,12,203,44,206,31,220,40,291,33,209,38,239,34,230,36,231,38*63
$BDGSV,3,3,12,204,34,133,,223,34,102,35,229,29,295,32,225,17,049,32*68
$GAGSV,2,1,07,104,73,327,25,112,36,180,22,119,31,056,32,109,29,260,32*6D
$GAGSV,2,2,07,136,23,318,29,121,14,072,21,101,12,121,28*61
$GPGSA,A,3,02,05,13,15,21,24,29,30,,,,,4.0,1.7,3.6*39
$GNGSA,A,3,02,05,13,15,21,24,29,30,,,,,4.0,1.7,3.6*27
$GNGSA,A,3,66,67,75,76,81,,,,,,,,4.0,1.7,3.6*20
$QZGSA,A,3,01,02,03,,,,,,,,,,4.0,1.7,3.6*29
$IMGSA,A,3,,,,,,,,,,,,,4.0,1.7,3.6*26
$BDGSA,A,3,203,206,208,209,213,216,220,223,225,229,230,,4.0,1.7,3.6*1B
$GAGSA,A,3,101,104,109,119,121,136,,,,,,,4.0,1.7,3.6*26
$GPRMC,025044.00,A,3722.863160,N,12640.711630,E,000.3,221.7,231119,,,A*58
$GPGGA,025045.00,3722.862920,N,12640.711192,E,1,38,0.4,9.2,M,17.7,M,,*60
$GPGSV,2,1,08,13,74,032,35,15,65,263,36,05,52,076,44,21,27,314,28*78
$GPGSV,2,2,08,29,25,245,36,30,23,050,35,02,22,156,39,24,15,189,27*77
$GLGSV,2,1,06,66,50,021,42,81,44,215,37,67,42,296,34,76,28,097,36*66
$GLGSV,2,2,06,75,19,044,34,83,12,335,*63
$QZGSV,1,1,03,01,77,066,35,02,21,152,36,03,18,182,37*56
$BDGSV,3,1,12,213,74,270,29,206,68,254,32,208,66,175,29,216,61,252,31*6B
$BDGSV,3,2,12,203,44,206,31,220,40,291,32,209,38,239,34,230,36,231,39*63
$BDGSV,3,3,12,204,34,133,,223,34,102,35,229,29,295,31,225,17,049,32*6B
$GAGSV,2,1,07,104,73,327,25,112,36,180,27,119,31,056,31,109,29,260,31*68
$GAGSV,2,2,07,136,23,318,29,121,14,072,21,101,12,121,27*6E
$GPGSA,A,3,02,05,13,15,21,24,29,30,,,,,4.5,1.6,4.2*3E
$GNGSA,A,3,02,05,13,15,21,24,29,30,,,,,4.5,1.6,4.2*20
$GNGSA,A,3,66,67,75,76,81,,,,,,,,4.5,1.6,4.2*27
$QZGSA,A,3,01,02,03,,,,,,,,,,4.5,1.6,4.2*2E
$IMGSA,A,3,,,,,,,,,,,,,4.5,1.6,4.2*21
$BDGSA,A,3,203,206,208,209,213,216,220,223,225,229,230,,4.5,1.6,4.2*1C
$GAGSA,A,3,101,104,109,112,119,121,136,,,,,,4.5,1.6,4.2*13
$GPRMC,025045.00,A,3722.862920,N,12640.711192,E,002.1,249.0,231119,,,A*52
$GPGGA,025046.00,3722.859830,N,12640.708985,E,1,37,0.6,9.2,M,17.7,M,,*60
$GPGSV,2,1,08,13,74,032,36,15,65,263,36,05,52,076,44,21,27,314,28*7B
$GPGSV,2,2,08,29,25,245,36,30,23,050,35,02,22,156,39,24,15,189,27*77
$GLGSV,2,1,06,66,50,021,42,81,44,215,37,67,42,296,34,76,28,097,36*66
$GLGSV,2,2,06,75,19,044,34,83,12,335,14*66
$QZGSV,1,1,03,01,77,066,34,02,21,152,37,03,18,182,36*57
$BDGSV,3,1,12,213,74,270,29,206,68,254,32,208,66,175,,216,61,252,34*65
$BDGSV,3,2,12,203,44,206,30,220,40,291,32,209,38,239,34,230,36,231,39*62
$BDGSV,3,3,12,204,34,133,21,223,34,102,40,229,29,295,32,225,17,049,33*68
$GAGSV,2,1,07,104,73,327,25,112,36,180,31,119,31,056,32,109,29,260,30*6D
$GAGSV,2,2,07,136,23,318,29,121,14,072,23,101,12,121,27*6C
$GPGSA,A,3,02,05,13,15,21,24,29,30,,,,,2.0,1.0,1.7*3B
$GNGSA,A,3,02,05,13,15,21,24,29,30,,,,,2.0,1.0,1.7*25
$GNGSA,A,3,66,67,75,76,81,,,,,,,,2.0,1.0,1.7*22
$QZGSA,A,3,01,02,03,,,,,,,,,,2.0,1.0,1.7*2B
$IMGSA,A,3,,,,,,,,,,,,,2.0,1.0,1.7*24
$BDGSA,A,3,203,206,209,213,216,220,223,225,229,230,,,2.0,1.0,1.7*23
$GAGSA,A,3,101,104,109,112,119,121,136,,,,,,2.0,1.0,1.7*16
$GPRMC,025046.00,A,3722.859830,N,12640.708985,E,006.8,208.4,231119,,,A*53
$GPGGA,025047.00,3722.856180,N,12640.706314,E,1,39,0.6,9.3,M,17.7,M,,*6F
$GPGSV,2,1,08,13,74,032,36,15,65,263,35,05,52,076,44,21,27,314,28*78
$GPGSV,2,2,08,29,25,245,35,30,23,050,36,02,22,156,39,24,15,189,30*71
$GLGSV,2,1,06,66,50,021,42,81,44,215,36,67,42,296,34,76,28,097,36*67
$GLGSV,2,2,06,75,19,044,33,83,12,335,19*6C
$QZGSV,1,1,03,01,77,066,34,02,21,152,38,03,18,182,36*58
$BDGSV,3,1,12,213,74,270,28,206,68,254,33,208,66,175,27,216,61,252,34*60
$BDGSV,3,2,12,203,44,206,30,220,40,291,31,209,38,239,33,230,36,231,38*67
$BDGSV,3,3,12,204,34,133,20,223,34,102,40,229,29,295,31,225,17,049,33*6A
$GAGSV,2,1,07,104,73,327,24,112,36,180,30,119,31,056,32,109,29,260,30*6D
$GAGSV,2,2,07,136,23,318,28,121,14,072,24,101,12,121,*6F
$GPGSA,A,3,02,05,13,15,21,24,29,30,,,,,1.9,0.9,1.7*39
$GNGSA,A,3,02,05,13,15,21,24,29,30,,,,,1.9,0.9,1.7*27
$GNGSA,A,3,66,67,75,76,81,83,,,,,,,1.9,0.9,1.7*2B
$QZGSA,A,3,01,02,03,,,,,,,,,,1.9,0.9,1.7*29
$IMGSA,A,3,,,,,,,,,,,,,1.9,0.9,1.7*26
$BDGSA,A,3,203,204,206,208,209,213,216,220,223,225,229,230,1.9,0.9,1.7*2D
$GAGSA,A,3,104,109,112,119,121,136,,,,,,,1.9,0.9,1.7*24
$GPRMC,025047.00,A,3722.856180,N,12640.706314,E,010.7,210.7,231119,,,A*51
$GPGGA,025048.00,3722.851850,N,12640.702892,E,1,38,0.6,9.3,M,17.7,M,,*63
$GPGSV,2,1,08,13,74,032,36,15,65,263,35,05,52,076,44,21,27,314,27*77
$GPGSV,2,2,08,29,25,245,35,30,23,050,36,02,22,156,39,24,15,189,30*71
$GLGSV,2,1,06,66,50,021,41,81,44,215,36,67,42,296,34,76,28,097,36*64
$GLGSV,2,2,06,75,19,044,33,83,12,335,18*6D
$QZGSV,1,1,03,01,77,066,34,02,21,152,37,03,18,182,35*54
$BDGSV,3,1,12,213,74,270,27,206,68,254,33,208,66,175,33,216,61,252,33*6D
$BDGSV,3,2,12,203,44,206,30,220,40,291,33,209,38,239,33,230,36,231,38*65
$BDGSV,3,3,12,204,34,133,20,223,34,102,39,229,29,295,31,225,17,049,32*65
$GAGSV,2,1,07,104,73,327,24,112,36,180,30,119,31,056,32,109,29,260,29*65
$GAGSV,2,2,07,136,23,318,28,121,14,072,23,101,12,121,24*6E
$GPGSA,A,3,02,05,13,15,21,24,29,30,,,,,1.9,1.0,1.6*30
$GNGSA,A,3,02,05,13,15,21,24,29,30,,,,,1.9,1.0,1.6*2E
$GNGSA,A,3,66,67,75,76,81,,,,,,,,1.9,1.0,1.6*29
$QZGSA,A,3,01,02,03,,,,,,,,,,1.9,1.0,1.6*20
$IMGSA,A,3,,,,,,,,,,,,,1.9,1.0,1.6*2F
$BDGSA,A,3,203,206,208,209,213,216,220,223,225,229,230,,1.9,1.0,1.6*12
$GAGSA,A,3,101,104,109,112,119,121,136,,,,,,1.9,1.0,1.6*1D
$GPRMC,025048.00,A,3722.851850,N,12640.702892,E,014.0,211.7,231119,,,A*5E
$GPGGA,025049.00,3722.846819,N,12640.698864,E,1,38,2.4,9.3,M,17.7,M,,*62
$GPGSV,2,1,08,13,74,032,36,15,65,263,36,05,52,076,44,21,27,314,27*74
$GPGSV,2,2,08,29,25,245,36,30,23,050,36,02,22,156,39,24,15,189,30*72
$GLGSV,2,1,06,66,50,021,41,81,44,215,36,67,42,296,33,76,28,097,36*63
$GLGSV,2,2,06,75,19,044,32,83,12,335,18*6C
$QZGSV,1,1,03,01,77,066,34,02,21,152,37,03,18,182,35*54
$BDGSV,3,1,12,213,74,270,27,206,68,254,33,208,66,175,32,216,61,252,33*6C
$BDGSV,3,2,12,203,44,206,30,220,40,291,33,209,38,239,33,230,36,231,38*65
$BDGSV,3,3,12,204,34,133,19,223,34,102,39,229,29,295,30,225,17,049,32*6E
$GAGSV,2,1,07,104,73,327,23,112,36,180,29,119,31,056,31,109,29,260,28*68
$GAGSV,2,2,07,136,23,318,28,121,14,072,23,101,12,121,27*6D
$GPGSA,A,3,02,05,13,15,21,24,29,30,,,,,6.7,4.9,4.6*30
$GNGSA,A,3,02,05,13,15,21,24,29,30,,,,,6.7,4.9,4.6*2E
$GNGSA,A,3,66,67,75,76,81,,,,,,,,6.7,4.9,4.6*29
$QZGSA,A,3,01,02,03,,,,,,,,,,6.7,4.9,4.6*20
$IMGSA,A,3,,,,,,,,,,,,,6.7,4.9,4.6*2F
$BDGSA,A,3,203,206,208,209,213,216,220,223,225,229,230,,6.7,4.9,4.6*12
$GAGSA,A,3,101,104,109,112,119,121,136,,,,,,6.7,4.9,4.6*1D
$GPRMC,025049.00,A,3722.846819,N,12640.698864,E,021.4,212.3,231119,,,A*5A
$GPGGA,025050.00,3722.841363,N,12640.694000,E,1,37,2.4,9.4,M,17.7,M,,*65
$GPGSV,2,1,08,13,74,032,36,15,65,263,37,05,52,076,43,21,27,314,27*72
$GPGSV,2,2,08,29,25,245,42,30,23,050,36,02,22,156,39,24,15,189,29*79
$GLGSV,2,1,06,66,50,021,41,81,44,215,36,67,42,296,33,76,28,097,36*63
$GLGSV,2,2,06,75,19,044,32,83,12,335,18*6C
$QZGSV,1,1,03,01,77,066,33,02,21,152,37,03,18,182,34*52
$BDGSV,3,1,12,213,74,270,28,206,68,254,33,208,66,175,30,216,61,252,33*61
$BDGSV,3,2,12,203,44,206,31,220,40,291,34,209,38,239,32,230,36,231,37*6D
$BDGSV,3,3,12,204,34,133,,223,34,102,39,229,29,295,29,225,17,049,31*6D
$GAGSV,2,1,07,104,73,327,23,112,36,180,29,119,31,056,31,109,29,260,28*68
$GAGSV,2,2,07,136,23,318,28,121,14,072,22,101,12,121,29*62
$GPGSA,A,3,02,05,13,15,21,24,29,30,,,,,7.9,4.3,6.6*37
$GNGSA,A,3,02,05,13,15,21,24,29,30,,,,,7.9,4.3,6.6*29
$GNGSA,A,3,66,67,75,76,81,83,,,,,,,7.9,4.3,6.6*25
$QZGSA,A,3,01,02,03,,,,,,,,,,7.9,4.3,6.6*27
$IMGSA,A,3,,,,,,,,,,,,,7.9,4.3,6.6*28
$BDGSA,A,3,203,206,209,213,216,220,223,225,229,230,,,7.9,4.3,6.6*2F
$GAGSA,A,3,101,104,109,112,119,136,,,,,,,7.9,4.3,6.6*28
$GPRMC,025050.00,A,3722.841363,N,12640.694000,E,024.0,215.1,231119,,,A*51
$GPGGA,025051.00,3722.835641,N,12640.688634,E,1,36,4.8,9.5,M,17.7,M,,*64
$GPGSV,2,1,08,13,74,032,36,15,65,263,36,05,52,076,43,21,27,314,27*73
$GPGSV,2,2,08,29,25,245,41,30,23,050,35,02,22,156,40,24,15,189,29*77
$GLGSV,2,1,06,66,50,021,41,81,44,215,36,67,42,296,36,76,28,097,35*65
$GLGSV,2,2,06,75,19,044,32,83,12,335,18*6C
$QZGSV,1,1,03,01,77,066,34,02,21,152,37,03,18,182,34*55
$BDGSV,3,1,12,213,74,270,28,206,68,254,33,208,66,175,30,216,61,252,32*60
$BDGSV,3,2,12,203,44,206,30,220,40,291,35,209,38,239,32,230,36,231,37*6D
$BDGSV,3,3,12,204,34,133,,223,34,102,38,229,29,295,29,225,17,049,31*6C
$GAGSV,2,1,07,104,73,327,34,112,36,180,28,119,31,056,31,109,29,260,28*6F
$GAGSV,2,2,07,136,23,318,28,121,14,072,22,101,12,121,29*62
$GPGSA,A,3,02,05,13,15,21,24,29,30,,,,,15.2,9.9,11.6*3E
$GNGSA,A,3,02,05,13,15,21,24,29,30,,,,,15.2,9.9,11.6*20
$GNGSA,A,3,66,67,75,76,81,,,,,,,,15.2,9.9,11.6*27
$QZGSA,A,3,01,02,03,,,,,,,,,,15.2,9.9,11.6*2E
$IMGSA,A,3,,,,,,,,,,,,,15.2,9.9,11.6*21
$BDGSA,A,3,203,206,208,209,213,216,220,223,225,229,230,,15.2,9.9,11.6*1C
$GAGSA,A,3,101,104,109,119,136,,,,,,,,15.2,9.9,11.6*13
$GPRMC,025051.00,A,3722.835641,N,12640.688634,E,025.6,216.3,231119,,,A*5C
$GPGGA,025052.00,3722.829856,N,12640.683098,E,1,36,1.6,9.6,M,17.7,M,,*61
$GPGSV,2,1,08,13,74,032,36,15,65,263,36,05,52,076,43,21,27,314,30*75
$GPGSV,2,2,08,29,25,245,40,30,23,050,35,02,22,156,40,24,15,189,30*7E
$GLGSV,2,1,06,66,50,021,40,81,44,215,38,67,42,296,38,76,28,097,35*64
$GLGSV,2,2,06,75,19,044,32,83,12,335,18*6C
$QZGSV,1,1,03,01,77,066,35,02,21,152,37,03,18,182,35*55
$BDGSV,3,1,12,213,74,270,28,206,68,254,33,208,66,175,30,216,61,252,32*60
$BDGSV,3,2,12,203,44,206,30,220,40,291,36,209,38,239,32,230,36,231,37*6E
$BDGSV,3,3,12,204,34,133,,223,34,102,38,229,29,295,28,225,17,049,30*6C
$GAGSV,2,1,07,104,73,327,36,112,36,180,,119,31,056,30,109,29,260,27*69
$GAGSV,2,2,07,136,23,318,28,121,14,072,21,101,12,121,28*60
$GPGSA,A,3,02,05,13,15,21,24,29,30,,,,,5.9,3.2,5.0*36
$GNGSA,A,3,02,05,13,15,21,24,29,30,,,,,5.9,3.2,5.0*28
$GNGSA,A,3,66,67,75,76,81,,,,,,,,5.9,3.2,5.0*2F
$QZGSA,A,3,01,02,03,,,,,,,,,,5.9,3.2,5.0*26
$IMGSA,A,3,,,,,,,,,,,,,5.9,3.2,5.0*29
$BDGSA,A,3,203,206,208,209,213,216,220,223,225,229,230,,5.9,3.2,5.0*14
$GAGSA,A,3,101,104,109,119,136,,,,,,,,5.9,3.2,5.0*1B
$GPRMC,025052.00,A,3722.829856,N,12640.683098,E,026.1,217.0,231119,,,A*57
$GPGGA,025053.00,3722.824090,N,12640.677520,E,1,36,1.6,9.6,M,17.7,M,,*62
$GPGSV,2,1,08,13,74,032,35,15,65,263,35,05,52,076,44,21,27,314,30*72
$GPGSV,2,2,08,29,25,245,40,30,23,050,35,02,22,156,40,24,15,189,30*7E
$GLGSV,2,1,06,66,50,021,40,81,44,215,38,67,42,296,38,76,28,097,35*64
$GLGSV,2,2,06,75,19,044,32,83,12,335,17*63
$QZGSV,1,1,03,01,77,066,35,02,21,152,37,03,18,182,35*55
$BDGSV,3,1,12,213,74,270,28,206,68,254,32,208,66,175,,216,61,252,32*62
$BDGSV,3,2,12,203,44,206,30,220,40,291,35,209,38,239,32,230,36,231,37*6D
$BDGSV,3,3,12,204,34,133,17,223,34,102,37,229,29,295,28,225,17,049,31*64
$GAGSV,2,1,07,104,73,327,36,112,36,180,26,119,31,056,30,109,29,260,27*6D
$GAGSV,2,2,07,136,23,318,28,121,14,072,21,101,12,121,28*60
$GPGSA,A,3,02,05,13,15,21,24,29,30,,,,,6.7,3.5,5.7*3B
$GNGSA,A,3,02,05,13,15,21,24,29,30,,,,,6.7,3.5,5.7*25
$GNGSA,A,3,66,67,75,76,81,,,,,,,,6.7,3.5,5.7*22
$QZGSA,A,3,01,02,03,,,,,,,,,,6.7,3.5,5.7*2B
$IMGSA,A,3,,,,,,,,,,,,,6.7,3.5,5.7*24
$BDGSA,A,3,203,206,209,213,216,220,223,225,229,230,,,6.7,3.5,5.7*23
$GAGSA,A,3,101,104,109,112,119,136,,,,,,,6.7,3.5,5.7*24
$GPRMC,025053.00,A,3722.824090,N,12640.677520,E,026.1,217.5,231119,,,A*51
$GPGGA,025054.00,3722.818308,N,12640.671943,E,1,36,1.2,9.6,M,17.7,M,,*63
$GPGSV,2,1,08,13,74,032,35,15,65,263,34,05,52,076,44,21,27,314,30*73
$GPGSV,2,2,08,29,25,245,40,30,23,050,35,02,22,156,40,24,15,189,30*7E
$GLGSV,2,1,06,66,50,021,40,81,44,215,38,67,42,296,38,76,28,097,36*67
$GLGSV,2,2,06,75,19,044,32,83,12,335,17*63
$QZGSV,1,1,03,01,77,066,34,02,21,152,36,03,18,182,35*55
$BDGSV,3,1,12,213,74,270,30,206,68,254,31,208,66,175,27,216,61,252,32*6D
$BDGSV,3,2,12,203,44,206,30,220,40,291,35,209,38,239,32,230,36,231,36*6C
$BDGSV,3,3,12,204,34,133,,223,34,102,37,229,29,295,32,225,17,049,31*69
$GAGSV,2,1,07,104,73,327,35,112,36,180,25,119,31,056,31,109,29,260,28*63
$GAGSV,2,2,07,136,23,318,28,121,14,072,,101,12,121,28*63
$GPGSA,A,3,02,05,13,15,21,24,29,30,,,,,3.9,2.2,3.2*35
$GNGSA,A,3,02,05,13,15,21,24,29,30,,,,,3.9,2.2,3.2*2B
$GNGSA,A,3,66,67,75,76,81,,,,,,,,3.9,2.2,3.2*2C
$QZGSA,A,3,01,02,03,,,,,,,,,,3.9,2.2,3.2*25
$IMGSA,A,3,,,,,,,,,,,,,3.9,2.2,3.2*2A
$BDGSA,A,3,203,206,208,209,213,216,220,223,225,229,230,,3.9,2.2,3.2*17
$GAGSA,A,3,101,104,109,119,136,,,,,,,,3.9,2.2,3.2*18
$GPRMC,025054.00,A,3722.818308,N,12640.671943,E,026.2,217.4,231119,,,A*56
$GPGGA,025055.00,3722.812551,N,12640.666367,E,1,37,1.6,9.5,M,17.7,M,,*6E
$GPGSV,2,1,08,13,74,032,34,15,65,263,33,05,52,076,44,21,27,314,30*75
$GPGSV,2,2,08,29,25,245,40,30,23,050,35,02,22,156,40,24,15,189,30*7E
$GLGSV,2,1,06,66,50,021,40,81,44,215,38,67,42,296,38,76,28,097,36*67
$GLGSV,2,2,06,75,19,044,31,83,12,335,17*60
$QZGSV,1,1,03,01,77,066,34,02,21,152,36,03,18,182,35*55
$BDGSV,3,1,12,213,74,270,31,206,68,254,31,208,66,175,27,216,61,252,32*6C
$BDGSV,3,2,12,203,44,206,30,220,40,291,34,209,38,239,32,230,36,231,36*6D
$BDGSV,3,3,12,204,34,133,17,223,34,102,37,229,29,295,32,225,17,049,32*6C
$GAGSV,2,1,07,104,73,327,35,112,36,180,24,119,31,056,31,109,29,260,28*62
$GAGSV,2,2,07,136,23,318,28,121,14,072,,101,12,121,27*6C
$GPGSA,A,3,02,05,13,15,21,24,29,30,,,,,5.0,3.2,3.9*30
$GNGSA,A,3,02,05,13,15,21,24,29,30,,,,,5.0,3.2,3.9*2E
$GNGSA,A,3,66,67,75,76,81,,,,,,,,5.0,3.2,3.9*29
$QZGSA,A,3,01,02,03,,,,,,,,,,5.0,3.2,3.9*20
$IMGSA,A,3,,,,,,,,,,,,,5.0,3.2,3.9*2F
$BDGSA,A,3,203,204,206,208,209,213,216,220,223,225,229,230,5.0,3.2,3.9*24
$GAGSA,A,3,101,104,109,119,136,,,,,,,,5.0,3.2,3.9*1D
$GPRMC,025055.00,A,3722.812551,N,12640.666367,E,026.2,217.4,231119,,,A*5D
$GPGGA,025056.00,3722.806747,N,12640.660829,E,1,36,1.6,9.5,M,17.7,M,,*6B
$GPGSV,2,1,08,13,74,032,33,15,65,263,33,05,52,076,44,21,27,314,30*72
$GPGSV,2,2,08,29,25,245,39,30,23,050,35,02,22,156,40,24,15,189,30*70
$GLGSV,2,1,06,66,50,021,40,81,44,215,38,67,42,296,38,76,28,097,36*67
$GLGSV,2,2,06,75,19,044,31,83,12,335,16*61
$QZGSV,1,1,03,01,77,066,35,02,21,152,36,03,18,182,35*54
$BDGSV,3,1,12,213,74,270,31,206,68,254,30,208,66,175,27,216,61,252,33*6C
$BDGSV,3,2,12,203,44,206,30,220,40,291,35,209,38,239,33,230,36,231,38*63
$BDGSV,3,3,12,204,34,133,21,223,34,102,36,229,29,295,32,225,17,049,32*68
$GAGSV,2,1,07,104,73,327,35,112,36,180,23,119,31,056,31,109,29,260,29*64
$GAGSV,2,2,07,136,23,318,28,121,14,072,,101,12,121,27*6C
$GPGSA,A,3,02,05,13,15,21,24,29,30,,,,,8.7,3.5,7.9*39
$GNGSA,A,3,02,05,13,15,21,24,29,30,,,,,8.7,3.5,7.9*27
$GNGSA,A,3,66,67,75,76,81,,,,,,,,8.7,3.5,7.9*20
$QZGSA,A,3,01,02,03,,,,,,,,,,8.7,3.5,7.9*29
$IMGSA,A,3,,,,,,,,,,,,,8.7,3.5,7.9*26
$BDGSA,A,3,203,204,206,208,209,213,216,220,223,225,229,230,8.7,3.5,7.9*2D
$GAGSA,A,3,101,104,109,119,136,,,,,,,,8.7,3.5,7.9*14
$GPRMC,025056.00,A,3722.806747,N,12640.660829,E,026.2,217.1,231119,,,A*5C
$GPGGA,025057.00,3722.800990,N,12640.655242,E,1,35,0.8,9.5,M,17.7,M,,*65
$GPGSV,2,1,08,13,74,032,33,15,65,263,33,05,52,076,44,21,27,314,30*72
$GPGSV,2,2,08,29,25,245,39,30,23,050,35,02,22,156,40,24,15,189,29*78
$GLGSV,2,1,06,66,50,021,40,81,44,215,38,67,42,296,37,76,28,097,38*66
$GLGSV,2,2,06,75,19,044,31,83,12,335,16*61
$QZGSV,1,1,03,01,77,066,34,02,21,152,36,03,18,182,35*55
$BDGSV,3,1,12,213,74,270,31,206,68,254,30,208,66,175,27,216,61,252,33*6C
$BDGSV,3,2,12,203,44,206,30,220,40,291,34,209,38,239,33,230,36,231,38*62
$BDGSV,3,3,12,204,34,133,21,223,34,102,36,229,29,295,32,225,17,049,31*6B
$GAGSV,2,1,07,104,73,327,34,112,36,180,22,119,31,056,31,109,29,260,30*6C
$GAGSV,2,2,07,136,23,318,28,121,14,072,,101,12,121,26*6D
$GPGSA,A,3,02,05,13,15,21,24,29,30,,,,,3.1,1.5,2.7*3D
$GNGSA,A,3,02,05,13,15,21,24,29,30,,,,,3.1,1.5,2.7*23
$GNGSA,A,3,66,67,75,76,81,,,,,,,,3.1,1.5,2.7*24
$QZGSA,A,3,01,02,03,,,,,,,,,,3.1,1.5,2.7*2D
$IMGSA,A,3,,,,,,,,,,,,,3.1,1.5,2.7*22
$BDGSA,A,3,203,206,208,209,213,216,220,223,225,229,230,,3.1,1.5,2.7*1F
$GAGSA,A,3,101,104,109,119,136,,,,,,,,3.1,1.5,2.7*10
$GPRMC,025057.00,A,3722.800990,N,12640.655242,E,026.1,217.3,231119,,,A*5F
$GPGGA,025058.00,3722.795244,N,12640.649653,E,1,36,1.6,9.4,M,17.7,M,,*6F
$GPGSV,2,1,08,13,74,032,32,15,65,263,32,05,52,076,44,21,27,314,30*72
$GPGSV,2,2,08,29,25,245,39,30,23,050,35,02,22,156,40,24,15,189,29*78
$GLGSV,2,1,06,66,50,021,40,81,44,215,38,67,42,296,38,76,28,097,38*69
$GLGSV,2,2,06,75,19,044,31,83,12,335,16*61
$QZGSV,1,1,03,01,77,066,34,02,21,152,36,03,18,182,35*55
$BDGSV,3,1,12,213,74,270,31,206,68,254,29,208,66,175,27,216,61,252,33*64
$BDGSV,3,2,12,203,44,206,30,220,40,291,34,209,38,239,33,230,36,231,37*6D
$BDGSV,3,3,12,204,34,133,21,223,34,102,35,229,29,295,31,225,17,049,31*6B
$GAGSV,2,1,07,104,73,327,34,112,36,180,21,119,31,056,30,109,29,260,30*6E
$GAGSV,2,2,07,136,23,318,28,121,14,072,,101,12,121,26*6D
$GPGSA,A,3,02,05,13,15,21,24,29,30,,,,,5.6,3.5,4.4*3B
$GNGSA,A,3,02,05,13,15,21,24,29,30,,,,,5.6,3.5,4.4*25
$GNGSA,A,3,66,67,75,76,81,,,,,,,,5.6,3.5,4.4*22
$QZGSA,A,3,01,02,03,,,,,,,,,,5.6,3.5,4.4*2B
$IMGSA,A,3,,,,,,,,,,,,,5.6,3.5,4.4*24
$BDGSA,A,3,203,204,206,208,209,213,216,220,223,225,229,230,5.6,3.5,4.4*2F
$GAGSA,A,3,101,104,109,119,136,,,,,,,,5.6,3.5,4.4*16
$GPRMC,025058.00,A,3722.795244,N,12640.649653,E,026.1,217.4,231119,,,A*5F
$GPGGA,025059.00,3722.789519,N,12640.644104,E,1,38,1.6,9.4,M,17.7,M,,*6A
$GPGSV,2,1,08,13,74,032,32,15,65,263,33,05,52,076,44,21,27,314,31*72
$GPGSV,2,2,08,29,25,245,38,30,23,050,35,02,22,156,40,24,15,189,29*79
$GLGSV,2,1,06,66,50,021,40,81,44,215,38,67,42,296,39,76,28,097,39*69
$GLGSV,2,2,06,75,19,044,32,83,12,335,16*62
$QZGSV,1,1,03,01,77,066,34,02,21,152,36,03,18,182,35*55
$BDGSV,3,1,12,213,74,270,31,206,68,254,28,208,66,175,26,216,61,252,33*64
$BDGSV,3,2,12,203,44,206,30,220,40,291,34,209,38,239,33,230,36,231,38*62
$BDGSV,3,3,12,204,34,133,21,223,34,102,35,229,29,295,31,225,17,049,31*6B
$GAGSV,2,1,07,104,73,327,34,112,36,180,21,119,31,056,30,109,29,260,29*66
$GAGSV,2,2,07,136,23,318,28,121,14,072,19,101,12,121,25*66
$GPGSA,A,3,02,05,13,15,21,24,29,30,,,,,3.9,2.7,2.8*3B
$GNGSA,A,3,02,05,13,15,21,24,29,30,,,,,3.9,2.7,2.8*25
$GNGSA,A,3,66,67,75,76,81,,,,,,,,3.9,2.7,2.8*22
$QZGSA,A,3,01,02,03,,,,,,,,,,3.9,2.7,2.8*2B
$IMGSA,A,3,,,,,,,,,,,,,3.9,2.7,2.8*24
$BDGSA,A,3,203,204,206,208,209,213,216,220,223,225,229,230,3.9,2.7,2.8*2F
$GAGSA,A,3,101,104,109,119,121,136,,,,,,,3.9,2.7,2.8*24
$GPRMC,025059.00,A,3722.789519,N,12640.644104,E,026.0,217.6,231119,,,A*57
$GPGGA,025100.00,3722.783782,N,12640.638532,E,1,36,0.6,9.5,M,17.7,M,,*69
$GPGSV,2,1,08,13,74,032,31,15,65,263,33,05,52,076,44,21,27,314,31*71
$GPGSV,2,2,08,29,25,245,38,30,23,050,34,02,22,156,40,24,15,189,29*78
$GLGSV,2,1,06,66,50,021,40,81,44,215,38,67,42,296,39,76,28,097,38*68
$GLGSV,2,2,06,75,19,044,32,83,12,335,16*62
$QZGSV,1,1,03,01,77,066,34,02,21,152,36,03,18,182,35*55
$BDGSV,3,1,12,213,74,270,30,206,68,254,28,208,66,175,26,216,61,252,34*62
$BDGSV,3,2,12,203,44,206,29,220,40,291,34,209,38,239,34,230,36,231,38*6D
$BDGSV,3,3,12,204,34,133,23,223,34,102,34,229,29,295,31,225,17,049,31*68
$GAGSV,2,1,07,104,73,327,34,112,36,180,20,119,31,056,30,109,29,260,29*67
$GAGSV,2,2,07,136,23,318,28,121,14,072,,101,12,121,25*6E
$GPGSA,A,3,02,05,13,15,21,24,29,30,,,,,2.0,1.3,1.6*39
$GNGSA,A,3,02,05,13,15,21,24,29,30,,,,,2.0,1.3,1.6*27
$GNGSA,A,3,66,67,75,76,81,,,,,,,,2.0,1.3,1.6*20
$QZGSA,A,3,01,02,03,,,,,,,,,,2.0,1.3,1.6*29
$IMGSA,A,3,,,,,,,,,,,,,2.0,1.3,1.6*26
$BDGSA,A,3,203,204,206,208,209,213,216,220,223,225,229,230,2.0,1.3,1.6*2D
$GAGSA,A,3,101,104,109,119,136,,,,,,,,2.0,1.3,1.6*14
$GPRMC,025100.00,A,3722.783782,N,12640.638532,E,026.0,217.6,231119,,,A*5A
$GPGGA,025101.00,3722.778009,N,12640.632888,E,1,37,1.2,9.5,M,17.7,M,,*6A
$GPGSV,2,1,08,13,74,032,33,15,65,263,33,05,52,076,43,21,27,314,30*75
$GPGSV,2,2,08,29,25,245,39,30,23,050,34,02,22,156,39,24,15,189,29*77
$GLGSV,2,1,06,66,50,021,40,81,44,215,38,67,42,296,39,76,29,097,38*69
$GLGSV,2,2,06,75,19,044,32,83,12,335,17*63
$QZGSV,1,1,03,01,77,066,34,02,21,152,35,03,18,182,35*56
$BDGSV,3,1,12,213,74,270,30,206,68,254,29,208,66,175,26,216,61,252,33*64
$BDGSV,3,2,12,203,44,206,29,220,40,291,33,209,38,239,34,230,36,231,37*65
$BDGSV,3,3,12,223,34,102,34,204,34,133,22,229,29,295,30,225,17,049,31*68
$GAGSV,2,1,07,104,73,327,33,112,36,180,19,119,31,056,31,109,29,260,30*63
$GAGSV,2,2,07,136,23,318,28,121,14,072,22,101,12,121,25*6E
$GPGSA,A,3,02,05,13,15,21,24,29,30,,,,,3.6,2.1,3.0*3B
$GNGSA,A,3,02,05,13,15,21,24,29,30,,,,,3.6,2.1,3.0*25
$GNGSA,A,3,66,67,75,76,81,,,,,,,,3.6,2.1,3.0*22
$QZGSA,A,3,01,02,03,,,,,,,,,,3.6,2.1,3.0*2B
$IMGSA,A,3,,,,,,,,,,,,,3.6,2.1,3.0*24
$BDGSA,A,3,203,204,206,208,209,213,216,220,223,225,229,230,3.6,2.1,3.0*2F
$GAGSA,A,3,101,104,109,119,121,136,,,,,,,3.6,2.1,3.0*24
$GPRMC,025101.00,A,3722.778009,N,12640.632888,E,026.1,217.6,231119,,,A*5C
$GPGGA,025102.00,3722.772218,N,12640.627307,E,1,36,1.6,9.5,M,17.7,M,,*6C
$GPGSV,2,1,08,13,74,032,34,15,65,263,33,05,52,076,43,21,27,314,30*72
$GPGSV,2,2,08,29,25,245,40,30,23,050,34,02,22,156,39,24,15,189,29*79
$GLGSV,2,1,06,66,50,021,41,81,44,215,38,67,42,296,38,76,29,097,38*69
$GLGSV,2,2,06,75,19,044,31,83,12,335,17*60
$QZGSV,1,1,03,01,77,066,33,02,21,152,35,03,18,182,35*51
$BDGSV,3,1,12,213,74,270,30,206,68,254,30,208,66,175,,216,61,252,33*68
$BDGSV,3,2,12,203,44,206,29,220,40,291,33,209,38,239,33,230,36,231,37*62
$BDGSV,3,3,12,223,34,102,34,204,34,133,21,229,29,295,30,225,17,049,29*62
$GAGSV,2,1,07,104,73,327,33,112,36,180,,119,31,056,31,109,29,260,30*6B
$GAGSV,2,2,07,136,23,318,28,121,14,072,22,101,12,121,24*6F
$GPGSA,A,3,02,05,13,15,21,24,29,30,,,,,5.6,3.5,4.4*3B
$GNGSA,A,3,02,05,13,15,21,24,29,30,,,,,5.6,3.5,4.4*25
$GNGSA,A,3,66,67,75,76,81,83,,,,,,,5.6,3.5,4.4*29
$QZGSA,A,3,01,02,03,,,,,,,,,,5.6,3.5,4.4*2B
$IMGSA,A,3,,,,,,,,,,,,,5.6,3.5,4.4*24
$BDGSA,A,3,203,206,209,213,216,220,223,225,229,230,,,5.6,3.5,4.4*23
$GAGSA,A,3,101,104,109,119,121,136,,,,,,,5.6,3.5,4.4*24
$GPRMC,025102.00,A,3722.772218,N,12640.627307,E,026.2,217.4,231119,,,A*5E
$GPGGA,025103.00,3722.766427,N,12640.621738,E,1,37,2.4,9.5,M,17.7,M,,*6C
$GPGSV,2,1,08,13,74,032,34,15,65,263,36,05,52,076,43,21,27,314,30*77
$GPGSV,2,2,08,29,25,245,40,30,23,050,34,02,22,156,39,24,15,189,30*71
$GLGSV,2,1,06,66,50,021,40,81,44,215,38,67,42,296,37,76,29,097,38*67
$GLGSV,2,2,06,75,19,044,30,83,12,335,17*61
$QZGSV,1,1,03,01,77,066,33,02,21,152,34,03,18,182,35*50
$BDGSV,3,1,12,213,74,270,31,206,68,254,30,208,66,175,,216,61,252,32*68
$BDGSV,3,2,12,203,44,206,29,220,40,291,33,209,38,239,33,230,36,231,36*63
$BDGSV,3,3,12,223,34,102,34,204,34,133,24,229,29,295,29,225,17,049,29*6F
$GAGSV,2,1,07,104,73,327,31,112,36,180,,119,31,056,31,109,29,260,29*61
$GAGSV,2,2,07,136,23,318,27,121,14,072,30,101,12,121,24*63
$GPGSA,A,3,02,05,13,15,21,24,29,30,,,,,7.7,4.9,5.9*3F
$GNGSA,A,3,02,05,13,15,21,24,29,30,,,,,7.7,4.9,5.9*21
$GNGSA,A,3,66,67,75,76,81,83,,,,,,,7.7,4.9,5.9*2D
$QZGSA,A,3,01,02,03,,,,,,,,,,7.7,4.9,5.9*2F
$IMGSA,A,3,,,,,,,,,,,,,7.7,4.9,5.9*20
$BDGSA,A,3,203,204,206,209,213,216,220,223,225,229,230,,7.7,4.9,5.9*11
$GAGSA,A,3,101,104,109,119,121,136,,,,,,,7.7,4.9,5.9*20
$GPRMC,025103.00,A,3722.766427,N,12640.621738,E,026.2,217.4,231119,,,A*5E
$GPGGA,025104.00,3722.760641,N,12640.616113,E,1,38,2.4,9.4,M,17.7,M,,*6A
$GPGSV,2,1,08,13,74,032,34,15,65,263,36,05,52,076,42,21,27,314,30*76
$GPGSV,2,2,08,29,25,245,40,30,23,050,34,02,22,156,38,24,15,189,31*71
$GLGSV,2,1,06,66,50,021,40,81,44,215,37,67,42,296,37,76,29,097,38*68
$GLGSV,2,2,06,75,19,044,30,83,12,335,17*61
$QZGSV,1,1,03,01,77,066,33,02,21,152,34,03,18,182,35*50
$BDGSV,3,1,12,213,74,270,32,206,68,254,31,208,66,175,23,216,61,252,31*68
$BDGSV,3,2,12,203,44,206,29,220,40,291,33,209,38,239,32,230,36,231,35*61
$BDGSV,3,3,12,223,34,102,33,204,34,133,26,229,29,295,28,225,17,049,28*6A
$GAGSV,2,1,07,104,73,327,30,112,36,180,24,119,31,056,31,109,29,260,29*66
$GAGSV,2,2,07,136,23,318,27,121,14,072,30,101,12,121,26*61
$GPGSA,A,3,02,05,13,15,21,24,29,30,,,,,5.8,4.2,3.9*3F
$GNGSA,A,3,02,05,13,15,21,24,29,30,,,,,5.8,4.2,3.9*21
$GNGSA,A,3,66,67,75,76,81,,,,,,,,5.8,4.2,3.9*26
$QZGSA,A,3,01,02,03,,,,,,,,,,5.8,4.2,3.9*2F
$IMGSA,A,3,,,,,,,,,,,,,5.8,4.2,3.9*20
$BDGSA,A,3,203,204,206,208,209,213,216,220,223,225,229,230,5.8,4.2,3.9*2B
$GAGSA,A,3,101,104,109,112,119,121,136,,,,,,5.8,4.2,3.9*12
$GPRMC,025104.00,A,3722.760641,N,12640.616113,E,026.2,217.5,231119,,,A*57
$GPGGA,025105.00,3722.754869,N,12640.610488,E,1,38,0.8,9.4,M,17.7,M,,*67
$GPGSV,2,1,08,13,74,032,34,15,65,263,36,05,52,076,42,21,27,314,29*7E
$GPGSV,2,2,08,29,25,245,41,30,23,050,33,02,22,156,39,24,15,189,31*76
$GLGSV,2,1,06,66,50,021,40,81,44,215,37,67,42,296,36,76,29,097,37*66
$GLGSV,2,2,06,75,19,044,30,83,12,335,17*61
$QZGSV,1,1,03,01,77,066,32,02,21,152,34,03,18,182,35*51
$BDGSV,3,1,12,213,74,270,32,206,68,254,31,208,66,175,22,216,61,252,31*69
$BDGSV,3,2,12,203,44,206,29,220,40,291,32,209,38,239,32,230,36,231,35*60
$BDGSV,3,3,12,223,34,102,33,204,34,133,26,229,29,295,28,225,17,049,28*6A
$GAGSV,2,1,07,104,73,327,30,112,36,180,25,119,31,056,31,109,29,260,30*6F
$GAGSV,2,2,07,136,23,318,27,121,14,072,29,101,12,121,27*68
$GPGSA,A,3,02,05,13,15,21,24,29,30,,,,,2.9,1.6,2.4*34
$GNGSA,A,3,02,05,13,15,21,24,29,30,,,,,2.9,1.6,2.4*2A
$GNGSA,A,3,66,67,75,76,81,,,,,,,,2.9,1.6,2.4*2D
$QZGSA,A,3,01,02,03,,,,,,,,,,2.9,1.6,2.4*24
$IMGSA,A,3,,,,,,,,,,,,,2.9,1.6,2.4*2B
$BDGSA,A,3,203,204,206,209,213,216,220,223,225,229,230,,2.9,1.6,2.4*1A
$GAGSA,A,3,101,104,109,112,119,121,136,,,,,,2.9,1.6,2.4*19
$GPRMC,025105.00,A,3722.754869,N,12640.610488,E,026.2,217.5,231119,,,A*54
$GPGGA,025106.00,3722.749042,N,12640.604847,E,1,38,0.8,9.4,M,17.7,M,,*63
$GPGSV,2,1,08,13,74,032,34,15,65,263,35,05,52,076,42,21,27,314,29*7D
$GPGSV,2,2,08,29,25,245,41,30,23,050,33,02,22,156,39,24,15,189,30*77
$GLGSV,2,1,06,66,50,021,40,81,44,215,37,67,42,296,36,76,29,097,37*66
$GLGSV,2,2,06,75,19,044,30,83,12,335,18*6E
$QZGSV,1,1,03,01,77,066,32,02,21,152,34,03,18,182,35*51
$BDGSV,3,1,12,213,74,270,32,206,68,254,32,208,66,175,21,216,61,252,31*69
$BDGSV,3,2,12,203,44,206,28,220,40,291,31,209,38,239,32,230,36,231,34*63
$BDGSV,3,3,12,223,34,102,34,204,34,133,25,229,29,295,29,225,17,049,28*6F
$GAGSV,2,1,07,104,73,327,30,112,36,180,24,119,31,056,31,109,29,260,31*6F
$GAGSV,2,2,07,136,23,318,27,121,14,072,29,101,12,121,26*69
$GPGSA,A,3,02,05,13,15,21,24,29,30,,,,,3.0,1.7,2.5*3C
$GNGSA,A,3,02,05,13,15,21,24,29,30,,,,,3.0,1.7,2.5*22
$GNGSA,A,3,66,67,75,76,81,83,,,,,,,3.0,1.7,2.5*2E
$QZGSA,A,3,01,02,03,,,,,,,,,,3.0,1.7,2.5*2C
$IMGSA,A,3,,,,,,,,,,,,,3.0,1.7,2.5*23
$BDGSA,A,3,203,206,209,213,216,220,223,225,229,230,,,3.0,1.7,2.5*24
$GAGSA,A,3,101,104,109,112,119,121,136,,,,,,3.0,1.7,2.5*11
$GPRMC,025106.00,A,3722.749042,N,12640.604847,E,026.2,217.7,231119,,,A*52
$GPGGA,025107.00,3722.743249,N,12640.599241,E,1,36,0.8,9.3,M,17.7,M,,*63
$GPGSV,2,1,08,13,74,032,34,15,65,263,35,05,52,076,43,21,27,314,28*7D
$GPGSV,2,2,08,29,25,245,41,30,23,050,33,02,22,156,39,24,15,189,30*77
$GLGSV,2,1,06,66,50,021,40,81,44,215,37,67,42,296,36,76,29,097,37*66
$GLGSV,2,2,06,75,19,044,30,83,12,335,18*6E
$QZGSV,1,1,03,01,77,066,32,02,21,152,34,03,18,182,36*52
$BDGSV,3,1,12,213,74,270,32,206,68,254,32,208,66,175,,216,61,252,32*69
$BDGSV,3,2,12,203,44,206,28,220,40,291,30,209,38,239,32,230,36,231,33*65
$BDGSV,3,3,12,204,34,133,,223,34,102,35,229,29,295,31,225,17,049,28*60
$GAGSV,2,1,07,104,73,328,29,112,36,180,,119,31,056,31,109,30,260,32*65
$GAGSV,2,2,07,136,23,318,27,121,14,072,,101,12,121,26*62
$GPGSA,A,3,02,05,13,15,21,24,29,30,,,,,2.4,1.4,2.0*3F
$GNGSA,A,3,02,05,13,15,21,24,29,30,,,,,2.4,1.4,2.0*21
$GNGSA,A,3,66,67,75,76,81,83,,,,,,,2.4,1.4,2.0*2D
$QZGSA,A,3,01,02,03,,,,,,,,,,2.4,1.4,2.0*2F
$IMGSA,A,3,,,,,,,,,,,,,2.4,1.4,2.0*20
$BDGSA,A,3,203,206,209,213,216,220,223,225,229,230,,,2.4,1.4,2.0*27
$GAGSA,A,3,101,104,109,119,136,,,,,,,,2.4,1.4,2.0*12
$GPRMC,025107.00,A,3722.743249,N,12640.599241,E,026.2,217.6,231119,,,A*5A
$GPGGA,025108.00,3722.737463,N,12640.593569,E,1,36,2.4,9.2,M,17.7,M,,*69
$GPGSV,2,1,08,13,74,032,33,15,65,263,34,05,52,076,43,21,27,314,28*7B
$GPGSV,2,2,08,29,25,245,41,30,23,050,33,02,21,156,40,24,15,189,30*7A
$GLGSV,2,1,06,66,50,021,40,81,44,215,37,67,42,296,36,76,29,097,37*66
$GLGSV,2,2,06,75,19,044,32,83,12,335,18*6C
$QZGSV,1,1,03,01,77,066,32,02,21,152,34,03,18,182,37*53
$BDGSV,3,1,12,213,74,270,31,206,68,255,32,208,66,175,22,216,61,252,32*6B
$BDGSV,3,2,12,203,44,206,28,220,40,291,29,209,38,239,32,230,36,231,32*6C
$BDGSV,3,3,12,223,34,102,35,204,34,133,,229,29,295,31,225,17,049,29*61
$GAGSV,2,1,07,104,73,328,29,112,36,180,,119,31,056,31,109,30,260,32*65
$GAGSV,2,2,07,136,23,318,27,121,14,072,,101,12,121,26*62
$GPGSA,A,3,02,05,13,15,21,24,29,30,,,,,7.8,4.4,6.5*32
$GNGSA,A,3,02,05,13,15,21,24,29,30,,,,,7.8,4.4,6.5*2C
$GNGSA,A,3,66,67,75,76,81,83,,,,,,,7.8,4.4,6.5*20
$QZGSA,A,3,01,02,03,,,,,,,,,,7.8,4.4,6.5*22
$IMGSA,A,3,,,,,,,,,,,,,7.8,4.4,6.5*2D
$BDGSA,A,3,203,206,208,209,213,216,223,225,229,230,,,7.8,4.4,6.5*20
$GAGSA,A,3,101,104,109,119,136,,,,,,,,7.8,4.4,6.5*1F
$GPRMC,025108.00,A,3722.737463,N,12640.593569,E,026.2,217.7,231119,,,A*5E
$GPGGA,025109.00,3722.731714,N,12640.587792,E,1,37,0.8,9.2,M,17.7,M,,*61
$GPGSV,2,1,08,13,74,032,33,15,65,263,34,05,52,076,43,21,27,314,28*7B
$GPGSV,2,2,08,29,25,245,41,30,23,050,32,02,21,156,40,24,15,189,29*73
$GLGSV,2,1,06,66,50,021,40,81,44,215,37,67,42,296,36,76,29,097,37*66
$GLGSV,2,2,06,75,19,044,33,83,12,335,19*6C
$QZGSV,1,1,03,01,77,066,32,02,21,152,35,03,18,182,37*52
$BDGSV,3,1,12,213,74,270,31,206,68,255,32,208,66,175,22,216,61,252,32*6B
$BDGSV,3,2,12,203,44,206,28,220,40,291,28,209,38,239,33,230,36,231,32*6C
$BDGSV,3,3,12,223,34,102,35,204,34,133,22,229,29,295,31,225,17,049,28*60
$GAGSV,2,1,07,104,73,328,29,112,36,180,,119,31,056,31,109,30,260,32*65
$GAGSV,2,2,07,136,23,318,27,121,14,071,,101,12,121,25*62
$GPGSA,A,3,02,05,13,15,21,24,29,30,,,,,4.1,1.9,3.6*36
$GNGSA,A,3,02,05,13,15,21,24,29,30,,,,,4.1,1.9,3.6*28
$GNGSA,A,3,66,67,75,76,81,83,,,,,,,4.1,1.9,3.6*24
$QZGSA,A,3,01,02,03,,,,,,,,,,4.1,1.9,3.6*26
$IMGSA,A,3,,,,,,,,,,,,,4.1,1.9,3.6*29
$BDGSA,A,3,203,206,208,209,213,216,220,223,225,229,230,,4.1,1.9,3.6*14
$GAGSA,A,3,101,104,109,119,136,,,,,,,,4.1,1.9,3.6*1B
$GPRMC,025109.00,A,3722.731714,N,12640.587792,E,026.2,218.1,231119,,,A*50
$GPGGA,025110.00,3722.725994,N,12640.582122,E,1,38,1.6,9.2,M,17.7,M,,*62
$GPGSV,2,1,08,13,74,032,33,15,65,263,34,05,52,076,44,21,28,314,28*73
$GPGSV,2,2,08,29,25,245,42,30,23,050,32,02,21,156,41,24,15,189,29*71
$GLGSV,2,1,06,66,50,021,41,81,44,215,37,67,42,296,36,76,29,097,37*67
$GLGSV,2,2,06,75,19,044,33,83,12,335,19*6C
$QZGSV,1,1,03,01,77,066,32,02,21,152,35,03,18,182,37*52
$BDGSV,3,1,12,213,74,270,31,206,68,255,33,208,66,175,26,216,61,252,32*6E
$BDGSV,3,2,12,203,44,206,28,220,40,291,27,209,38,239,33,230,36,231,31*60
$BDGSV,3,3,12,223,34,102,35,204,34,133,,229,29,295,31,225,17,049,28*60
$GAGSV,2,1,07,104,73,328,29,112,36,180,22,119,31,056,31,109,30,260,32*65
$GAGSV,2,2,07,136,23,318,27,121,14,071,,101,12,121,25*62
$GPGSA,A,3,02,05,13,15,21,24,29,30,,,,,4.7,2.9,3.7*32
$GNGSA,A,3,02,05,13,15,21,24,29,30,,,,,4.7,2.9,3.7*2C
$GNGSA,A,3,66,67,75,76,81,83,,,,,,,4.7,2.9,3.7*20
$QZGSA,A,3,01,02,03,,,,,,,,,,4.7,2.9,3.7*22
$IMGSA,A,3,,,,,,,,,,,,,4.7,2.9,3.7*2D
$BDGSA,A,3,203,206,208,209,213,216,220,223,225,229,230,,4.7,2.9,3.7*10
$GAGSA,A,3,101,104,109,112,119,136,,,,,,,4.7,2.9,3.7*2D
$GPRMC,025110.00,A,3722.725994,N,12640.582122,E,026.1,218.0,231119,,,A*51
$GPGGA,025111.00,3722.720143,N,12640.576522,E,1,38,1.6,8.8,M,17.7,M,,*60
$GPGSV,2,1,08,13,74,032,33,15,65,263,34,05,52,076,44,21,28,314,28*73
$GPGSV,2,2,08,29,25,245,41,30,23,050,32,02,21,156,41,24,15,189,29*72
$GLGSV,2,1,06,66,50,021,41,81,44,215,37,67,42,296,37,76,29,097,37*66
$GLGSV,2,2,06,75,19,044,33,83,12,335,20*66
$QZGSV,1,1,03,01,77,066,32,02,21,152,36,03,18,182,36*50
$BDGSV,3,1,12,213,74,270,31,206,68,255,33,208,66,175,25,216,61,252,32*6D
$BDGSV,3,2,12,203,44,206,28,220,40,291,26,209,39,240,34,230,36,231,31*69
$BDGSV,3,3,12,223,34,102,35,204,34,133,20,229,29,295,31,225,17,049,28*62
$GAGSV,2,1,07,104,73,328,30,112,36,180,26,119,31,056,30,109,30,260,32*68
$GAGSV,2,2,07,136,23,318,26,121,14,071,,101,12,121,25*63
$GPGSA,A,3,02,05,13,15,21,24,29,30,,,,,5.8,3.3,4.8*3F
$GNGSA,A,3,02,05,13,15,21,24,29,30,,,,,5.8,3.3,4.8*21
$GNGSA,A,3,66,67,75,76,81,83,,,,,,,5.8,3.3,4.8*2D
$QZGSA,A,3,01,02,03,,,,,,,,,,5.8,3.3,4.8*2F
$IMGSA,A,3,,,,,,,,,,,,,5.8,3.3,4.8*20
$BDGSA,A,3,203,206,208,209,213,216,220,223,225,229,230,,5.8,3.3,4.8*1D
$GAGSA,A,3,101,104,109,112,119,136,,,,,,,5.8,3.3,4.8*20
$GPRMC,025111.00,A,3722.720143,N,12640.576522,E,026.1,217.9,231119,,,A*5E
$GPGGA,025112.00,3722.714358,N,12640.570943,E,1,39,2.4,8.7,M,17.7,M,,*6E
$GPGSV,2,1,08,13,74,032,33,15,65,263,34,05,52,076,44,21,28,314,29*72
$GPGSV,2,2,08,29,25,245,41,30,23,050,31,02,21,156,41,24,15,189,29*71
$GLGSV,2,1,06,66,50,021,41,81,44,215,38,67,42,296,37,76,29,097,38*66
$GLGSV,2,2,06,75,19,044,33,83,12,335,20*66
$QZGSV,1,1,03,01,77,066,33,02,21,152,36,03,18,182,36*51
