$GPGGA,025846.00,3722.862266,N,12640.719483,E,1,39,0.8,2.7,M,17.7,M,,*6C
$GPGSV,2,1,08,13,70,033,35,15,67,270,41,05,50,081,45,21,30,313,34*7A
$GPGSV,2,2,08,29,23,242,40,30,21,048,30,24,18,188,31,02,18,156,36*74
$GLGSV,2,1,06,66,48,026,30,67,43,301,37,81,40,212,38,76,31,092,36*61
$GLGSV,2,2,06,75,18,040,31,83,15,333,21*61
$QZGSV,1,1,03,01,77,067,32,02,22,152,33,03,16,182,29*57
$BDGSV,3,1,12,213,73,264,30,206,68,259,34,208,64,178,34,216,62,256,34*6B
$BDGSV,3,2,12,203,44,206,,220,42,294,36,209,39,242,33,223,36,098,38*6A
$BDGSV,3,3,12,204,34,133,22,230,33,228,38,229,29,292,33,225,16,046,30*61
$GAGSV,2,1,07,104,72,337,31,112,33,180,29,109,31,263,34,119,29,058,25*6B
$GAGSV,2,2,07,136,25,316,30,121,15,069,29,101,14,119,27*60
$GPGSA,A,3,02,05,13,15,21,24,29,30,,,,,2.6,1.4,2.2*3F
$GNGSA,A,3,02,05,13,15,21,24,29,30,,,,,2.6,1.4,2.2*21
$GNGSA,A,3,66,67,75,76,81,83,,,,,,,2.6,1.4,2.2*2D
$QZGSA,A,3,01,02,03,,,,,,,,,,2.6,1.4,2.2*2F
$IMGSA,A,3,,,,,,,,,,,,,2.6,1.4,2.2*20
$BDGSA,A,3,204,206,208,209,213,216,220,223,225,229,230,,2.6,1.4,2.2*1A
$GAGSA,A,3,101,104,109,112,119,121,136,,,,,,2.6,1.4,2.2*12
$GPRMC,025846.00,A,3722.862266,N,12640.719483,E,008.4,224.1,231119,,,A*58
$GPGGA,025847.00,3722.860825,N,12640.718008,E,1,38,0.8,2.6,M,17.7,M,,*64
$GPGSV,2,1,08,13,70,033,35,15,67,270,40,05,50,081,45,21,30,313,34*7B
$GPGSV,2,2,08,29,23,242,39,30,21,047,30,24,18,188,32,02,18,156,36*76
$GLGSV,2,1,06,66,48,026,29,67,43,302,37,81,40,212,38,76,31,092,36*6A
$GLGSV,2,2,06,75,18,040,31,83,15,333,21*61
$QZGSV,1,1,03,01,77,067,32,02,22,152,33,03,16,182,29*57
$BDGSV,3,1,12,213,73,264,30,206,68,259,34,208,64,178,33,216,62,256,34*6C
$BDGSV,3,2,12,203,44,206,,220,42,294,36,209,39,242,33,223,36,098,38*6A
$BDGSV,3,3,12,204,34,133,,230,33,228,38,229,29,292,33,225,16,046,30*61
$GAGSV,2,1,07,104,72,337,31,112,33,180,28,109,31,263,33,119,29,058,25*6D
$GAGSV,2,2,07,136,25,316,29,121,15,069,28,101,14,119,27*69
$GPGSA,A,3,02,05,13,15,21,24,29,30,,,,,4.0,1.7,3.7*38
$GNGSA,A,3,02,05,13,15,21,24,29,30,,,,,4.0,1.7,3.7*26
$GNGSA,A,3,66,67,75,76,81,83,,,,,,,4.0,1.7,3.7*2A
$QZGSA,A,3,01,02,03,,,,,,,,,,4.0,1.7,3.7*28
$IMGSA,A,3,,,,,,,,,,,,,4.0,1.7,3.7*27
$BDGSA,A,3,206,208,209,213,216,220,223,225,229,230,,,4.0,1.7,3.7*2B
$GAGSA,A,3,101,104,109,112,119,121,136,,,,,,4.0,1.7,3.7*15
$GPRMC,025847.00,A,3722.860825,N,12640.718008,E,006.8,219.8,231119,,,A*55
$GPGGA,025848.00,3722.860825,N,12640.718008,E,1,35,1.2,2.5,M,17.7,M,,*6E
$GPGSV,2,1,08,13,70,033,34,15,67,270,40,05,50,081,45,21,30,313,33*7D
$GPGSV,2,2,08,29,23,242,39,30,21,047,30,24,18,188,31,02,18,156,35*76
$GLGSV,2,1,07,66,48,026,29,67,43,302,36,81,39,212,37,76,31,092,37*6A
$GLGSV,2,2,07,75,18,040,31,83,15,333,,77,13,147,28*59
$QZGSV,1,1,03,01,77,068,32,02,22,152,33,03,16,182,29*58
$BDGSV,3,1,12,213,73,264,31,206,68,259,34,208,64,178,33,216,62,256,33*6A
$BDGSV,3,2,12,203,44,206,,220,42,294,36,209,39,242,32,223,36,098,37*64
$BDGSV,3,3,12,204,34,133,,230,33,228,37,229,29,292,32,225,16,046,29*67
$GAGSV,2,1,06,104,72,337,31,112,33,180,30,109,31,263,33,119,29,058,24*64
$GAGSV,2,2,06,121,15,069,27,101,14,119,29*65
$GPGSA,A,3,02,05,13,15,21,24,29,30,,,,,3.5,2.4,2.6*3A
$GNGSA,A,3,02,05,13,15,21,24,29,30,,,,,3.5,2.4,2.6*24
$GNGSA,A,3,66,67,75,76,77,81,,,,,,,3.5,2.4,2.6*23
$QZGSA,A,3,01,02,03,,,,,,,,,,3.5,2.4,2.6*2A
$IMGSA,A,3,,,,,,,,,,,,,3.5,2.4,2.6*25
$BDGSA,A,3,206,208,209,213,216,220,223,225,229,230,,,3.5,2.4,2.6*29
$GAGSA,A,3,101,104,109,112,119,,,,,,,,3.5,2.4,2.6*11
$GPRMC,025848.00,A,3722.860825,N,12640.718008,E,000.0,219.8,231119,,,A*54
$GPGGA,025849.00,3722.860825,N,12640.718008,E,1,36,1.6,2.4,M,17.7,M,,*69
$GPGSV,2,1,08,13,70,033,34,15,67,270,40,05,50,081,45,21,30,313,31*7F
$GPGSV,2,2,08,29,23,242,38,30,21,047,29,24,18,188,31,02,18,156,35*7F
$GLGSV,2,1,07,66,48,026,29,67,43,302,35,81,39,212,37,76,31,092,36*68
$GLGSV,2,2,07,75,18,040,31,83,15,333,19,77,13,147,28*51
$QZGSV,1,1,03,01,77,068,31,02,22,152,34,03,16,182,30*54
$BDGSV,3,1,12,213,73,264,31,206,68,259,33,208,64,178,32,216,62,256,33*6C
$BDGSV,3,2,12,203,44,206,,220,42,294,35,209,39,242,31,223,36,098,37*64
$BDGSV,3,3,12,204,34,133,,230,33,228,36,229,29,292,31,225,16,046,29*65
$GAGSV,2,1,06,104,72,337,32,112,33,180,30,109,31,263,32,119,29,058,24*66
$GAGSV,2,2,06,121,15,069,26,101,14,119,32*6E
$GPGSA,A,3,02,05,13,15,21,24,29,30,,,,,4.8,3.4,3.4*32
$GNGSA,A,3,02,05,13,15,21,24,29,30,,,,,4.8,3.4,3.4*2C
$GNGSA,A,3,66,67,75,76,77,81,,,,,,,4.8,3.4,3.4*2B
$QZGSA,A,3,01,02,03,,,,,,,,,,4.8,3.4,3.4*22
$IMGSA,A,3,,,,,,,,,,,,,4.8,3.4,3.4*2D
$BDGSA,A,3,206,208,209,213,216,220,223,225,229,230,,,4.8,3.4,3.4*21
$GAGSA,A,3,101,104,109,112,119,121,,,,,,,4.8,3.4,3.4*2B
$GPRMC,025849.00,A,3722.860825,N,12640.718008,E,000.0,219.8,231119,,,A*55
$GPGGA,025850.00,3722.860825,N,12640.718008,E,1,36,3.2,2.5,M,17.7,M,,*66
$GPGSV,2,1,08,13,70,033,34,15,67,270,40,05,50,081,48,21,30,313,31*72
$GPGSV,2,2,08,29,23,242,38,30,21,047,29,24,18,188,31,02,18,156,35*7F
$GLGSV,2,1,07,66,48,026,30,67,43,302,34,81,39,212,38,76,31,092,39*61
$GLGSV,2,2,07,75,18,040,31,83,15,333,,77,13,147,27*56
$QZGSV,1,1,03,01,77,068,30,02,22,152,35,03,16,182,31*55
$BDGSV,3,1,12,213,73,264,31,206,68,259,33,208,64,178,32,216,62,256,33*6C
$BDGSV,3,2,12,203,44,206,,220,42,294,35,209,39,242,31,223,36,098,36*65
$BDGSV,3,3,12,204,34,133,,230,33,228,35,229,29,292,30,225,16,046,31*6E
$GAGSV,2,1,06,104,72,337,32,112,33,180,29,109,31,263,31,119,29,058,24*6D
$GAGSV,2,2,06,121,15,069,25,101,14,119,34*6B
$GPGSA,A,3,02,05,13,15,21,24,29,30,,,,,7.3,6.0,4.1*39
$GNGSA,A,3,02,05,13,15,21,24,29,30,,,,,7.3,6.0,4.1*27
$GNGSA,A,3,66,67,75,76,77,81,,,,,,,7.3,6.0,4.1*20
$QZGSA,A,3,01,02,03,,,,,,,,,,7.3,6.0,4.1*29
$IMGSA,A,3,,,,,,,,,,,,,7.3,6.0,4.1*26
$BDGSA,A,3,206,208,209,213,216,220,223,225,229,230,,,7.3,6.0,4.1*2A
$GAGSA,A,3,101,104,109,112,119,121,,,,,,,7.3,6.0,4.1*20
$GPRMC,025850.00,A,3722.860825,N,12640.718008,E,000.0,219.8,231119,,,A*5D
$GPGGA,025851.00,3722.860825,N,12640.718008,E,1,36,1.6,2.6,M,17.7,M,,*62
$GPGSV,2,1,08,13,70,033,33,15,67,270,39,05,50,081,48,21,30,313,31*7B
$GPGSV,2,2,08,29,23,242,38,30,21,047,28,24,18,188,32,02,18,156,38*70
$GLGSV,2,1,06,66,48,026,34,67,43,302,34,81,39,212,40,76,31,092,42*67
$GLGSV,2,2,06,75,18,040,30,83,15,333,*63
$QZGSV,1,1,03,01,77,068,30,02,22,152,36,03,16,182,32*55
$BDGSV,3,1,12,213,73,264,31,206,68,259,33,208,64,178,31,216,62,256,32*6E
$BDGSV,3,2,12,203,44,206,,220,42,294,34,209,39,242,31,223,36,098,36*64
$BDGSV,3,3,12,204,34,133,,230,33,228,37,229,29,292,30,225,16,046,34*69
$GAGSV,2,1,07,104,72,337,33,112,33,180,29,109,31,263,30,119,29,058,23*6B
$GAGSV,2,2,07,136,25,316,24,121,15,069,27,101,14,119,34*69
$GPGSA,A,3,02,05,13,15,21,24,29,30,,,,,4.1,3.5,2.2*3D
$GNGSA,A,3,02,05,13,15,21,24,29,30,,,,,4.1,3.5,2.2*23
$GNGSA,A,3,66,67,75,76,81,,,,,,,,4.1,3.5,2.2*24
$QZGSA,A,3,01,02,03,,,,,,,,,,4.1,3.5,2.2*2D
$IMGSA,A,3,,,,,,,,,,,,,4.1,3.5,2.2*22
$BDGSA,A,3,206,208,209,213,216,220,223,225,229,230,,,4.1,3.5,2.2*2E
$GAGSA,A,3,101,104,109,112,119,121,,,,,,,4.1,3.5,2.2*24
$GPRMC,025851.00,A,3722.860825,N,12640.718008,E,000.0,219.8,231119,,,A*5C
$GPGGA,025852.00,3722.860825,N,12640.718008,E,1,36,1.2,2.5,M,17.7,M,,*66
$GPGSV,2,1,08,13,70,033,33,15,67,271,39,05,50,081,48,21,30,313,31*7A
$GPGSV,2,2,08,29,23,242,38,30,21,047,28,24,18,188,32,02,18,156,39*71
$GLGSV,2,1,06,66,48,026,34,67,43,302,34,81,39,212,40,76,31,092,42*67
$GLGSV,2,2,06,75,18,040,30,83,15,333,*63
$QZGSV,1,1,03,01,77,068,30,02,22,152,37,03,16,182,32*54
$BDGSV,3,1,12,213,73,264,30,206,68,259,32,208,64,178,31,216,62,256,32*6E
$BDGSV,3,2,12,203,44,206,,220,42,294,34,209,39,242,31,223,36,098,36*64
$BDGSV,3,3,12,204,34,133,,230,33,228,37,229,29,292,29,225,16,046,34*61
$GAGSV,2,1,07,104,72,337,34,112,33,180,29,109,31,263,29,119,29,058,23*64
$GAGSV,2,2,07,136,25,316,23,121,15,069,27,101,14,119,34*6E
$GPGSA,A,3,02,05,13,15,21,24,29,30,,,,,3.3,2.3,2.4*39
$GNGSA,A,3,02,05,13,15,21,24,29,30,,,,,3.3,2.3,2.4*27
$GNGSA,A,3,66,67,75,76,81,,,,,,,,3.3,2.3,2.4*20
$QZGSA,A,3,01,02,03,,,,,,,,,,3.3,2.3,2.4*29
$IMGSA,A,3,,,,,,,,,,,,,3.3,2.3,2.4*26
$BDGSA,A,3,206,208,209,213,216,220,223,225,229,230,,,3.3,2.3,2.4*2A
$GAGSA,A,3,101,104,109,112,119,121,,,,,,,3.3,2.3,2.4*20
$GPRMC,025852.00,A,3722.860825,N,12640.718008,E,000.0,219.8,231119,,,A*5F
$GPGGA,025853.00,3722.860825,N,12640.718008,E,1,36,1.2,2.6,M,17.7,M,,*64
$GPGSV,2,1,08,13,70,033,32,15,67,271,39,05,50,081,48,21,30,313,30*7A
$GPGSV,2,2,08,29,23,242,37,30,21,047,27,24,18,188,32,02,18,156,40*7F
$GLGSV,2,1,07,66,48,026,34,67,43,302,34,81,39,212,40,76,31,092,41*65
$GLGSV,2,2,07,75,18,040,30,83,15,333,,77,13,147,26*56
$QZGSV,1,1,03,01,77,068,29,02,22,152,37,03,16,182,32*5C
$BDGSV,3,1,12,213,73,264,30,206,68,259,32,208,64,178,31,216,62,256,32*6E
$BDGSV,3,2,12,203,44,206,,220,42,294,33,209,39,242,31,223,36,098,36*63
$BDGSV,3,3,12,204,34,133,,230,33,228,37,229,29,292,28,225,16,046,34*60
$GAGSV,2,1,06,104,72,337,34,112,33,180,29,109,31,263,28,119,29,058,22*65
$GAGSV,2,2,06,121,15,069,29,101,14,119,34*67
$GPGSA,A,3,02,05,13,15,21,24,29,30,,,,,3.5,2.3,2.7*3C
$GNGSA,A,3,02,05,13,15,21,24,29,30,,,,,3.5,2.3,2.7*22
$GNGSA,A,3,66,67,75,76,77,81,,,,,,,3.5,2.3,2.7*25
$QZGSA,A,3,01,02,03,,,,,,,,,,3.5,2.3,2.7*2C
$IMGSA,A,3,,,,,,,,,,,,,3.5,2.3,2.7*23
$BDGSA,A,3,206,208,209,213,216,220,223,225,229,230,,,3.5,2.3,2.7*2F
$GAGSA,A,3,101,104,109,112,119,121,,,,,,,3.5,2.3,2.7*25
$GPRMC,025853.00,A,3722.860825,N,12640.718008,E,000.0,219.8,231119,,,A*5E
$GPGGA,025854.00,3722.860825,N,12640.718008,E,1,36,1.2,2.6,M,17.7,M,,*63
$GPGSV,2,1,08,13,70,033,32,15,67,271,39,05,50,081,48,21,30,313,30*7A
$GPGSV,2,2,08,29,23,242,37,30,21,047,27,24,18,188,32,02,18,156,39*71
$GLGSV,2,1,07,66,48,026,34,67,43,302,33,81,39,212,39,76,31,092,41*6C
$GLGSV,2,2,07,75,18,040,29,83,15,333,21,77,13,147,26*5D
$QZGSV,1,1,03,01,77,068,29,02,22,152,37,03,16,182,32*5C
$BDGSV,3,1,12,213,73,264,29,206,68,259,32,208,64,178,31,216,62,256,32*66
$BDGSV,3,2,12,203,44,206,,220,42,294,33,209,39,242,31,223,36,098,35*60
$BDGSV,3,3,12,204,34,133,,230,33,228,38,229,29,292,26,225,16,046,34*61
$GAGSV,2,1,06,104,72,337,34,112,33,180,29,109,31,263,28,119,29,058,22*65
$GAGSV,2,2,06,121,15,069,29,101,14,119,34*67
$GPGSA,A,3,02,05,13,15,21,24,29,30,,,,,3.1,2.2,2.2*3C
$GNGSA,A,3,02,05,13,15,21,24,29,30,,,,,3.1,2.2,2.2*22
$GNGSA,A,3,66,67,75,76,77,81,83,,,,,,3.1,2.2,2.2*2E
$QZGSA,A,3,01,02,03,,,,,,,,,,3.1,2.2,2.2*2C
$IMGSA,A,3,,,,,,,,,,,,,3.1,2.2,2.2*23
$BDGSA,A,3,206,208,209,213,216,220,223,225,230,,,,3.1,2.2,2.2*16
$GAGSA,A,3,101,104,109,112,119,121,,,,,,,3.1,2.2,2.2*25
$GPRMC,025854.00,A,3722.860825,N,12640.718008,E,000.0,219.8,231119,,,A*59
$GPGGA,025855.00,3722.860825,N,12640.718008,E,1,35,1.2,2.6,M,17.7,M,,*61
$GPGSV,2,1,08,13,70,033,31,15,67,271,38,05,50,081,47,21,30,313,30*77
$GPGSV,2,2,08,29,23,242,36,30,21,047,26,24,18,188,33,02,18,156,39*70
$GLGSV,2,1,07,66,48,026,34,67,43,302,33,81,39,212,39,76,31,092,41*6C
$GLGSV,2,2,07,75,18,040,29,83,15,333,21,77,13,147,26*5D
$QZGSV,1,1,03,01,77,068,29,02,22,152,37,03,16,182,32*5C
$BDGSV,3,1,12,213,73,264,29,206,68,259,31,208,64,178,31,216,62,256,32*65
$BDGSV,3,2,12,203,44,206,,220,42,294,33,209,39,242,31,223,36,098,35*60
$BDGSV,3,3,12,204,34,133,,230,33,228,38,229,29,292,,225,16,046,34*65
$GAGSV,2,1,06,104,72,337,34,112,33,180,28,109,31,263,27,119,29,058,24*6D
$GAGSV,2,2,06,121,15,069,29,101,14,119,34*67
$GPGSA,A,3,02,05,13,15,21,24,29,30,,,,,3.9,2.9,2.6*3B
$GNGSA,A,3,02,05,13,15,21,24,29,30,,,,,3.9,2.9,2.6*25
$GNGSA,A,3,66,67,75,76,77,81,,,,,,,3.9,2.9,2.6*22
$QZGSA,A,3,01,02,03,,,,,,,,,,3.9,2.9,2.6*2B
$IMGSA,A,3,,,,,,,,,,,,,3.9,2.9,2.6*24
$BDGSA,A,3,206,208,209,213,216,220,223,225,230,,,,3.9,2.9,2.6*11
$GAGSA,A,3,101,104,109,112,119,121,,,,,,,3.9,2.9,2.6*22
$GPRMC,025855.00,A,3722.860825,N,12640.718008,E,000.0,219.8,231119,,,A*58
$GPGGA,025856.00,3722.860825,N,12640.718008,E,1,37,2.4,2.6,M,17.7,M,,*65
$GPGSV,2,1,08,13,70,033,31,15,67,271,38,05,50,081,47,21,30,313,30*77
$GPGSV,2,2,08,29,23,242,36,30,21,047,26,24,18,188,34,02,18,156,39*77
$GLGSV,2,1,06,66,48,026,34,67,43,302,33,81,39,212,39,76,31,092,41*6D
$GLGSV,2,2,06,75,18,040,29,83,15,333,20*69
$QZGSV,1,1,03,01,77,068,29,02,22,152,37,03,16,182,33*5D
$BDGSV,3,1,12,213,73,264,28,206,68,259,31,208,64,178,31,216,62,256,32*64
$BDGSV,3,2,12,203,44,206,17,220,42,294,33,209,39,242,30,223,36,098,35*67
$BDGSV,3,3,12,204,34,133,,230,33,228,38,229,29,292,24,225,16,046,34*63
$GAGSV,2,1,07,104,72,337,34,112,33,180,28,109,31,263,27,119,29,058,25*6D
$GAGSV,2,2,07,136,25,316,25,121,15,069,29,101,15,119,34*67
$GPGSA,A,3,02,05,13,15,21,24,29,30,,,,,6.0,4.7,3.8*30
$GNGSA,A,3,02,05,13,15,21,24,29,30,,,,,6.0,4.7,3.8*2E
$GNGSA,A,3,66,67,75,76,81,,,,,,,,6.0,4.7,3.8*29
$QZGSA,A,3,01,02,03,,,,,,,,,,6.0,4.7,3.8*20
$IMGSA,A,3,,,,,,,,,,,,,6.0,4.7,3.8*2F
$BDGSA,A,3,203,206,208,209,213,216,220,223,225,230,,,6.0,4.7,3.8*2B
$GAGSA,A,3,101,104,109,112,119,121,136,,,,,,6.0,4.7,3.8*1D
$GPRMC,025856.00,A,3722.860825,N,12640.718008,E,000.0,219.8,231119,,,A*5B
$GPGGA,025857.00,3722.860825,N,12640.718008,E,1,36,1.2,2.7,M,17.7,M,,*61
$GPGSV,2,1,08,13,70,033,31,15,67,271,38,05,50,081,47,21,30,313,29*7F
$GPGSV,2,2,08,29,23,242,35,30,21,047,26,24,18,188,34,02,18,156,39*74
$GLGSV,2,1,06,66,48,026,33,67,43,302,33,81,39,212,39,76,31,092,41*6A
$GLGSV,2,2,06,75,18,040,29,83,15,333,20*69
$QZGSV,1,1,03,01,77,068,29,02,22,152,37,03,16,182,33*5D
$BDGSV,3,1,12,213,73,264,28,206,68,259,30,208,64,178,31,216,62,256,31*66
$BDGSV,3,2,12,203,44,206,,220,42,294,32,209,39,242,30,223,36,098,35*60
$BDGSV,3,3,12,204,34,133,,230,33,228,38,229,29,292,,225,16,046,34*65
$GAGSV,2,1,07,104,72,337,34,112,33,180,28,109,31,263,26,119,29,058,25*6C
$GAGSV,2,2,07,136,25,316,29,121,15,069,28,101,15,119,34*6A
$GPGSA,A,3,02,05,13,15,21,24,29,30,,,,,3.1,2.2,2.1*3F
$GNGSA,A,3,02,05,13,15,21,24,29,30,,,,,3.1,2.2,2.1*21
$GNGSA,A,3,66,67,75,76,81,,,,,,,,3.1,2.2,2.1*26
$QZGSA,A,3,01,02,03,,,,,,,,,,3.1,2.2,2.1*2F
$IMGSA,A,3,,,,,,,,,,,,,3.1,2.2,2.1*20
$BDGSA,A,3,206,208,209,213,216,220,223,225,230,,,,3.1,2.2,2.1*15
$GAGSA,A,3,101,104,109,112,119,121,136,,,,,,3.1,2.2,2.1*12
$GPRMC,025857.00,A,3722.860825,N,12640.718008,E,000.0,219.8,231119,,,A*5A
$GPGGA,025858.00,3722.860825,N,12640.718008,E,1,38,1.2,2.7,M,17.7,M,,*60
$GPGSV,2,1,08,13,70,033,30,15,67,271,38,05,50,081,47,21,30,313,29*7E
$GPGSV,2,2,08,29,23,242,35,30,21,047,26,24,18,188,34,02,18,156,39*74
$GLGSV,2,1,07,66,48,027,33,67,43,302,33,81,39,212,39,76,31,092,41*6A
$GLGSV,2,2,07,75,18,040,28,83,15,333,23,77,13,147,25*5D
$QZGSV,1,1,03,01,77,068,29,02,22,152,37,03,16,182,33*5D
$BDGSV,3,1,12,213,73,264,28,206,68,259,30,208,64,178,31,216,62,256,31*66
$BDGSV,3,2,12,203,44,206,,220,42,294,32,209,39,242,30,223,36,098,35*60
$BDGSV,3,3,12,204,34,133,,230,33,228,38,229,29,292,22,225,16,046,34*65
$GAGSV,2,1,06,104,72,337,34,112,33,180,27,109,31,263,26,119,29,058,25*62
$GAGSV,2,2,06,121,15,069,28,101,15,119,33*60
$GPGSA,A,3,02,05,13,15,21,24,29,30,,,,,3.6,2.5,2.6*38
$GNGSA,A,3,02,05,13,15,21,24,29,30,,,,,3.6,2.5,2.6*26
$GNGSA,A,3,66,67,75,76,77,81,83,,,,,,3.6,2.5,2.6*2A
$QZGSA,A,3,01,02,03,,,,,,,,,,3.6,2.5,2.6*28
$IMGSA,A,3,,,,,,,,,,,,,3.6,2.5,2.6*27
$BDGSA,A,3,206,208,209,213,216,220,223,225,229,230,,,3.6,2.5,2.6*2B
$GAGSA,A,3,101,104,109,112,119,121,,,,,,,3.6,2.5,2.6*21
$GPRMC,025858.00,A,3722.860825,N,12640.718008,E,000.0,219.8,231119,,,A*55
$GPGGA,025859.00,3722.860825,N,12640.718008,E,1,37,3.2,2.8,M,17.7,M,,*63
$GPGSV,2,1,08,13,70,033,30,15,67,271,37,05,50,081,47,21,30,313,28*70
$GPGSV,2,2,08,29,23,242,35,30,21,047,26,24,18,188,34,02,18,156,39*74
$GLGSV,2,1,07,66,48,027,33,67,43,302,33,81,39,212,39,76,31,092,41*6A
$GLGSV,2,2,07,75,18,040,28,83,15,333,,77,13,147,25*5C
$QZGSV,1,1,03,01,77,068,29,02,22,152,37,03,16,182,33*5D
$BDGSV,3,1,12,213,73,264,28,206,68,259,30,208,64,178,31,216,62,256,31*66
$BDGSV,3,2,12,203,44,206,,220,42,294,32,209,39,242,30,223,36,098,35*60
$BDGSV,3,3,12,204,34,133,,230,33,228,38,229,29,292,22,225,16,046,34*65
$GAGSV,2,1,06,104,72,337,34,112,33,180,27,109,31,263,26,119,29,058,24*63
$GAGSV,2,2,06,121,15,069,28,101,15,119,33*60
$GPGSA,A,3,02,05,13,15,21,24,29,30,,,,,45.4,7.6,44.8*32
$GNGSA,A,3,02,05,13,15,21,24,29,30,,,,,45.4,7.6,44.8*2C
$GNGSA,A,3,66,67,75,76,77,81,,,,,,,45.4,7.6,44.8*2B
$QZGSA,A,3,01,02,03,,,,,,,,,,45.4,7.6,44.8*22
$IMGSA,A,3,,,,,,,,,,,,,45.4,7.6,44.8*2D
$BDGSA,A,3,206,208,209,213,216,220,223,225,229,230,,,45.4,7.6,44.8*21
$GAGSA,A,3,101,104,109,112,119,121,,,,,,,45.4,7.6,44.8*2B
$GPRMC,025859.00,A,3722.860825,N,12640.718008,E,000.0,219.8,231119,,,A*54
$GPGGA,025900.00,3722.860825,N,12640.718008,E,1,37,2.4,2.8,M,17.7,M,,*69
$GPGSV,2,1,08,13,70,033,31,15,67,271,37,05,50,081,47,21,30,313,28*71
$GPGSV,2,2,08,29,23,242,35,30,21,047,27,24,18,188,34,02,18,156,39*75
$GLGSV,2,1,07,66,48,027,33,67,43,302,33,81,39,212,39,76,31,092,41*6A
$GLGSV,2,2,07,75,18,040,28,83,15,333,,77,13,147,25*5C
$QZGSV,1,1,03,01,77,068,29,02,22,152,37,03,16,182,33*5D
$BDGSV,3,1,12,213,73,264,28,206,68,259,30,208,64,178,31,216,62,256,31*66
$BDGSV,3,2,12,203,44,206,26,220,42,294,31,209,39,242,30,223,36,098,35*67
$BDGSV,3,3,12,204,34,133,,230,33,228,38,229,29,292,21,225,16,046,34*66
$GAGSV,2,1,06,104,72,337,34,112,33,180,26,109,31,263,26,119,29,058,24*62
$GAGSV,2,2,06,121,15,069,28,101,15,119,34*67
$GPGSA,A,3,02,05,13,15,21,24,29,30,,,,,5.4,4.1,3.6*3F
$GNGSA,A,3,02,05,13,15,21,24,29,30,,,,,5.4,4.1,3.6*21
$GNGSA,A,3,66,67,75,76,77,81,,,,,,,5.4,4.1,3.6*26
$QZGSA,A,3,01,02,03,,,,,,,,,,5.4,4.1,3.6*2F
$IMGSA,A,3,,,,,,,,,,,,,5.4,4.1,3.6*20
$BDGSA,A,3,203,206,208,209,213,216,220,223,225,230,,,5.4,4.1,3.6*24
$GAGSA,A,3,101,104,109,112,119,121,,,,,,,5.4,4.1,3.6*26
$GPRMC,025900.00,A,3722.860825,N,12640.718008,E,000.0,219.8,231119,,,A*59
$GPGGA,025901.00,3722.860825,N,12640.718008,E,1,38,1.6,2.7,M,17.7,M,,*69
$GPGSV,2,1,08,13,70,033,31,15,67,271,37,05,50,081,47,21,30,313,27*7E
$GPGSV,2,2,08,29,23,242,34,30,21,047,27,24,18,188,33,02,18,156,39*73
$GLGSV,2,1,06,66,48,027,33,67,43,302,32,81,39,212,39,76,31,092,40*6B
$GLGSV,2,2,06,75,18,040,28,83,15,333,25*6D
$QZGSV,1,1,03,01,77,068,28,02,22,152,37,03,16,182,33*5C
$BDGSV,3,1,12,213,73,264,27,206,68,259,30,208,64,178,32,216,62,256,31*6A
$BDGSV,3,2,12,203,44,206,25,220,42,294,31,209,39,242,30,223,36,098,34*65
$BDGSV,3,3,12,204,34,133,29,230,33,228,38,229,29,292,21,225,16,046,35*6C
$GAGSV,2,1,07,104,72,337,34,112,33,180,26,109,31,263,26,119,29,058,23*64
$GAGSV,2,2,07,136,25,316,28,121,15,069,28,101,15,119,33*6C
$GPGSA,A,3,02,05,13,15,21,24,29,30,,,,,4.6,3.3,3.2*3D
$GNGSA,A,3,02,05,13,15,21,24,29,30,,,,,4.6,3.3,3.2*23
$GNGSA,A,3,66,67,75,76,81,83,,,,,,,4.6,3.3,3.2*2F
$QZGSA,A,3,01,02,03,,,,,,,,,,4.6,3.3,3.2*2D
$IMGSA,A,3,,,,,,,,,,,,,4.6,3.3,3.2*22
$BDGSA,A,3,204,206,208,209,213,216,220,223,225,230,,,4.6,3.3,3.2*21
$GAGSA,A,3,101,104,109,112,119,121,136,,,,,,4.6,3.3,3.2*10
$GPRMC,025901.00,A,3722.860825,N,12640.718008,E,000.0,219.8,231119,,,A*58
$GPGGA,025902.00,3722.860825,N,12640.718008,E,1,36,2.4,2.7,M,17.7,M,,*65
$GPGSV,2,1,08,13,70,033,30,15,67,271,37,05,50,081,47,21,30,313,26*7E
$GPGSV,2,2,08,29,23,242,34,30,21,047,27,24,18,188,33,02,18,156,39*73
$GLGSV,2,1,06,66,48,027,32,67,43,302,32,81,39,212,39,76,31,092,40*6A
$GLGSV,2,2,06,75,18,040,28,83,15,333,*6A
$QZGSV,1,1,03,01,77,068,29,02,22,152,37,03,16,182,33*5D
$BDGSV,3,1,12,213,73,264,27,206,68,259,30,208,64,178,32,216,62,256,31*6A
$BDGSV,3,2,12,203,44,206,,220,42,294,31,209,39,242,30,223,36,098,34*62
$BDGSV,3,3,12,204,34,133,29,230,33,228,38,229,29,292,20,225,16,046,35*6D
$GAGSV,2,1,07,104,72,337,34,112,33,180,26,109,31,263,26,119,29,058,*65
$GAGSV,2,2,07,136,25,316,28,121,15,069,28,101,15,119,33*6C
$GPGSA,A,3,02,05,13,15,21,24,29,30,,,,,9.5,5.6,7.6*30
$GNGSA,A,3,02,05,13,15,21,24,29,30,,,,,9.5,5.6,7.6*2E
$GNGSA,A,3,66,67,75,76,81,,,,,,,,9.5,5.6,7.6*29
$QZGSA,A,3,01,02,03,,,,,,,,,,9.5,5.6,7.6*20
$IMGSA,A,3,,,,,,,,,,,,,9.5,5.6,7.6*2F
$BDGSA,A,3,204,206,208,209,213,216,220,223,225,230,,,9.5,5.6,7.6*2C
$GAGSA,A,3,101,104,109,112,121,136,,,,,,,9.5,5.6,7.6*24
$GPRMC,025902.00,A,3722.860825,N,12640.718008,E,000.0,219.8,231119,,,A*5B
$GPGGA,025903.00,3722.860825,N,12640.718008,E,1,37,4.8,2.8,M,17.7,M,,*60
$GPGSV,2,1,08,13,70,033,30,15,67,271,37,05,50,081,47,21,30,313,26*7E
$GPGSV,2,2,08,29,23,242,34,30,21,047,27,24,18,188,33,02,18,156,39*73
$GLGSV,2,1,07,66,48,027,32,67,43,302,32,81,39,212,38,76,31,092,41*6B
$GLGSV,2,2,07,75,18,040,28,83,15,333,23,77,13,147,25*5D
$QZGSV,1,1,03,01,77,068,30,02,22,152,37,03,16,182,33*55
$BDGSV,3,1,12,213,73,264,27,206,68,259,30,208,64,178,32,216,62,256,31*6A
$BDGSV,3,2,12,203,44,206,,220,42,294,30,209,39,242,29,223,36,098,34*6B
$BDGSV,3,3,12,204,34,133,29,230,33,228,37,229,29,292,19,225,16,046,35*68
$GAGSV,2,1,06,104,72,337,34,112,33,180,25,109,31,263,26,119,29,058,22*67
$GAGSV,2,2,06,121,15,069,28,101,15,119,33*60
$GPGSA,A,3,02,05,13,15,21,24,29,30,,,,,18.5,9.3,16.0*3F
$GNGSA,A,3,02,05,13,15,21,24,29,30,,,,,18.5,9.3,16.0*21
$GNGSA,A,3,66,67,75,76,77,81,,,,,,,18.5,9.3,16.0*26
$QZGSA,A,3,01,02,03,,,,,,,,,,18.5,9.3,16.0*2F
$IMGSA,A,3,,,,,,,,,,,,,18.5,9.3,16.0*20
$BDGSA,A,3,204,206,208,209,213,216,220,223,225,230,,,18.5,9.3,16.0*23
$GAGSA,A,3,101,104,109,112,119,121,,,,,,,18.5,9.3,16.0*26
$GPRMC,025903.00,A,3722.860825,N,12640.718008,E,000.0,219.8,231119,,,A*5A
$GPGGA,025904.00,3722.860825,N,12640.718008,E,1,37,1.2,2.8,M,17.7,M,,*68
$GPGSV,2,1,08,13,70,033,29,15,67,271,37,05,50,081,46,21,30,313,25*74
$GPGSV,2,2,08,29,23,242,33,30,21,047,27,24,18,188,33,02,18,156,39*74
$GLGSV,2,1,07,66,48,027,32,67,43,302,33,81,39,212,38,76,31,092,41*6A
$GLGSV,2,2,07,75,18,040,28,83,15,333,22,77,13,147,25*5C
$QZGSV,1,1,03,01,77,068,31,02,22,152,38,03,16,182,33*5B
$BDGSV,3,1,12,213,73,264,27,206,68,259,30,208,64,178,31,216,62,256,31*69
$BDGSV,3,2,12,203,44,206,,220,42,294,30,209,39,242,29,223,36,098,34*6B
$BDGSV,3,3,12,204,34,133,28,230,33,228,37,229,29,292,19,225,16,046,35*69
$GAGSV,2,1,06,104,72,337,33,112,33,180,25,109,31,263,25,119,29,058,21*60
$GAGSV,2,2,06,121,15,069,28,101,15,119,33*60
$GPGSA,A,3,02,05,13,15,21,24,29,30,,,,,3.6,2.6,2.5*38
$GNGSA,A,3,02,05,13,15,21,24,29,30,,,,,3.6,2.6,2.5*26
$GNGSA,A,3,66,67,75,76,77,81,83,,,,,,3.6,2.6,2.5*2A
$QZGSA,A,3,01,02,03,,,,,,,,,,3.6,2.6,2.5*28
$IMGSA,A,3,,,,,,,,,,,,,3.6,2.6,2.5*27
$BDGSA,A,3,204,206,208,209,213,216,220,223,225,230,,,3.6,2.6,2.5*24
$GAGSA,A,3,101,104,109,112,121,,,,,,,,3.6,2.6,2.5*18
$GPRMC,025904.00,A,3722.860825,N,12640.718008,E,000.0,219.8,231119,,,A*5D
$GPGGA,025905.00,3722.860825,N,12640.718008,E,1,37,2.4,2.8,M,17.7,M,,*6C
$GPGSV,2,1,08,13,70,033,29,15,67,271,36,05,50,081,46,21,30,313,25*75
$GPGSV,2,2,08,29,23,242,33,30,21,047,26,24,18,188,33,02,18,156,39*75
$GLGSV,2,1,07,66,48,027,33,67,43,302,34,81,39,212,38,76,31,092,41*6C
$GLGSV,2,2,07,75,18,040,28,83,15,333,,77,13,147,25*5C
$QZGSV,1,1,03,01,77,068,31,02,22,152,39,03,16,182,33*5A
$BDGSV,3,1,12,213,73,264,27,206,68,259,30,208,64,178,31,216,62,256,31*69
$BDGSV,3,2,12,203,44,206,,220,42,294,30,209,39,242,29,223,36,098,33*6C
$BDGSV,3,3,12,204,34,133,28,230,33,228,37,229,29,292,18,225,16,046,34*69
$GAGSV,2,1,06,104,72,337,33,112,33,180,25,109,31,263,25,119,29,058,21*60
$GAGSV,2,2,06,121,15,069,28,101,15,119,33*60
$GPGSA,A,3,02,05,13,15,21,24,29,30,,,,,9.1,4.3,8.0*39
$GNGSA,A,3,02,05,13,15,21,24,29,30,,,,,9.1,4.3,8.0*27
$GNGSA,A,3,66,67,75,76,77,81,,,,,,,9.1,4.3,8.0*20
$QZGSA,A,3,01,02,03,,,,,,,,,,9.1,4.3,8.0*29
$IMGSA,A,3,,,,,,,,,,,,,9.1,4.3,8.0*26
$BDGSA,A,3,204,206,208,209,213,216,220,223,225,230,,,9.1,4.3,8.0*25
$GAGSA,A,3,101,104,109,112,119,121,,,,,,,9.1,4.3,8.0*20
$GPRMC,025905.00,A,3722.860825,N,12640.718008,E,000.0,219.8,231119,,,A*5C
$GPGGA,025906.00,3722.860825,N,12640.718008,E,1,38,1.6,2.8,M,17.7,M,,*61
$GPGSV,2,1,08,13,70,033,30,15,67,271,36,05,50,081,46,21,30,313,25*7D
$GPGSV,2,2,08,29,23,242,32,30,21,047,25,24,18,188,33,02,18,156,39*77
$GLGSV,2,1,06,66,48,027,34,67,43,302,34,81,39,212,38,76,31,092,41*6A
$GLGSV,2,2,06,75,18,040,27,83,15,333,23*64
$QZGSV,1,1,03,01,77,068,31,02,22,152,39,03,16,182,33*5A
$BDGSV,3,1,12,213,73,264,27,206,68,259,29,208,64,178,31,216,62,256,30*60
$BDGSV,3,2,12,203,44,206,,220,42,294,30,209,39,242,29,223,36,098,33*6C
$BDGSV,3,3,12,204,34,133,28,230,33,228,36,229,29,292,,225,16,046,34*61
$GAGSV,2,1,07,104,72,337,33,112,33,180,25,109,31,263,25,119,29,058,21*61
$GAGSV,2,2,07,136,25,316,25,121,15,069,28,101,15,119,33*61
$GPGSA,A,3,02,05,13,15,21,24,29,30,,,,,8.3,3.1,7.7*37
$GNGSA,A,3,02,05,13,15,21,24,29,30,,,,,8.3,3.1,7.7*29
$GNGSA,A,3,66,67,75,76,81,83,,,,,,,8.3,3.1,7.7*25
$QZGSA,A,3,01,02,03,,,,,,,,,,8.3,3.1,7.7*27
$IMGSA,A,3,,,,,,,,,,,,,8.3,3.1,7.7*28
$BDGSA,A,3,204,206,208,209,213,216,220,223,225,230,,,8.3,3.1,7.7*2B
$GAGSA,A,3,101,104,109,112,119,121,136,,,,,,8.3,3.1,7.7*1A
$GPRMC,025906.00,A,3722.860825,N,12640.718008,E,000.0,219.8,231119,,,A*5F
$GPGGA,025907.00,3722.860825,N,12640.718008,E,1,37,3.2,2.8,M,17.7,M,,*69
$GPGSV,2,1,08,13,70,033,29,15,67,271,35,05,50,081,47,21,30,313,25*77
$GPGSV,2,2,08,29,23,242,32,30,21,047,24,24,18,188,33,02,18,156,39*76
$GLGSV,2,1,06,66,48,027,34,67,43,302,34,81,39,212,38,76,31,092,41*6A
$GLGSV,2,2,06,75,18,040,29,83,15,333,*6B
$QZGSV,1,1,03,01,77,068,31,02,22,152,39,03,16,182,33*5A
$BDGSV,3,1,12,213,73,264,27,206,68,259,29,208,64,178,31,216,62,256,30*60
$BDGSV,3,2,12,203,44,206,,220,42,294,30,209,39,242,29,223,36,098,33*6C
$BDGSV,3,3,12,204,34,133,28,230,33,228,36,229,29,292,,225,16,046,34*61
$GAGSV,2,1,07,104,72,337,33,112,33,180,25,109,31,263,25,119,29,058,22*62
$GAGSV,2,2,07,136,25,316,,121,15,069,28,101,15,119,34*61
$GPGSA,A,3,02,05,13,15,21,24,29,30,,,,,6.6,5.7,3.4*3B
$GNGSA,A,3,02,05,13,15,21,24,29,30,,,,,6.6,5.7,3.4*25
$GNGSA,A,3,66,67,75,76,81,,,,,,,,6.6,5.7,3.4*22
$QZGSA,A,3,01,02,03,,,,,,,,,,6.6,5.7,3.4*2B
$IMGSA,A,3,,,,,,,,,,,,,6.6,5.7,3.4*24
$BDGSA,A,3,204,206,208,209,213,216,220,223,225,230,,,6.6,5.7,3.4*27
$GAGSA,A,3,101,104,109,112,119,121,,,,,,,6.6,5.7,3.4*22
$GPRMC,025907.00,A,3722.860825,N,12640.718008,E,000.0,219.8,231119,,,A*5E
$GPGGA,025908.00,3722.860825,N,12640.718008,E,1,37,1.2,2.8,M,17.7,M,,*64
$GPGSV,2,1,08,13,70,033,30,15,67,271,35,05,50,081,47,21,30,313,27*7D
$GPGSV,2,2,08,29,23,242,32,30,21,047,24,24,18,188,33,02,18,156,39*76
$GLGSV,2,1,07,66,48,027,34,67,43,302,34,81,39,212,38,76,31,092,41*6B
$GLGSV,2,2,07,75,18,040,29,83,15,333,,77,13,147,25*5D
$QZGSV,1,1,03,01,77,068,30,02,22,152,39,03,16,182,34*5C
$BDGSV,3,1,12,213,73,264,27,206,68,259,29,208,64,178,31,216,62,256,30*60
$BDGSV,3,2,12,203,44,206,,220,42,294,30,209,39,242,29,223,36,098,33*6C
$BDGSV,3,3,12,204,34,133,27,230,33,228,36,229,29,292,,225,16,046,34*6E
$GAGSV,2,1,06,104,72,337,33,112,33,180,25,109,31,263,26,119,29,058,23*61
$GAGSV,2,2,06,121,15,069,27,101,15,119,34*68
$GPGSA,A,3,02,05,13,15,21,24,29,30,,,,,4.0,2.5,3.1*3F
$GNGSA,A,3,02,05,13,15,21,24,29,30,,,,,4.0,2.5,3.1*21
$GNGSA,A,3,66,67,75,76,77,81,,,,,,,4.0,2.5,3.1*26
$QZGSA,A,3,01,02,03,,,,,,,,,,4.0,2.5,3.1*2F
$IMGSA,A,3,,,,,,,,,,,,,4.0,2.5,3.1*20
$BDGSA,A,3,204,206,208,209,213,216,220,223,225,230,,,4.0,2.5,3.1*23
$GAGSA,A,3,101,104,109,112,119,121,,,,,,,4.0,2.5,3.1*26
$GPRMC,025908.00,A,3722.860825,N,12640.718008,E,000.0,219.8,231119,,,A*51
$GPGGA,025909.00,3722.860825,N,12640.718008,E,1,37,2.4,2.9,M,17.7,M,,*61
$GPGSV,2,1,08,13,70,033,30,15,67,271,35,05,50,081,47,21,30,313,27*7D
$GPGSV,2,2,08,29,23,242,31,30,21,047,24,24,18,188,33,02,18,156,39*75
$GLGSV,2,1,07,66,48,027,33,67,43,302,34,81,39,212,38,76,31,092,41*6C
$GLGSV,2,2,07,75,18,040,30,83,15,333,21,77,13,147,25*56
$QZGSV,1,1,03,01,77,068,30,02,22,152,39,03,16,182,34*5C
$BDGSV,3,1,12,213,73,264,27,206,68,259,31,208,64,178,31,216,62,256,30*69
$BDGSV,3,2,12,203,44,206,,220,42,294,29,209,39,242,28,223,36,098,33*65
$BDGSV,3,3,12,204,34,133,27,230,33,228,35,229,29,292,,225,16,046,34*6D
$GAGSV,2,1,06,104,72,337,33,112,33,180,25,109,31,263,26,119,29,058,22*60
$GAGSV,2,2,06,121,15,069,27,101,15,119,33*6F
$GPGSA,A,3,02,05,13,15,21,24,29,30,,,,,6.6,5.4,3.7*3B
$GNGSA,A,3,02,05,13,15,21,24,29,30,,,,,6.6,5.4,3.7*25
$GNGSA,A,3,66,67,75,76,77,81,,,,,,,6.6,5.4,3.7*22
$QZGSA,A,3,01,02,03,,,,,,,,,,6.6,5.4,3.7*2B
$IMGSA,A,3,,,,,,,,,,,,,6.6,5.4,3.7*24
$BDGSA,A,3,204,206,208,209,213,216,220,223,225,230,,,6.6,5.4,3.7*27
$GAGSA,A,3,101,104,109,112,119,121,,,,,,,6.6,5.4,3.7*22
$GPRMC,025909.00,A,3722.860825,N,12640.718008,E,000.0,219.8,231119,,,A*50
$GPGGA,025910.00,3722.860825,N,12640.718008,E,1,39,1.2,2.9,M,17.7,M,,*62
$GPGSV,2,1,08,13,70,033,31,15,67,271,35,05,50,081,47,21,30,313,27*7C
$GPGSV,2,2,08,29,23,242,34,30,21,047,24,24,18,188,33,02,18,156,38*71
$GLGSV,2,1,07,66,48,027,33,67,43,302,34,81,39,212,38,76,31,092,41*6C
$GLGSV,2,2,07,75,18,040,30,83,15,333,21,77,13,147,26*55
$QZGSV,1,1,03,01,77,068,30,02,22,152,39,03,16,182,34*5C
$BDGSV,3,1,12,213,73,264,26,206,68,259,31,208,64,178,32,216,62,256,29*63
$BDGSV,3,2,12,203,44,206,,220,42,294,29,209,39,242,29,223,36,098,33*64
$BDGSV,3,3,12,204,34,133,27,230,33,228,35,229,29,292,22,225,16,046,34*6D
$GAGSV,2,1,06,104,72,337,33,112,33,180,25,109,31,263,26,119,29,058,22*60
$GAGSV,2,2,06,121,15,069,27,101,15,119,33*6F
$GPGSA,A,3,02,05,13,15,21,24,29,30,,,,,4.4,2.5,3.6*3C
$GNGSA,A,3,02,05,13,15,21,24,29,30,,,,,4.4,2.5,3.6*22
$GNGSA,A,3,66,67,75,76,77,81,83,,,,,,4.4,2.5,3.6*2E
$QZGSA,A,3,01,02,03,,,,,,,,,,4.4,2.5,3.6*2C
$IMGSA,A,3,,,,,,,,,,,,,4.4,2.5,3.6*23
$BDGSA,A,3,204,206,208,209,213,216,220,223,225,229,230,,4.4,2.5,3.6*19
$GAGSA,A,3,101,104,109,112,119,121,,,,,,,4.4,2.5,3.6*25
$GPRMC,025910.00,A,3722.860825,N,12640.718008,E,000.0,219.8,231119,,,A*58
$GPGGA,025911.00,3722.860825,N,12640.718008,E,1,38,1.2,2.9,M,17.7,M,,*62
$GPGSV,2,1,08,13,70,033,31,15,67,271,35,05,50,081,47,21,30,313,26*7D
$GPGSV,2,2,08,29,23,242,35,30,21,047,24,24,18,188,32,02,18,156,38*71
$GLGSV,2,1,06,66,48,027,33,67,44,302,33,81,39,212,38,76,31,092,41*6D
$GLGSV,2,2,06,75,18,040,29,83,15,333,*6B
$QZGSV,1,1,03,01,77,068,32,02,22,152,39,03,16,182,33*59
$BDGSV,3,1,12,213,73,264,26,206,68,259,31,208,64,178,33,216,62,256,28*63
$BDGSV,3,2,12,203,44,206,,220,42,294,30,209,39,242,30,223,36,098,33*64
$BDGSV,3,3,12,204,34,133,29,230,33,228,35,229,29,292,27,225,16,046,33*61
$GAGSV,2,1,07,104,72,337,33,112,33,180,24,109,31,263,26,119,29,058,22*60
$GAGSV,2,2,07,136,25,316,25,121,15,069,28,101,15,119,33*61
$GPGSA,A,3,02,05,13,15,21,24,29,30,,,,,3.4,2.1,2.7*3F
$GNGSA,A,3,02,05,13,15,21,24,29,30,,,,,3.4,2.1,2.7*21
$GNGSA,A,3,66,67,75,76,81,,,,,,,,3.4,2.1,2.7*26
$QZGSA,A,3,01,02,03,,,,,,,,,,3.4,2.1,2.7*2F
$IMGSA,A,3,,,,,,,,,,,,,3.4,2.1,2.7*20
$BDGSA,A,3,204,206,208,209,213,216,220,223,225,229,230,,3.4,2.1,2.7*1A
$GAGSA,A,3,101,104,109,112,119,121,136,,,,,,3.4,2.1,2.7*12
$GPRMC,025911.00,A,3722.860825,N,12640.718008,E,000.0,219.8,231119,,,A*59
$GPGGA,025912.00,3722.860825,N,12640.718008,E,1,40,0.8,2.9,M,17.7,M,,*65
$GPGSV,2,1,08,13,70,033,31,15,67,271,35,05,50,081,47,21,30,313,26*7D
$GPGSV,2,2,08,29,23,242,35,30,21,047,23,24,18,188,32,02,18,156,38*76
$GLGSV,2,1,06,66,48,027,33,67,44,302,33,81,39,212,38,76,31,092,40*6C
$GLGSV,2,2,06,75,18,040,29,83,15,333,19*63
$QZGSV,1,1,03,01,77,068,32,02,22,152,39,03,16,182,33*59
$BDGSV,3,1,12,213,73,264,26,206,68,259,32,208,64,178,33,216,62,256,28*60
$BDGSV,3,2,12,203,44,206,25,220,42,294,30,209,39,242,30,223,36,098,33*63
$BDGSV,3,3,12,204,34,133,28,230,33,228,35,229,29,292,27,225,16,046,33*60
$GAGSV,2,1,07,104,72,337,33,112,33,180,24,109,31,263,29,119,29,058,21*6C
$GAGSV,2,2,07,136,25,316,25,121,15,069,28,101,15,119,33*61
$GPGSA,A,3,02,05,13,15,21,24,29,30,,,,,2.4,1.2,2.0*39
$GNGSA,A,3,02,05,13,15,21,24,29,30,,,,,2.4,1.2,2.0*27
$GNGSA,A,3,66,67,75,76,81,83,,,,,,,2.4,1.2,2.0*2B
$QZGSA,A,3,01,02,03,,,,,,,,,,2.4,1.2,2.0*29
$IMGSA,A,3,,,,,,,,,,,,,2.4,1.2,2.0*26
$BDGSA,A,3,203,204,206,208,209,213,216,220,223,225,229,230,2.4,1.2,2.0*2D
$GAGSA,A,3,101,104,109,112,119,121,136,,,,,,2.4,1.2,2.0*14
$GPRMC,025912.00,A,3722.860825,N,12640.718008,E,000.0,219.8,231119,,,A*5A
$GPGGA,025913.00,3722.860825,N,12640.718008,E,1,39,0.8,2.9,M,17.7,M,,*6A
$GPGSV,2,1,08,13,70,033,31,15,67,271,35,05,50,081,47,21,30,313,26*7D
$GPGSV,2,2,08,29,23,242,35,30,21,047,26,24,18,188,32,02,18,156,38*73
$GLGSV,2,1,07,66,48,027,33,67,44,302,33,81,39,212,38,76,31,092,40*6D
$GLGSV,2,2,07,75,18,040,29,83,15,333,19,77,13,146,28*59
$QZGSV,1,1,03,01,77,068,32,02,22,152,38,03,16,182,33*58
$BDGSV,3,1,12,213,73,264,26,206,68,259,31,208,64,178,33,216,62,256,27*6C
$BDGSV,3,2,12,203,44,206,24,220,42,294,30,209,39,242,30,223,36,098,33*62
$BDGSV,3,3,12,204,34,133,28,230,33,228,35,229,29,292,26,225,16,046,34*66
$GAGSV,2,1,06,104,72,337,33,112,33,180,23,109,31,263,29,119,29,058,21*6A
$GAGSV,2,2,06,121,15,069,28,101,15,119,33*60
$GPGSA,A,3,02,05,13,15,21,24,29,30,,,,,2.2,1.2,1.9*35
$GNGSA,A,3,02,05,13,15,21,24,29,30,,,,,2.2,1.2,1.9*2B
$GNGSA,A,3,66,67,75,76,77,81,,,,,,,2.2,1.2,1.9*2C
$QZGSA,A,3,01,02,03,,,,,,,,,,2.2,1.2,1.9*25
$IMGSA,A,3,,,,,,,,,,,,,2.2,1.2,1.9*2A
$BDGSA,A,3,203,204,206,208,209,213,216,220,223,225,229,230,2.2,1.2,1.9*21
$GAGSA,A,3,101,104,109,112,119,121,,,,,,,2.2,1.2,1.9*2C
$GPRMC,025913.00,A,3722.860825,N,12640.718008,E,000.0,219.8,231119,,,A*5B
$GPGGA,025914.00,3722.860825,N,12640.718008,E,1,39,0.8,2.9,M,17.7,M,,*6D
$GPGSV,2,1,08,13,70,033,30,15,67,271,35,05,50,081,47,21,30,313,26*7C
$GPGSV,2,2,08,29,23,242,35,30,21,047,26,24,18,188,31,02,18,156,38*70
$GLGSV,2,1,07,66,48,027,33,67,44,302,32,81,39,212,38,76,31,092,40*6C
$GLGSV,2,2,07,75,18,040,29,83,15,333,18,77,13,146,28*58
$QZGSV,1,1,03,01,77,068,32,02,22,152,38,03,16,182,33*58
$BDGSV,3,1,12,213,73,264,27,206,68,259,31,208,64,178,33,216,62,256,26*6C
$BDGSV,3,2,12,203,44,206,,220,42,294,30,209,39,242,29,223,36,098,32*6D
$BDGSV,3,3,12,204,34,133,28,230,33,228,35,229,29,292,26,225,16,046,33*61
$GAGSV,2,1,06,104,72,337,33,112,33,180,23,109,31,263,29,119,29,058,21*6A
$GAGSV,2,2,06,121,15,069,28,101,15,119,33*60
$GPGSA,A,3,02,05,13,15,21,24,29,30,,,,,2.5,1.2,2.2*3A
$GNGSA,A,3,02,05,13,15,21,24,29,30,,,,,2.5,1.2,2.2*24
$GNGSA,A,3,66,67,75,76,77,81,,,,,,,2.5,1.2,2.2*23
$QZGSA,A,3,01,02,03,,,,,,,,,,2.5,1.2,2.2*2A
$IMGSA,A,3,,,,,,,,,,,,,2.5,1.2,2.2*25
$BDGSA,A,3,204,206,208,209,213,216,220,223,225,229,230,,2.5,1.2,2.2*1F
$GAGSA,A,3,101,104,109,112,119,121,,,,,,,2.5,1.2,2.2*23
$GPRMC,025914.00,A,3722.860825,N,12640.718008,E,000.0,219.8,231119,,,A*5C
$GPGGA,025915.00,3722.860825,N,12640.718008,E,1,39,1.2,3.2,M,17.7,M,,*6D
$GPGSV,2,1,08,13,70,033,30,15,67,271,35,05,50,081,47,21,30,313,26*7C
$GPGSV,2,2,08,29,23,242,35,30,21,047,28,24,18,188,31,02,18,156,37*71
$GLGSV,2,1,07,66,48,027,32,67,44,302,32,81,39,212,38,76,31,092,40*6D
$GLGSV,2,2,07,75,18,040,29,83,15,333,19,77,13,146,28*59
$QZGSV,1,1,03,01,77,068,32,02,22,152,38,03,16,182,33*58
$BDGSV,3,1,12,213,73,264,27,206,68,259,31,208,64,178,33,216,62,256,26*6C
$BDGSV,3,2,12,203,44,206,,220,42,294,30,209,39,242,29,223,36,098,32*6D
$BDGSV,3,3,12,204,34,133,28,230,33,228,35,229,29,292,27,225,16,046,33*60
$GAGSV,2,1,06,104,72,337,34,112,33,180,23,109,31,263,29,119,29,058,21*6D
$GAGSV,2,2,06,121,15,069,28,101,15,119,32*61
$GPGSA,A,3,02,05,13,15,21,24,29,30,,,,,3.9,2.2,3.2*35
$GNGSA,A,3,02,05,13,15,21,24,29,30,,,,,3.9,2.2,3.2*2B
$GNGSA,A,3,66,67,75,76,77,81,83,,,,,,3.9,2.2,3.2*27
$QZGSA,A,3,01,02,03,,,,,,,,,,3.9,2.2,3.2*25
$IMGSA,A,3,,,,,,,,,,,,,3.9,2.2,3.2*2A
$BDGSA,A,3,204,206,208,209,213,216,220,223,225,229,230,,3.9,2.2,3.2*10
$GAGSA,A,3,101,104,109,112,119,121,,,,,,,3.9,2.2,3.2*2C
$GPRMC,025915.00,A,3722.860825,N,12640.718008,E,000.0,219.8,231119,,,A*5D
$GPGGA,025916.00,3722.858528,N,12640.715681,E,1,38,0.6,3.1,M,17.7,M,,*68
$GPGSV,2,1,08,13,70,033,30,15,67,271,36,05,50,081,46,21,30,313,26*7E
$GPGSV,2,2,08,29,23,242,35,30,21,047,27,24,18,188,31,02,18,156,37*7E
$GLGSV,2,1,06,66,48,027,32,67,44,302,32,81,39,212,38,76,31,092,39*62
$GLGSV,2,2,06,75,18,040,29,83,15,333,19*63
$QZGSV,1,1,03,01,77,068,33,02,22,152,38,03,16,182,32*58
$BDGSV,3,1,12,213,73,264,27,206,68,259,31,208,64,178,34,216,62,256,26*6B
$BDGSV,3,2,12,203,44,206,22,220,42,294,34,209,39,242,29,223,36,098,31*6A
$BDGSV,3,3,12,204,34,133,28,230,33,228,35,229,29,291,32,225,16,046,33*67
$GAGSV,2,1,07,104,72,337,34,112,33,180,24,109,31,263,30,119,29,058,20*62
$GAGSV,2,2,07,136,25,316,,121,15,069,28,101,15,119,32*67
$GPGSA,A,3,02,05,13,15,21,24,29,30,,,,,5.3,2.0,4.9*37
$GNGSA,A,3,02,05,13,15,21,24,29,30,,,,,5.3,2.0,4.9*29
$GNGSA,A,3,66,67,75,76,81,,,,,,,,5.3,2.0,4.9*2E
$QZGSA,A,3,01,02,03,,,,,,,,,,5.3,2.0,4.9*27
$IMGSA,A,3,,,,,,,,,,,,,5.3,2.0,4.9*28
$BDGSA,A,3,203,204,206,208,209,213,216,220,223,225,229,230,5.3,2.0,4.9*23
$GAGSA,A,3,101,104,109,112,119,121,,,,,,,5.3,2.0,4.9*2E
$GPRMC,025916.00,A,3722.858528,N,12640.715681,E,001.4,217.6,231119,,,A*5A
$GPGGA,025917.00,3722.857090,N,12640.714395,E,1,38,0.6,3.1,M,17.7,M,,*61
$GPGSV,2,1,08,13,70,033,29,15,67,271,36,05,50,081,48,21,30,313,26*78
$GPGSV,2,2,08,29,23,242,35,30,21,047,27,24,18,188,31,02,18,156,37*7E
$GLGSV,2,1,06,66,48,027,32,67,44,302,32,81,39,212,37,76,31,092,40*63
$GLGSV,2,2,06,75,18,040,29,83,15,333,18*62
$QZGSV,1,1,03,01,77,068,33,02,22,152,38,03,16,182,32*58
$BDGSV,3,1,12,213,73,264,27,206,68,259,30,208,64,178,33,216,62,256,25*6E
$BDGSV,3,2,12,203,44,206,,220,42,294,34,209,39,242,28,223,36,098,33*69
$BDGSV,3,3,12,204,34,133,28,230,33,228,35,229,29,291,32,225,16,046,33*67
$GAGSV,2,1,07,104,72,337,35,112,33,180,24,109,31,263,30,119,29,058,20*63
$GAGSV,2,2,07,136,25,316,23,121,15,069,27,101,15,119,32*69
$GPGSA,A,3,02,05,13,15,21,24,29,30,,,,,2.1,1.3,1.7*39
$GNGSA,A,3,02,05,13,15,21,24,29,30,,,,,2.1,1.3,1.7*27
$GNGSA,A,3,66,67,75,76,81,,,,,,,,2.1,1.3,1.7*20
$QZGSA,A,3,01,02,03,,,,,,,,,,2.1,1.3,1.7*29
$IMGSA,A,3,,,,,,,,,,,,,2.1,1.3,1.7*26
$BDGSA,A,3,204,206,208,209,213,216,220,223,225,229,230,,2.1,1.3,1.7*1C
$GAGSA,A,3,101,104,109,112,119,121,136,,,,,,2.1,1.3,1.7*14
$GPRMC,025917.00,A,3722.857090,N,12640.714395,E,002.3,215.1,231119,,,A*52
$GPGGA,025918.00,3722.853628,N,12640.711682,E,1,36,0.6,3.1,M,17.7,M,,*67
$GPGSV,2,1,08,13,70,033,29,15,67,271,38,05,50,081,48,21,30,313,26*76
$GPGSV,2,2,08,29,23,242,34,30,21,047,27,24,18,188,31,02,18,156,37*7F
$GLGSV,2,1,07,66,48,027,32,67,44,302,32,81,39,212,37,76,31,092,40*62
$GLGSV,2,2,07,75,18,040,31,83,15,333,18,77,13,146,30*58
$QZGSV,1,1,03,01,77,068,33,02,22,152,38,03,16,182,33*59
$BDGSV,3,1,12,213,73,264,27,206,68,259,30,208,64,178,33,216,62,256,28*63
$BDGSV,3,2,12,203,44,206,,220,42,294,34,209,39,242,28,223,36,098,34*6E
$BDGSV,3,3,12,204,34,133,27,230,33,228,35,229,29,291,31,225,16,046,33*6B
$GAGSV,2,1,06,104,72,338,35,112,33,180,24,109,31,263,29,119,29,058,19*6F
$GAGSV,2,2,06,121,15,069,26,101,15,119,32*6F
$GPGSA,A,3,02,05,13,15,21,24,29,30,,,,,3.3,2.1,2.5*3A
$GNGSA,A,3,02,05,13,15,21,24,29,30,,,,,3.3,2.1,2.5*24
$GNGSA,A,3,66,67,75,76,77,81,,,,,,,3.3,2.1,2.5*23
$QZGSA,A,3,01,02,03,,,,,,,,,,3.3,2.1,2.5*2A
$IMGSA,A,3,,,,,,,,,,,,,3.3,2.1,2.5*25
$BDGSA,A,3,204,206,208,209,213,216,220,223,225,229,230,,3.3,2.1,2.5*1F
$GAGSA,A,3,101,104,109,112,121,,,,,,,,3.3,2.1,2.5*1A
$GPRMC,025918.00,A,3722.853628,N,12640.711682,E,003.3,211.7,231119,,,A*59
$GPGGA,025919.00,3722.850210,N,12640.708882,E,1,39,0.6,3.1,M,17.7,M,,*63
$GPGSV,2,1,08,13,70,033,29,15,67,271,39,05,50,081,47,21,30,313,26*78
$GPGSV,2,2,08,29,23,242,34,30,21,047,26,24,18,188,31,02,18,156,36*7F
$GLGSV,2,1,07,66,48,027,34,67,44,302,33,81,39,212,37,76,31,092,40*65
$GLGSV,2,2,07,75,18,040,34,83,15,333,18,77,13,146,31*5C
$QZGSV,1,1,03,01,77,068,33,02,22,152,38,03,16,182,33*59
$BDGSV,3,1,12,213,73,264,28,206,68,259,29,208,64,178,33,216,62,256,31*6C
$BDGSV,3,2,12,203,44,206,25,220,42,294,34,209,39,242,28,223,36,098,33*6E
$BDGSV,3,3,12,204,34,133,26,230,33,228,36,229,29,291,30,225,16,046,33*68
$GAGSV,2,1,06,104,72,337,35,112,33,180,23,109,31,263,29,119,29,058,20*6D
$GAGSV,2,2,06,121,15,069,25,101,15,119,32*6C
$GPGSA,A,3,02,05,13,15,21,24,29,30,,,,,2.1,1.1,1.7*3B
$GNGSA,A,3,02,05,13,15,21,24,29,30,,,,,2.1,1.1,1.7*25
$GNGSA,A,3,66,67,75,76,77,81,,,,,,,2.1,1.1,1.7*22
$QZGSA,A,3,01,02,03,,,,,,,,,,2.1,1.1,1.7*2B
$IMGSA,A,3,,,,,,,,,,,,,2.1,1.1,1.7*24
$BDGSA,A,3,203,204,206,208,209,213,216,220,223,225,229,230,2.1,1.1,1.7*2F
$GAGSA,A,3,101,104,109,112,119,121,,,,,,,2.1,1.1,1.7*22
$GPRMC,025919.00,A,3722.850210,N,12640.708882,E,004.6,213.8,231119,,,A*5D
$GPGGA,025920.00,3722.845429,N,12640.704254,E,1,36,0.6,2.9,M,17.7,M,,*6A
$GPGSV,2,1,08,13,70,033,29,15,67,271,39,05,50,081,47,21,30,313,26*78
$GPGSV,2,2,08,29,23,242,33,30,21,047,25,24,18,188,31,02,18,156,36*7B
$GLGSV,2,1,07,66,48,027,35,67,44,302,33,81,39,212,36,76,31,092,39*6B
$GLGSV,2,2,07,75,18,040,34,83,15,333,18,77,13,146,31*5C
$QZGSV,1,1,03,01,77,068,33,02,22,152,39,03,16,182,33*58
$BDGSV,3,1,12,213,73,264,29,206,68,259,28,208,64,178,32,216,62,256,30*6C
$BDGSV,3,2,12,203,44,206,25,220,42,294,33,209,39,242,28,223,36,098,33*69
$BDGSV,3,3,12,204,34,133,26,230,33,228,36,229,29,291,30,225,16,046,33*68
$GAGSV,2,1,06,104,72,338,35,112,33,180,22,109,31,263,29,119,29,058,*61
$GAGSV,2,2,06,121,15,069,24,101,15,119,32*6D
$GPGSA,A,3,02,05,13,15,21,24,29,30,,,,,2.0,1.3,1.6*39
$GNGSA,A,3,02,05,13,15,21,24,29,30,,,,,2.0,1.3,1.6*27
$GNGSA,A,3,66,67,75,76,77,81,,,,,,,2.0,1.3,1.6*20
$QZGSA,A,3,01,02,03,,,,,,,,,,2.0,1.3,1.6*29
$IMGSA,A,3,,,,,,,,,,,,,2.0,1.3,1.6*26
$BDGSA,A,3,203,204,206,208,209,213,216,220,223,225,229,230,2.0,1.3,1.6*2D
$GAGSA,A,3,101,104,109,,,,,,,,,,2.0,1.3,1.6*19
$GPRMC,025920.00,A,3722.845429,N,12640.704254,E,006.3,215.4,231119,,,A*5F
$GPGGA,025921.00,3722.837343,N,12640.697782,E,1,38,3.2,3.2,M,17.7,M,,*63
$GPGSV,2,1,08,13,70,033,29,15,67,271,38,05,50,081,47,21,30,313,26*79
$GPGSV,2,2,08,29,23,242,33,30,21,047,25,24,18,188,31,02,18,156,35*78
$GLGSV,2,1,06,66,48,027,35,67,44,302,35,81,39,212,36,76,31,092,39*6C
$GLGSV,2,2,06,75,18,040,34,83,15,333,18*6E
$QZGSV,1,1,03,01,77,068,34,02,22,152,39,03,16,182,33*5F
$BDGSV,3,1,12,213,73,264,29,206,68,259,27,208,64,178,32,216,62,256,31*62
$BDGSV,3,2,12,203,44,206,27,220,42,294,33,209,39,242,28,223,36,098,33*6B
$BDGSV,3,3,12,204,34,133,26,230,33,228,36,229,29,291,29,225,16,046,33*60
$GAGSV,2,1,07,104,72,338,35,112,33,180,22,109,31,263,29,119,29,058,21*63
$GAGSV,2,2,07,136,25,316,23,121,15,069,24,101,15,119,32*6A
$GPGSA,A,3,02,05,13,15,21,24,29,30,,,,,13.2,7.6,10.8*36
$GNGSA,A,3,02,05,13,15,21,24,29,30,,,,,13.2,7.6,10.8*28
$GNGSA,A,3,66,67,75,76,81,,,,,,,,13.2,7.6,10.8*2F
$QZGSA,A,3,01,02,03,,,,,,,,,,13.2,7.6,10.8*26
$IMGSA,A,3,,,,,,,,,,,,,13.2,7.6,10.8*29
$BDGSA,A,3,203,204,206,208,209,213,216,220,223,225,229,230,13.2,7.6,10.8*22
$GAGSA,A,3,101,104,109,112,119,136,,,,,,,13.2,7.6,10.8*29
$GPRMC,025921.00,A,3722.837343,N,12640.697782,E,033.4,212.4,231119,,,A*53
$GPGGA,025922.00,3722.829105,N,12640.690496,E,1,38,3.2,3.5,M,17.7,M,,*69
$GPGSV,2,1,08,13,70,033,29,15,67,271,38,05,50,081,47,21,30,313,26*79
$GPGSV,2,2,08,29,23,242,36,30,21,047,24,24,18,188,30,02,18,156,35*7D
$GLGSV,2,1,06,66,48,027,35,67,44,302,34,81,39,212,35,76,31,092,38*6F
$GLGSV,2,2,06,75,18,040,33,83,15,333,17*66
$QZGSV,1,1,03,01,77,068,34,02,22,152,39,03,16,182,33*5F
$BDGSV,3,1,12,213,73,264,29,206,68,259,27,208,64,178,32,216,62,256,31*62
$BDGSV,3,2,12,203,44,206,27,220,42,294,33,209,39,242,28,223,36,098,33*6B
$BDGSV,3,3,12,204,34,133,26,230,33,228,36,229,29,291,29,225,16,046,33*60
$GAGSV,2,1,07,104,72,338,35,112,33,180,22,109,31,263,30,119,29,058,21*6B
$GAGSV,2,2,07,136,25,316,22,121,15,069,23,101,15,119,32*6C
$GPGSA,A,3,02,05,13,15,21,24,29,30,,,,,7.9,6.2,4.9*39
$GNGSA,A,3,02,05,13,15,21,24,29,30,,,,,7.9,6.2,4.9*27
$GNGSA,A,3,66,67,75,76,81,,,,,,,,7.9,6.2,4.9*20
$QZGSA,A,3,01,02,03,,,,,,,,,,7.9,6.2,4.9*29
$IMGSA,A,3,,,,,,,,,,,,,7.9,6.2,4.9*26
$BDGSA,A,3,203,204,206,208,209,213,216,220,223,225,229,230,7.9,6.2,4.9*2D
$GAGSA,A,3,101,104,109,112,119,136,,,,,,,7.9,6.2,4.9*26
$GPRMC,025922.00,A,3722.829105,N,12640.690496,E,036.0,214.7,231119,,,A*5A
$GPGGA,025923.00,3722.820799,N,12640.682738,E,1,38,2.4,3.7,M,17.7,M,,*63
$GPGSV,2,1,08,13,70,033,28,15,67,271,37,05,50,081,46,21,30,313,26*76
$GPGSV,2,2,08,29,23,242,36,30,21,047,27,24,18,188,30,02,18,156,36*7D
$GLGSV,2,1,06,66,48,027,34,67,44,302,34,81,39,212,35,76,31,092,38*6E
$GLGSV,2,2,06,75,18,040,33,83,15,333,17*66
$QZGSV,1,1,03,01,77,068,34,02,22,152,39,03,16,182,34*58
$BDGSV,3,1,12,213,73,264,29,206,68,259,30,208,64,178,33,216,62,256,31*65
$BDGSV,3,2,12,203,44,206,27,220,42,294,32,209,39,242,27,223,36,098,33*65
$BDGSV,3,3,12,204,34,133,,230,33,228,36,229,29,291,30,225,16,046,33*6C
$GAGSV,2,1,07,104,72,338,35,112,33,180,21,109,31,263,30,119,29,058,28*61
$GAGSV,2,2,07,136,25,316,24,121,15,069,22,101,15,119,32*6B
$GPGSA,A,3,02,05,13,15,21,24,29,30,,,,,5.3,4.2,3.2*3F
$GNGSA,A,3,02,05,13,15,21,24,29,30,,,,,5.3,4.2,3.2*21
$GNGSA,A,3,66,67,75,76,81,,,,,,,,5.3,4.2,3.2*26
$QZGSA,A,3,01,02,03,,,,,,,,,,5.3,4.2,3.2*2F
$IMGSA,A,3,,,,,,,,,,,,,5.3,4.2,3.2*20
$BDGSA,A,3,203,206,208,209,213,216,220,223,225,229,230,,5.3,4.2,3.2*1D
$GAGSA,A,3,101,104,109,112,119,136,,,,,,,5.3,4.2,3.2*20
$GPRMC,025923.00,A,3722.820799,N,12640.682738,E,036.9,217.0,231119,,,A*58
$GPGGA,025924.00,3722.812592,N,12640.674728,E,1,37,2.4,3.9,M,17.7,M,,*65
$GPGSV,2,1,08,13,70,033,27,15,67,271,38,05,50,081,46,21,30,313,30*71
$GPGSV,2,2,08,29,22,242,36,30,21,047,27,24,18,188,32,02,18,156,37*7F
$GLGSV,2,1,06,66,48,027,34,67,44,302,33,81,39,212,34,76,31,092,38*68
$GLGSV,2,2,06,75,18,040,32,83,15,333,17*67
$QZGSV,1,1,03,01,77,068,34,02,22,152,39,03,16,182,34*58
$BDGSV,3,1,12,213,73,264,29,206,68,259,32,208,64,178,33,216,62,256,32*64
$BDGSV,3,2,12,203,44,206,27,220,42,294,32,209,39,242,26,223,36,098,35*62
$BDGSV,3,3,12,204,34,133,,230,33,228,36,229,29,291,30,225,16,046,34*6B
$GAGSV,2,1,07,104,72,338,35,112,33,180,21,109,31,263,31,119,29,058,28*60
$GAGSV,2,2,07,136,25,316,24,121,15,069,22,101,15,119,31*68
$GPGSA,A,3,02,05,15,21,24,29,30,,,,,,10.5,5.1,9.2*07
$GNGSA,A,3,02,05,15,21,24,29,30,,,,,,10.5,5.1,9.2*19
$GNGSA,A,3,66,67,75,76,81,,,,,,,,10.5,5.1,9.2*1C
$QZGSA,A,3,01,02,03,,,,,,,,,,10.5,5.1,9.2*15
$IMGSA,A,3,,,,,,,,,,,,,10.5,5.1,9.2*1A
$BDGSA,A,3,203,206,208,209,213,216,220,223,225,229,230,,10.5,5.1,9.2*27
$GAGSA,A,3,101,104,109,112,119,121,136,,,,,,10.5,5.1,9.2*28
$GPRMC,025924.00,A,3722.812592,N,12640.674728,E,036.9,217.7,231119,,,A*58
$GPGGA,025925.00,3722.804582,N,12640.666856,E,1,37,0.6,3.8,M,17.7,M,,*66
$GPGSV,2,1,08,13,70,033,26,15,67,271,39,05,50,081,46,21,30,313,30*71
$GPGSV,2,2,08,29,22,242,36,30,21,047,28,24,18,188,32,02,18,156,37*70
$GLGSV,2,1,06,66,48,027,33,67,44,302,33,81,39,212,34,76,31,092,38*6F
$GLGSV,2,2,06,75,18,040,32,83,15,333,17*67
$QZGSV,1,1,03,01,77,068,34,02,22,152,39,03,16,182,34*58
$BDGSV,3,1,12,213,73,264,29,206,68,259,32,208,64,178,33,216,62,256,32*64
$BDGSV,3,2,12,203,44,206,28,220,42,294,32,209,39,242,25,223,36,098,35*6E
$BDGSV,3,3,12,204,34,133,,230,33,228,36,229,29,291,31,225,16,046,34*6A
$GAGSV,2,1,07,104,72,338,35,112,33,180,21,109,31,263,31,119,29,058,28*60
$GAGSV,2,2,07,136,25,316,24,121,15,069,22,101,15,119,31*68
$GPGSA,A,3,02,05,15,21,24,29,30,,,,,,1.5,1.0,1.1*39
$GNGSA,A,3,02,05,15,21,24,29,30,,,,,,1.5,1.0,1.1*27
$GNGSA,A,3,66,67,75,76,81,,,,,,,,1.5,1.0,1.1*22
$QZGSA,A,3,01,02,03,,,,,,,,,,1.5,1.0,1.1*2B
$IMGSA,A,3,,,,,,,,,,,,,1.5,1.0,1.1*24
$BDGSA,A,3,203,206,208,209,213,216,220,223,225,229,230,,1.5,1.0,1.1*19
$GAGSA,A,3,101,104,109,112,119,121,136,,,,,,1.5,1.0,1.1*16
$GPRMC,025925.00,A,3722.804582,N,12640.666856,E,036.7,217.8,231119,,,A*5B
$GPGGA,025926.00,3722.796491,N,12640.659064,E,1,35,0.8,3.8,M,17.7,M,,*6B
$GPGSV,2,1,08,13,70,033,25,15,67,271,40,05,50,081,45,21,30,313,30*7F
$GPGSV,2,2,08,29,22,242,36,30,20,047,29,24,18,188,32,02,18,156,37*70
$GLGSV,2,1,06,66,48,027,33,67,44,302,33,81,39,212,33,76,31,092,38*68
$GLGSV,2,2,06,75,18,040,31,83,15,333,16*65
$QZGSV,1,1,03,01,77,068,34,02,22,152,39,03,16,182,34*58
$BDGSV,3,1,12,213,73,264,29,206,68,259,33,208,64,178,33,216,62,256,32*65
$BDGSV,3,2,12,203,44,206,30,220,42,294,31,209,39,242,24,223,36,098,35*65
$BDGSV,3,3,12,204,34,133,,230,33,228,36,229,29,291,31,225,16,046,34*6A
$GAGSV,2,1,07,104,72,338,34,112,33,180,20,109,31,263,30,119,29,058,27*6E
$GAGSV,2,2,07,136,25,316,25,121,15,069,21,101,15,119,30*6B
$GPGSA,A,3,02,05,15,21,24,29,30,,,,,,2.1,1.6,1.4*3D
$GNGSA,A,3,02,05,15,21,24,29,30,,,,,,2.1,1.6,1.4*23
$GNGSA,A,3,66,67,75,76,81,,,,,,,,2.1,1.6,1.4*26
$QZGSA,A,3,01,02,03,,,,,,,,,,2.1,1.6,1.4*2F
$IMGSA,A,3,,,,,,,,,,,,,2.1,1.6,1.4*20
$BDGSA,A,3,203,206,208,213,216,220,223,225,229,230,,,2.1,1.6,1.4*26
$GAGSA,A,3,101,104,109,119,121,136,,,,,,,2.1,1.6,1.4*20
$GPRMC,025926.00,A,3722.796491,N,12640.659064,E,036.7,217.4,231119,,,A*56
$GPGGA,025927.00,3722.788441,N,12640.651278,E,1,36,1.6,4.1,M,17.7,M,,*6D
$GPGSV,2,1,08,13,70,033,23,15,67,271,40,05,50,081,45,21,30,313,30*79
$GPGSV,2,2,08,29,22,242,38,30,20,047,29,24,18,188,32,02,18,156,37*7E
$GLGSV,2,1,06,66,48,027,32,67,44,302,32,81,39,212,32,76,31,092,38*69
$GLGSV,2,2,06,75,18,040,31,83,15,333,16*65
$QZGSV,1,1,03,01,77,068,34,02,22,152,39,03,16,182,34*58
$BDGSV,3,1,12,213,73,264,29,206,68,259,33,208,64,178,33,216,62,256,32*65
$BDGSV,3,2,12,203,44,206,30,220,42,294,31,209,39,242,24,223,36,098,35*65
$BDGSV,3,3,12,204,34,133,24,230,33,228,36,229,29,291,31,225,16,046,34*6C
$GAGSV,2,1,07,104,72,338,34,112,33,180,20,109,31,263,30,119,29,058,27*6E
$GAGSV,2,2,07,136,25,316,25,121,15,069,21,101,15,119,30*6B
$GPGSA,A,3,02,05,15,21,24,29,30,,,,,,10.5,2.9,10.1*33
$GNGSA,A,3,02,05,15,21,24,29,30,,,,,,10.5,2.9,10.1*2D
$GNGSA,A,3,66,67,75,76,81,,,,,,,,10.5,2.9,10.1*28
$QZGSA,A,3,01,02,03,,,,,,,,,,10.5,2.9,10.1*21
$IMGSA,A,3,,,,,,,,,,,,,10.5,2.9,10.1*2E
$BDGSA,A,3,203,204,206,208,213,216,220,223,225,229,230,,10.5,2.9,10.1*1E
$GAGSA,A,3,101,104,109,119,121,136,,,,,,,10.5,2.9,10.1*2E
$GPRMC,025927.00,A,3722.788441,N,12640.651278,E,036.8,216.2,231119,,,A*5A
$GPGGA,025928.00,3722.780119,N,12640.643768,E,1,37,0.8,4.3,M,17.7,M,,*69
$GPGSV,2,1,08,13,70,033,22,15,67,271,41,05,50,081,45,21,30,313,30*79
$GPGSV,2,2,08,29,22,242,40,30,20,047,29,24,18,188,31,02,18,156,36*73
$GLGSV,2,1,06,66,48,027,32,67,44,302,32,81,39,212,32,76,31,092,38*69
$GLGSV,2,2,06,75,18,040,31,83,15,333,16*65
$QZGSV,1,1,03,01,77,068,34,02,22,152,39,03,16,182,34*58
$BDGSV,3,1,12,213,73,264,29,206,68,259,33,208,64,178,33,216,62,256,33*64
$BDGSV,3,2,12,203,44,206,30,220,42,294,30,209,39,242,23,223,36,098,35*63
$BDGSV,3,3,12,204,34,133,,230,33,228,35,229,29,291,31,225,16,046,34*69
$GAGSV,2,1,07,104,72,338,34,112,33,180,20,109,31,263,29,119,29,058,26*67
$GAGSV,2,2,07,136,25,316,29,121,15,069,21,101,15,119,29*6F
$GPGSA,A,3,02,05,15,21,24,29,30,,,,,,4.8,1.4,4.7*36
$GNGSA,A,3,02,05,15,21,24,29,30,,,,,,4.8,1.4,4.7*28
$GNGSA,A,3,66,67,75,76,81,,,,,,,,4.8,1.4,4.7*2D
$QZGSA,A,3,01,02,03,,,,,,,,,,4.8,1.4,4.7*24
$IMGSA,A,3,,,,,,,,,,,,,4.8,1.4,4.7*2B
$BDGSA,A,3,203,206,208,209,213,216,220,223,225,229,230,,4.8,1.4,4.7*16
$GAGSA,A,3,101,104,109,112,119,121,136,,,,,,4.8,1.4,4.7*19
$GPRMC,025928.00,A,3722.780119,N,12640.643768,E,036.8,215.2,231119,,,A*51
$GPGGA,025929.00,3722.771709,N,12640.636511,E,1,38,0.8,4.1,M,17.7,M,,*62
$GPGSV,2,1,08,13,70,033,22,15,67,271,41,05,50,081,44,21,30,313,29*70
$GPGSV,2,2,08,29,22,242,40,30,20,047,30,24,18,188,31,02,18,156,36*7B
$GLGSV,2,1,06,66,48,027,31,67,44,302,31,81,39,212,32,76,31,092,37*66
$GLGSV,2,2,06,75,18,040,31,83,15,333,16*65
$QZGSV,1,1,03,01,77,068,34,02,22,152,38,03,16,182,33*5E
$BDGSV,3,1,12,213,73,264,29,206,68,259,33,208,64,178,33,216,62,256,33*64
$BDGSV,3,2,12,203,44,206,30,220,42,294,30,209,39,242,23,223,36,098,35*63
$BDGSV,3,3,12,204,34,133,23,230,33,228,35,229,29,291,31,225,16,046,34*68
$GAGSV,2,1,07,104,72,338,34,112,33,180,19,109,31,263,29,119,29,058,26*6D
$GAGSV,2,2,07,136,25,316,29,121,15,069,21,101,15,119,29*6F
$GPGSA,A,3,02,05,15,21,24,29,30,,,,,,2.4,1.6,1.8*34
$GNGSA,A,3,02,05,15,21,24,29,30,,,,,,2.4,1.6,1.8*2A
$GNGSA,A,3,66,67,75,76,81,,,,,,,,2.4,1.6,1.8*2F
$QZGSA,A,3,01,02,03,,,,,,,,,,2.4,1.6,1.8*26
$IMGSA,A,3,,,,,,,,,,,,,2.4,1.6,1.8*29
$BDGSA,A,3,203,204,206,208,209,213,216,220,223,225,229,230,2.4,1.6,1.8*22
$GAGSA,A,3,101,104,109,112,119,121,136,,,,,,2.4,1.6,1.8*1B
$GPRMC,025929.00,A,3722.771709,N,12640.636511,E,036.8,215.8,231119,,,A*5D
$GPGGA,025930.00,3722.763225,N,12640.628771,E,1,37,0.8,4.1,M,17.7,M,,*66
$GPGSV,2,1,08,13,70,033,21,15,67,271,41,05,50,081,44,21,30,313,31*7A
$GPGSV,2,2,08,29,22,242,40,30,20,047,30,24,18,188,31,02,18,156,36*7B
$GLGSV,2,1,06,66,48,027,30,67,44,302,31,81,39,212,31,76,31,092,37*64
$GLGSV,2,2,06,75,18,040,31,83,15,333,16*65
$QZGSV,1,1,03,01,77,068,34,02,22,152,38,03,16,182,33*5E
$BDGSV,3,1,12,213,73,264,29,206,68,259,33,208,64,178,33,216,62,256,33*64
$BDGSV,3,2,12,203,44,206,29,220,42,294,29,209,39,242,22,223,36,098,35*62
$BDGSV,3,3,12,204,34,133,,230,33,228,35,229,29,291,31,225,16,046,34*69
$GAGSV,2,1,07,104,72,338,34,112,33,180,19,109,31,263,29,119,29,058,25*6E
$GAGSV,2,2,07,136,25,316,28,121,15,069,21,101,15,119,29*6E
$GPGSA,A,3,02,05,15,21,24,29,30,,,,,,2.0,1.4,1.4*3E
$GNGSA,A,3,02,05,15,21,24,29,30,,,,,,2.0,1.4,1.4*20
$GNGSA,A,3,66,67,75,76,81,,,,,,,,2.0,1.4,1.4*25
$QZGSA,A,3,01,02,03,,,,,,,,,,2.0,1.4,1.4*2C
$IMGSA,A,3,,,,,,,,,,,,,2.0,1.4,1.4*23
$BDGSA,A,3,203,206,208,209,213,216,220,223,225,229,230,,2.0,1.4,1.4*1E
$GAGSA,A,3,101,104,109,112,119,121,136,,,,,,2.0,1.4,1.4*11
$GPRMC,025930.00,A,3722.763225,N,12640.628771,E,036.9,216.1,231119,,,A*5D
$GPGGA,025931.00,3722.754911,N,12640.621096,E,1,37,2.4,4.6,M,17.7,M,,*61
$GPGSV,2,1,08,13,70,033,21,15,67,271,41,05,49,081,44,21,30,313,31*72
$GPGSV,2,2,08,29,22,242,40,30,20,047,31,24,18,188,31,02,18,156,36*7A
$GLGSV,2,1,06,66,48,027,30,67,44,302,31,81,39,212,31,76,31,092,37*64
$GLGSV,2,2,06,75,18,040,30,83,15,333,16*64
$QZGSV,1,1,03,01,77,068,34,02,22,152,38,03,16,182,33*5E
$BDGSV,3,1,12,213,73,264,29,206,68,259,33,208,64,178,33,216,62,256,33*64
$BDGSV,3,2,12,203,44,206,29,220,42,294,29,209,39,242,22,223,36,098,35*62
$BDGSV,3,3,12,204,34,133,,230,33,228,35,229,29,291,30,225,16,046,33*6F
$GAGSV,2,1,07,104,72,338,34,112,33,180,19,109,31,263,29,119,29,058,25*6E
$GAGSV,2,2,07,136,25,316,28,121,15,069,24,101,15,119,28*6A
$GPGSA,A,3,02,05,15,21,24,29,30,,,,,,7.4,3.9,6.3*30
$GNGSA,A,3,02,05,15,21,24,29,30,,,,,,7.4,3.9,6.3*2E
$GNGSA,A,3,66,67,75,76,81,,,,,,,,7.4,3.9,6.3*2B
$QZGSA,A,3,01,02,03,,,,,,,,,,7.4,3.9,6.3*22
$IMGSA,A,3,,,,,,,,,,,,,7.4,3.9,6.3*2D
$BDGSA,A,3,203,206,208,209,213,216,220,223,225,229,230,,7.4,3.9,6.3*10
$GAGSA,A,3,101,104,109,112,119,121,136,,,,,,7.4,3.9,6.3*1F
$GPRMC,025931.00,A,3722.754911,N,12640.621096,E,036.8,216.5,231119,,,A*56
$GPGGA,025932.00,3722.746679,N,12640.613107,E,1,37,1.2,4.4,M,17.7,M,,*6F
$GPGSV,2,1,08,13,70,033,20,15,67,271,41,05,49,081,44,21,30,313,31*73
$GPGSV,2,2,08,29,22,242,40,30,20,047,31,24,18,188,30,02,18,156,35*78
$GLGSV,2,1,06,66,48,027,29,67,44,302,32,81,39,212,31,76,31,092,37*6F
$GLGSV,2,2,06,75,18,040,29,83,15,333,16*6C
$QZGSV,1,1,03,01,77,068,34,02,22,152,37,03,16,182,32*50
$BDGSV,3,1,12,213,73,264,29,206,68,259,33,208,64,178,34,216,62,256,32*62
$BDGSV,3,2,12,203,44,206,29,220,42,294,28,209,39,242,22,223,36,098,35*63
$BDGSV,3,3,12,204,34,133,,230,33,228,35,229,29,291,30,225,16,046,33*6F
$GAGSV,2,1,07,104,72,338,34,112,33,180,19,109,31,263,28,119,29,058,25*6F
$GAGSV,2,2,07,136,25,316,28,121,15,069,24,101,15,119,28*6A
$GPGSA,A,3,02,05,15,21,24,29,30,,,,,,2.5,1.6,1.9*34
$GNGSA,A,3,02,05,15,21,24,29,30,,,,,,2.5,1.6,1.9*2A
$GNGSA,A,3,66,67,75,76,81,,,,,,,,2.5,1.6,1.9*2F
$QZGSA,A,3,01,02,03,,,,,,,,,,2.5,1.6,1.9*26
$IMGSA,A,3,,,,,,,,,,,,,2.5,1.6,1.9*29
$BDGSA,A,3,203,206,208,209,213,216,220,223,225,229,230,,2.5,1.6,1.9*14
$GAGSA,A,3,101,104,109,112,119,121,136,,,,,,2.5,1.6,1.9*1B
$GPRMC,025932.00,A,3722.746679,N,12640.613107,E,036.9,217.1,231119,,,A*5B
$GPGGA,025933.00,3722.738305,N,12640.605702,E,1,37,1.2,4.5,M,17.7,M,,*6C
$GPGSV,2,1,08,13,70,033,20,15,68,271,41,05,49,081,44,21,30,313,31*7C
$GPGSV,2,2,08,29,22,242,40,30,20,047,30,24,18,188,30,02,18,156,35*79
$GLGSV,2,1,06,66,48,027,29,67,44,302,34,81,39,212,30,76,31,092,37*68
$GLGSV,2,2,06,75,18,040,29,83,15,333,16*6C
$QZGSV,1,1,03,01,77,068,34,02,22,152,37,03,16,182,32*50
$BDGSV,3,1,12,213,73,264,29,206,68,259,33,208,64,178,34,216,62,256,32*62
$BDGSV,3,2,12,203,44,206,29,220,42,294,28,209,39,242,22,223,36,098,35*63
$BDGSV,3,3,12,204,34,133,,230,33,228,35,229,29,291,30,225,16,046,33*6F
$GAGSV,2,1,07,104,72,338,33,112,33,180,19,109,31,263,28,119,29,058,25*68
$GAGSV,2,2,07,136,25,316,27,121,15,069,24,101,15,119,27*6A
$GPGSA,A,3,02,05,15,21,24,29,30,,,,,,1.8,1.2,1.4*33
$GNGSA,A,3,02,05,15,21,24,29,30,,,,,,1.8,1.2,1.4*2D
$GNGSA,A,3,66,67,75,76,81,,,,,,,,1.8,1.2,1.4*28
$QZGSA,A,3,01,02,03,,,,,,,,,,1.8,1.2,1.4*21
$IMGSA,A,3,,,,,,,,,,,,,1.8,1.2,1.4*2E
$BDGSA,A,3,203,206,208,209,213,216,220,223,225,229,230,,1.8,1.2,1.4*13
$GAGSA,A,3,101,104,109,112,119,121,136,,,,,,1.8,1.2,1.4*1C
$GPRMC,025933.00,A,3722.738305,N,12640.605702,E,036.8,217.0,231119,,,A*59
$GPGGA,025934.00,3722.730081,N,12640.597872,E,1,37,1.2,4.6,M,17.7,M,,*6F
$GPGSV,2,1,08,13,70,033,19,15,68,271,41,05,49,081,43,21,30,313,31*71
$GPGSV,2,2,08,29,22,242,40,30,20,047,30,24,18,188,30,02,18,156,35*79
$GLGSV,2,1,06,66,48,027,28,67,44,302,34,81,39,212,32,76,31,092,39*65
$GLGSV,2,2,06,75,18,040,29,83,15,333,16*6C
$QZGSV,1,1,03,01,77,068,34,02,22,152,36,03,16,182,31*52
$BDGSV,3,1,12,213,73,264,31,206,68,259,34,208,64,178,34,216,62,256,32*6C
$BDGSV,3,2,12,203,44,206,29,220,42,294,33,209,39,242,23,223,36,098,36*6B
$BDGSV,3,3,12,204,34,133,,230,33,228,35,229,29,291,30,225,16,046,33*6F
$GAGSV,2,1,07,104,72,338,33,112,33,180,19,109,31,263,28,119,29,058,24*69
$GAGSV,2,2,07,136,25,316,27,121,15,069,24,101,15,119,27*6A
$GPGSA,A,3,02,05,15,21,24,29,30,,,,,,2.4,1.5,1.8*37
$GNGSA,A,3,02,05,15,21,24,29,30,,,,,,2.4,1.5,1.8*29
$GNGSA,A,3,66,67,75,76,81,,,,,,,,2.4,1.5,1.8*2C
$QZGSA,A,3,01,02,03,,,,,,,,,,2.4,1.5,1.8*25
$IMGSA,A,3,,,,,,,,,,,,,2.4,1.5,1.8*2A
$BDGSA,A,3,203,206,208,209,213,216,220,223,225,229,230,,2.4,1.5,1.8*17
$GAGSA,A,3,101,104,109,112,119,121,136,,,,,,2.4,1.5,1.8*18
$GPRMC,025934.00,A,3722.730081,N,12640.597872,E,036.8,216.2,231119,,,A*5A
$GPGGA,025935.00,3722.721514,N,12640.590570,E,1,38,1.2,4.7,M,17.7,M,,*61
$GPGSV,2,1,08,13,70,033,19,15,68,271,41,05,49,081,43,21,30,313,31*71
$GPGSV,2,2,08,29,22,242,40,30,20,047,30,24,18,188,30,02,18,156,35*79
$GLGSV,2,1,06,66,48,027,28,67,44,302,34,81,39,212,34,76,31,092,41*6C
$GLGSV,2,2,06,75,18,040,29,83,15,333,17*6D
$QZGSV,1,1,03,01,77,068,34,02,22,152,36,03,16,182,31*52
$BDGSV,3,1,12,213,73,264,32,206,68,259,35,208,64,178,34,216,62,256,33*6F
$BDGSV,3,2,12,203,44,206,29,220,42,294,34,209,39,242,23,223,36,098,36*6C
$BDGSV,3,3,12,204,34,133,,230,33,228,34,229,29,291,29,225,16,046,33*66
$GAGSV,2,1,07,104,72,338,33,112,33,180,20,109,31,263,28,119,29,058,24*63
$GAGSV,2,2,07,136,25,316,28,121,15,069,24,101,15,119,26*64
$GPGSA,A,3,02,05,13,15,21,24,29,30,,,,,2.7,1.5,2.2*3F
$GNGSA,A,3,02,05,13,15,21,24,29,30,,,,,2.7,1.5,2.2*21
$GNGSA,A,3,66,67,75,76,81,,,,,,,,2.7,1.5,2.2*26
$QZGSA,A,3,01,02,03,,,,,,,,,,2.7,1.5,2.2*2F
$IMGSA,A,3,,,,,,,,,,,,,2.7,1.5,2.2*20
$BDGSA,A,3,203,206,208,209,213,216,220,223,225,229,230,,2.7,1.5,2.2*1D
$GAGSA,A,3,101,104,109,112,119,121,136,,,,,,2.7,1.5,2.2*12
$GPRMC,025935.00,A,3722.721514,N,12640.590570,E,036.9,215.0,231119,,,A*5A
$GPGGA,025936.00,3722.713251,N,12640.583216,E,1,38,0.8,4.9,M,17.7,M,,*65
$GPGSV,2,1,08,13,70,033,19,15,68,271,41,05,49,081,43,21,30,313,30*70
$GPGSV,2,2,08,29,22,242,40,30,20,047,30,24,18,188,30,02,18,156,36*7A
$GLGSV,2,1,06,66,48,027,28,67,44,302,33,81,39,212,34,76,31,092,41*6B
$GLGSV,2,2,06,75,18,040,30,83,15,333,17*65
$QZGSV,1,1,03,01,77,068,34,02,22,152,36,03,16,182,31*52
$BDGSV,3,1,12,213,73,264,32,206,68,259,35,208,64,178,35,216,62,256,34*69
$BDGSV,3,2,12,203,44,206,29,220,42,294,34,209,39,242,22,223,36,098,37*6C
$BDGSV,3,3,12,204,34,133,,230,33,228,34,229,29,291,29,225,16,046,33*66
$GAGSV,2,1,07,104,72,338,33,112,33,180,20,109,31,263,27,119,29,058,23*6B
$GAGSV,2,2,07,136,25,316,28,121,15,069,24,101,15,119,26*64
$GPGSA,A,3,02,05,13,15,21,24,29,30,,,,,1.7,0.9,1.4*34
$GNGSA,A,3,02,05,13,15,21,24,29,30,,,,,1.7,0.9,1.4*2A
$GNGSA,A,3,66,67,75,76,81,,,,,,,,1.7,0.9,1.4*2D
$QZGSA,A,3,01,02,03,,,,,,,,,,1.7,0.9,1.4*24
$IMGSA,A,3,,,,,,,,,,,,,1.7,0.9,1.4*2B
$BDGSA,A,3,203,206,208,209,213,216,220,223,225,229,230,,1.7,0.9,1.4*16
$GAGSA,A,3,101,104,109,112,119,121,136,,,,,,1.7,0.9,1.4*19
$GPRMC,025936.00,A,3722.713251,N,12640.583216,E,036.9,215.1,231119,,,A*5A
$GPGGA,025937.00,3722.704966,N,12640.575423,E,1,38,0.8,5.0,M,17.7,M,,*6C
$GPGSV,2,1,08,13,70,033,19,15,68,271,41,05,49,081,43,21,30,313,31*71
$GPGSV,2,2,08,29,22,242,40,30,20,047,30,24,18,188,30,02,18,156,36*7A
$GLGSV,2,1,06,66,48,027,28,67,44,302,33,81,39,212,34,76,31,092,41*6B
$GLGSV,2,2,06,75,18,040,30,83,15,333,17*65
$QZGSV,1,1,03,01,77,068,34,02,22,152,35,03,16,182,31*51
$BDGSV,3,1,12,213,73,264,32,206,68,259,35,208,64,178,35,216,62,256,34*69
