$GPGGA,030428.00,3722.861753,N,12640.715232,E,1,38,0.6,5.0,M,17.7,M,,*63
$GPGSV,2,1,08,15,69,277,45,13,68,034,35,05,48,084,47,21,32,311,34*77
$GPGSV,2,2,08,24,21,188,33,29,21,240,40,30,19,046,32,02,16,157,30*72
$GLGSV,2,1,07,66,47,030,34,67,45,305,39,81,36,211,42,76,32,089,42*65
$GLGSV,2,2,07,75,17,038,33,83,17,331,23,77,15,145,27*51
$QZGSV,1,1,03,01,77,068,32,02,23,152,33,03,16,182,36*57
$BDGSV,3,1,12,213,73,260,34,206,68,262,34,208,63,179,33,216,62,259,34*6D
$BDGSV,3,2,12,203,44,206,31,220,43,296,36,209,40,244,33,223,37,095,41*61
$BDGSV,3,3,12,204,34,133,28,230,31,226,38,229,29,289,36,225,15,045,31*69
$GAGSV,2,1,06,104,72,344,33,109,33,265,35,112,31,180,29,119,27,059,21*60
$GAGSV,2,2,06,101,16,118,27,121,15,067,28*69
$GPGSA,A,3,02,05,13,15,21,24,29,30,,,,,1.3,0.9,1.0*34
$GNGSA,A,3,02,05,13,15,21,24,29,30,,,,,1.3,0.9,1.0*2A
$GNGSA,A,3,66,67,75,76,77,81,83,,,,,,1.3,0.9,1.0*26
$QZGSA,A,3,01,02,03,,,,,,,,,,1.3,0.9,1.0*24
$IMGSA,A,3,,,,,,,,,,,,,1.3,0.9,1.0*2B
$BDGSA,A,3,203,204,206,208,209,213,216,220,223,225,229,230,1.3,0.9,1.0*20
$GAGSA,A,3,101,104,109,112,119,121,,,,,,,1.3,0.9,1.0*2D
$GPRMC,030428.00,A,3722.861753,N,12640.715232,E,006.2,219.5,231119,,,A*5A
$GPGGA,030429.00,3722.861753,N,12640.715232,E,1,37,0.6,4.9,M,17.7,M,,*65
$GPGSV,2,1,08,15,69,277,45,13,68,034,35,05,48,084,47,21,32,311,33*70
$GPGSV,2,2,08,24,21,188,33,29,21,240,40,30,19,046,32,02,16,157,30*72
$GLGSV,2,1,07,66,47,030,33,67,45,305,38,81,36,211,42,76,32,089,42*63
$GLGSV,2,2,07,75,17,038,32,83,17,331,23,77,15,145,27*50
$QZGSV,1,1,03,01,77,068,32,02,23,152,32,03,16,182,35*55
$BDGSV,3,1,12,213,73,260,34,206,68,262,34,208,63,179,33,216,62,259,34*6D
$BDGSV,3,2,12,203,44,206,31,220,43,296,35,209,40,244,33,223,37,095,41*62
$BDGSV,3,3,12,204,34,133,,230,31,226,38,229,29,289,36,225,15,045,31*63
$GAGSV,2,1,06,104,72,343,33,109,33,265,34,112,31,180,29,119,27,059,21*66
$GAGSV,2,2,06,101,16,118,26,121,15,067,27*67
$GPGSA,A,3,02,05,13,15,21,24,29,30,,,,,1.5,0.9,1.2*30
$GNGSA,A,3,02,05,13,15,21,24,29,30,,,,,1.5,0.9,1.2*2E
$GNGSA,A,3,66,67,75,76,77,81,83,,,,,,1.5,0.9,1.2*22
$QZGSA,A,3,01,02,03,,,,,,,,,,1.5,0.9,1.2*20
$IMGSA,A,3,,,,,,,,,,,,,1.5,0.9,1.2*2F
$BDGSA,A,3,203,206,208,209,213,216,220,223,225,229,230,,1.5,0.9,1.2*12
$GAGSA,A,3,101,104,109,112,119,121,,,,,,,1.5,0.9,1.2*29
$GPRMC,030429.00,A,3722.861753,N,12640.715232,E,000.0,219.5,231119,,,A*5F
$GPGGA,030430.00,3722.861753,N,12640.715232,E,1,38,0.6,4.7,M,17.7,M,,*6C
$GPGSV,2,1,08,15,69,277,44,13,68,034,34,05,48,084,46,21,32,311,33*71
$GPGSV,2,2,08,24,21,188,35,29,21,240,39,30,19,046,32,02,16,157,34*7E
$GLGSV,2,1,07,66,47,030,33,67,45,305,38,81,36,211,41,76,32,089,42*60
$GLGSV,2,2,07,75,17,038,31,83,17,331,22,77,15,145,27*52
$QZGSV,1,1,03,01,77,068,31,02,23,152,32,03,16,182,35*56
$BDGSV,3,1,12,213,73,260,33,206,68,262,34,208,63,179,33,216,62,259,34*6A
$BDGSV,3,2,12,203,44,206,,220,43,296,35,209,40,244,32,223,37,095,41*61
$BDGSV,3,3,12,204,34,133,26,230,31,226,38,229,29,289,35,225,15,045,32*67
$GAGSV,2,1,06,104,72,344,33,109,33,265,32,112,31,180,29,119,27,059,21*67
$GAGSV,2,2,06,101,16,118,26,121,15,067,26*66
$GPGSA,A,3,02,05,13,15,21,24,29,30,,,,,2.2,1.4,1.7*3D
$GNGSA,A,3,02,05,13,15,21,24,29,30,,,,,2.2,1.4,1.7*23
$GNGSA,A,3,66,67,75,76,77,81,83,,,,,,2.2,1.4,1.7*2F
$QZGSA,A,3,01,02,03,,,,,,,,,,2.2,1.4,1.7*2D
$IMGSA,A,3,,,,,,,,,,,,,2.2,1.4,1.7*22
$BDGSA,A,3,204,206,208,209,213,216,220,223,225,229,230,,2.2,1.4,1.7*18
$GAGSA,A,3,101,104,109,112,119,121,,,,,,,2.2,1.4,1.7*24
$GPRMC,030430.00,A,3722.861753,N,12640.715232,E,000.0,219.5,231119,,,A*57
$GPGGA,030431.00,3722.861753,N,12640.715232,E,1,36,0.6,4.7,M,17.7,M,,*63
$GPGSV,2,1,08,15,69,277,44,13,68,034,34,05,48,084,46,21,32,311,31*73
$GPGSV,2,2,08,24,21,188,35,29,21,240,39,30,19,046,31,02,16,157,34*7D
$GLGSV,2,1,07,66,47,030,33,67,45,305,37,81,36,211,40,76,32,089,42*6E
$GLGSV,2,2,07,75,17,038,34,83,17,331,22,77,15,145,27*57
$QZGSV,1,1,03,01,77,068,31,02,23,152,32,03,16,182,35*56
$BDGSV,3,1,12,213,73,260,32,206,68,262,33,208,63,179,33,216,62,259,34*6C
$BDGSV,3,2,12,203,44,206,29,220,43,296,34,209,40,244,32,223,37,095,40*6A
$BDGSV,3,3,12,204,34,133,,230,31,226,37,229,29,289,34,225,15,045,33*6C
$GAGSV,2,1,06,104,72,344,33,109,33,265,31,112,31,180,28,119,27,059,21*65
$GAGSV,2,2,06,101,16,118,29,121,15,067,25*6A
$GPGSA,A,3,02,05,13,15,21,24,29,30,,,,,1.9,1.3,1.4*31
$GNGSA,A,3,02,05,13,15,21,24,29,30,,,,,1.9,1.3,1.4*2F
$GNGSA,A,3,66,67,75,76,77,81,83,,,,,,1.9,1.3,1.4*23
$QZGSA,A,3,01,02,03,,,,,,,,,,1.9,1.3,1.4*21
$IMGSA,A,3,,,,,,,,,,,,,1.9,1.3,1.4*2E
$BDGSA,A,3,203,206,208,209,213,216,220,223,225,229,230,,1.9,1.3,1.4*13
$GAGSA,A,3,101,104,109,112,119,,,,,,,,1.9,1.3,1.4*1A
$GPRMC,030431.00,A,3722.861753,N,12640.715232,E,000.0,219.5,231119,,,A*56
$GPGGA,030432.00,3722.861753,N,12640.715232,E,1,35,0.6,4.7,M,17.7,M,,*63
$GPGSV,2,1,08,15,69,277,43,13,68,034,34,05,48,084,45,21,32,311,30*76
$GPGSV,2,2,08,24,21,188,36,29,21,240,39,30,19,046,31,02,16,157,34*7E
$GLGSV,2,1,07,66,47,030,33,67,45,306,36,81,36,211,39,76,32,089,42*62
$GLGSV,2,2,07,83,17,331,21,75,17,037,34,77,15,145,27*5B
$QZGSV,1,1,03,01,77,068,31,02,23,152,31,03,16,182,35*55
$BDGSV,3,1,12,213,73,260,32,206,68,262,33,208,63,179,33,216,62,259,34*6C
$BDGSV,3,2,12,203,44,206,,220,43,296,34,209,40,244,31,223,37,095,39*6C
$BDGSV,3,3,12,204,34,133,,230,31,226,37,229,29,289,33,225,15,045,33*6B
$GAGSV,2,1,06,104,72,344,33,109,33,265,30,112,31,180,27,119,27,059,21*6B
$GAGSV,2,2,06,136,26,315,,101,16,118,31*64
$GPGSA,A,3,02,05,13,15,21,24,29,30,,,,,1.5,0.8,1.2*31
$GNGSA,A,3,02,05,13,15,21,24,29,30,,,,,1.5,0.8,1.2*2F
$GNGSA,A,3,66,67,75,76,77,81,,,,,,,1.5,0.8,1.2*28
$QZGSA,A,3,01,02,03,,,,,,,,,,1.5,0.8,1.2*21
$IMGSA,A,3,,,,,,,,,,,,,1.5,0.8,1.2*2E
$BDGSA,A,3,206,208,209,213,216,220,223,225,229,230,,,1.5,0.8,1.2*22
$GAGSA,A,3,101,104,109,112,119,,,,,,,,1.5,0.8,1.2*1A
$GPRMC,030432.00,A,3722.861753,N,12640.715232,E,000.0,219.5,231119,,,A*55
$GPGGA,030433.00,3722.861753,N,12640.715232,E,1,36,0.6,4.8,M,17.7,M,,*6E
$GPGSV,2,1,08,15,69,277,42,13,68,034,34,05,48,084,45,21,32,311,29*7F
$GPGSV,2,2,08,24,21,188,36,29,21,240,38,30,19,046,30,02,16,157,34*7E
$GLGSV,2,1,07,66,47,030,33,67,45,306,35,81,36,211,38,76,32,089,42*60
$GLGSV,2,2,07,83,17,331,21,75,17,037,34,77,15,145,26*5A
$QZGSV,1,1,03,01,77,068,31,02,23,152,31,03,16,182,35*55
$BDGSV,3,1,12,213,73,260,31,206,68,262,33,208,63,179,34,216,62,259,35*69
$BDGSV,3,2,12,203,44,206,27,220,43,296,34,209,40,244,31,223,37,095,38*68
$BDGSV,3,3,12,204,34,133,,230,31,226,37,229,29,289,33,225,15,045,33*6B
$GAGSV,2,1,06,104,72,344,32,109,33,265,30,112,31,180,27,119,27,059,21*6A
$GAGSV,2,2,06,136,26,315,22,101,16,118,32*67
$GPGSA,A,3,02,05,13,15,21,24,29,30,,,,,1.7,1.0,1.4*3C
$GNGSA,A,3,02,05,13,15,21,24,29,30,,,,,1.7,1.0,1.4*22
$GNGSA,A,3,66,67,75,76,77,81,,,,,,,1.7,1.0,1.4*25
$QZGSA,A,3,01,02,03,,,,,,,,,,1.7,1.0,1.4*2C
$IMGSA,A,3,,,,,,,,,,,,,1.7,1.0,1.4*23
$BDGSA,A,3,203,206,208,209,213,216,220,223,225,229,230,,1.7,1.0,1.4*1E
$GAGSA,A,3,101,104,109,112,119,,,,,,,,1.7,1.0,1.4*17
$GPRMC,030433.00,A,3722.861753,N,12640.715232,E,000.0,219.5,231119,,,A*54
$GPGGA,030434.00,3722.861753,N,12640.715232,E,1,35,0.6,4.8,M,17.7,M,,*6A
$GPGSV,2,1,08,15,69,277,41,13,68,034,34,05,48,084,45,21,32,311,28*7D
$GPGSV,2,2,08,24,21,188,37,29,21,240,38,30,19,046,30,02,16,157,33*78
$GLGSV,2,1,07,66,47,030,33,67,45,306,34,81,36,211,38,76,32,089,41*62
$GLGSV,2,2,07,75,17,037,34,83,17,331,20,77,15,145,26*5B
$QZGSV,1,1,03,01,77,068,31,02,23,152,32,03,15,182,35*55
$BDGSV,3,1,12,213,73,260,31,206,68,262,33,208,63,179,34,216,62,259,35*69
$BDGSV,3,2,12,203,44,206,,220,44,296,33,209,40,244,30,223,37,095,37*63
$BDGSV,3,3,12,204,34,133,,230,31,226,36,229,29,289,32,225,15,045,32*6A
$GAGSV,2,1,06,104,72,344,32,109,33,265,30,112,31,180,26,119,27,059,20*6A
$GAGSV,2,2,06,101,16,118,32,121,15,067,23*66
$GPGSA,A,3,02,05,13,15,21,24,29,30,,,,,1.7,1.0,1.4*3C
$GNGSA,A,3,02,05,13,15,21,24,29,30,,,,,1.7,1.0,1.4*22
$GNGSA,A,3,66,67,75,76,77,81,,,,,,,1.7,1.0,1.4*25
$QZGSA,A,3,01,02,03,,,,,,,,,,1.7,1.0,1.4*2C
$IMGSA,A,3,,,,,,,,,,,,,1.7,1.0,1.4*23
$BDGSA,A,3,206,208,209,213,216,220,223,225,229,230,,,1.7,1.0,1.4*2F
$GAGSA,A,3,101,104,109,112,119,121,,,,,,,1.7,1.0,1.4*25
$GPRMC,030434.00,A,3722.861753,N,12640.715232,E,000.0,219.5,231119,,,A*53
$GPGGA,030435.00,3722.861753,N,12640.715232,E,1,35,0.6,4.8,M,17.7,M,,*6B
$GPGSV,2,1,08,15,69,277,41,13,68,034,34,05,48,084,45,21,32,311,27*72
$GPGSV,2,2,08,24,21,188,37,29,21,240,38,30,19,046,29,02,16,157,33*70
$GLGSV,2,1,07,66,47,030,33,67,45,306,32,81,36,211,37,76,32,089,41*6B
$GLGSV,2,2,07,75,17,037,34,83,17,331,20,77,15,145,26*5B
$QZGSV,1,1,03,01,77,068,31,02,23,152,32,03,16,182,35*56
$BDGSV,3,1,12,213,73,260,30,206,68,262,33,208,63,179,34,216,62,259,35*68
$BDGSV,3,2,12,203,44,206,25,220,43,296,33,209,40,244,29,223,37,095,36*6A
$BDGSV,3,3,12,204,34,133,,230,31,226,36,229,29,289,32,225,15,045,32*6A
$GAGSV,2,1,06,104,72,344,31,109,33,265,31,112,31,180,26,119,27,059,20*68
$GAGSV,2,2,06,101,16,118,32,121,15,067,23*66
$GPGSA,A,3,02,05,13,15,24,29,30,,,,,,1.9,1.0,1.6*33
$GNGSA,A,3,02,05,13,15,24,29,30,,,,,,1.9,1.0,1.6*2D
$GNGSA,A,3,66,67,75,76,77,81,,,,,,,1.9,1.0,1.6*29
$QZGSA,A,3,01,02,03,,,,,,,,,,1.9,1.0,1.6*20
$IMGSA,A,3,,,,,,,,,,,,,1.9,1.0,1.6*2F
$BDGSA,A,3,203,206,208,209,213,216,220,223,225,229,230,,1.9,1.0,1.6*12
$GAGSA,A,3,101,104,109,112,119,121,,,,,,,1.9,1.0,1.6*29
$GPRMC,030435.00,A,3722.861753,N,12640.715232,E,000.0,219.5,231119,,,A*52
$GPGGA,030436.00,3722.861753,N,12640.715232,E,1,34,0.6,4.8,M,17.7,M,,*69
$GPGSV,2,1,08,15,69,277,40,13,68,034,33,05,48,084,45,21,32,311,26*75
$GPGSV,2,2,08,24,21,188,37,29,21,240,38,30,19,046,28,02,16,157,33*71
$GLGSV,2,1,07,66,47,030,33,67,45,306,32,81,36,211,36,76,32,089,41*6A
$GLGSV,2,2,07,75,17,037,34,83,17,331,19,77,15,145,26*51
$QZGSV,1,1,03,01,77,068,31,02,23,152,32,03,15,182,35*55
$BDGSV,3,1,12,213,73,260,30,206,68,262,32,208,63,179,34,216,62,259,35*69
$BDGSV,3,2,12,203,44,206,,220,44,296,33,209,40,244,28,223,37,095,35*68
$BDGSV,3,3,12,204,34,133,,230,31,226,36,229,29,289,32,225,15,045,32*6A
$GAGSV,2,1,06,104,72,344,31,109,33,265,33,112,31,180,26,119,27,059,20*6A
$GAGSV,2,2,06,101,16,118,32,121,15,067,23*66
$GPGSA,A,3,02,05,13,15,21,24,29,30,,,,,1.7,0.9,1.5*35
$GNGSA,A,3,02,05,13,15,21,24,29,30,,,,,1.7,0.9,1.5*2B
$GNGSA,A,3,66,67,75,76,77,81,,,,,,,1.7,0.9,1.5*2C
$QZGSA,A,3,01,02,03,,,,,,,,,,1.7,0.9,1.5*25
$IMGSA,A,3,,,,,,,,,,,,,1.7,0.9,1.5*2A
$BDGSA,A,3,206,208,209,213,216,220,223,225,229,230,,,1.7,0.9,1.5*26
$GAGSA,A,3,101,104,109,112,119,121,,,,,,,1.7,0.9,1.5*2C
$GPRMC,030436.00,A,3722.861753,N,12640.715232,E,000.0,219.5,231119,,,A*51
$GPGGA,030437.00,3722.861753,N,12640.715232,E,1,35,0.6,4.7,M,17.7,M,,*66
$GPGSV,2,1,08,15,69,277,40,13,68,034,33,05,48,084,44,21,32,311,25*77
$GPGSV,2,2,08,24,21,188,37,29,21,240,38,30,19,046,28,02,16,157,33*71
$GLGSV,2,1,07,66,47,030,32,67,45,306,31,81,36,211,36,76,32,089,41*68
$GLGSV,2,2,07,75,17,037,34,83,17,331,19,77,15,145,25*52
$QZGSV,1,1,03,01,77,068,31,02,23,152,32,03,15,182,35*55
$BDGSV,3,1,12,213,73,260,30,206,68,262,32,208,63,179,34,216,62,259,35*69
$BDGSV,3,2,12,203,44,206,,220,44,296,32,209,40,244,27,223,37,095,35*66
$BDGSV,3,3,12,204,34,133,,230,31,226,36,229,29,289,32,225,15,045,32*6A
$GAGSV,2,1,06,104,72,344,31,109,33,265,34,112,31,180,26,119,27,059,20*6D
$GAGSV,2,2,06,101,16,118,32,121,15,067,23*66
$GPGSA,A,3,02,05,13,15,21,24,29,30,,,,,2.0,1.0,1.7*3B
$GNGSA,A,3,02,05,13,15,21,24,29,30,,,,,2.0,1.0,1.7*25
$GNGSA,A,3,66,67,75,76,77,81,,,,,,,2.0,1.0,1.7*22
$QZGSA,A,3,01,02,03,,,,,,,,,,2.0,1.0,1.7*2B
$IMGSA,A,3,,,,,,,,,,,,,2.0,1.0,1.7*24
$BDGSA,A,3,206,208,209,213,216,220,223,225,229,230,,,2.0,1.0,1.7*28
$GAGSA,A,3,101,104,109,112,119,121,,,,,,,2.0,1.0,1.7*22
$GPRMC,030437.00,A,3722.861753,N,12640.715232,E,000.0,219.5,231119,,,A*50
$GPGGA,030438.00,3722.861753,N,12640.715232,E,1,34,1.2,4.6,M,17.7,M,,*6C
$GPGSV,2,1,08,15,69,277,40,13,68,034,33,05,48,084,44,21,32,311,24*76
$GPGSV,2,2,08,29,21,240,38,24,21,188,37,30,19,046,27,02,15,157,33*7D
$GLGSV,2,1,07,66,47,030,32,67,45,306,31,81,36,211,35,76,32,089,41*6B
$GLGSV,2,2,07,83,17,331,19,75,17,037,34,77,15,145,25*52
$QZGSV,1,1,03,01,77,068,31,02,23,152,33,03,15,182,35*54
$BDGSV,3,1,12,213,73,260,30,206,68,262,32,208,63,179,34,216,62,259,35*69
$BDGSV,3,2,12,203,44,206,23,220,44,296,32,209,40,244,26,223,37,095,34*67
$BDGSV,3,3,12,204,34,133,,230,31,226,36,229,29,289,32,225,15,045,31*69
$GAGSV,2,1,06,104,72,344,31,109,33,265,34,112,31,180,26,136,27,315,*69
$GAGSV,2,2,06,119,27,059,19,101,16,118,31*6B
$GPGSA,A,3,02,05,13,15,21,24,29,30,,,,,3.5,2.4,2.6*3A
$GNGSA,A,3,02,05,13,15,21,24,29,30,,,,,3.5,2.4,2.6*24
$GNGSA,A,3,66,67,75,76,77,81,,,,,,,3.5,2.4,2.6*23
$QZGSA,A,3,01,02,03,,,,,,,,,,3.5,2.4,2.6*2A
$IMGSA,A,3,,,,,,,,,,,,,3.5,2.4,2.6*25
$BDGSA,A,3,203,206,208,209,213,216,220,223,225,229,230,,3.5,2.4,2.6*18
$GAGSA,A,3,101,104,109,112,,,,,,,,,3.5,2.4,2.6*28
$GPRMC,030438.00,A,3722.861753,N,12640.715232,E,000.0,219.5,231119,,,A*5F
$GPGGA,030439.00,3722.861753,N,12640.715232,E,1,34,0.6,4.6,M,17.7,M,,*68
$GPGSV,2,1,08,15,69,277,40,13,68,034,33,05,48,084,44,21,32,311,24*76
$GPGSV,2,2,08,24,21,188,37,29,21,240,37,30,19,046,27,02,15,157,32*73
$GLGSV,2,1,07,66,47,030,32,67,45,306,31,81,36,211,34,76,32,089,41*6A
$GLGSV,2,2,07,75,17,037,33,83,17,331,18,77,15,145,25*54
$QZGSV,1,1,03,01,77,068,31,02,23,152,33,03,15,182,35*54
$BDGSV,3,1,12,213,73,260,30,206,68,262,32,208,63,179,34,216,62,259,34*68
$BDGSV,3,2,12,220,44,296,31,203,44,206,,209,40,244,25,223,37,095,34*66
$BDGSV,3,3,12,204,34,133,,230,31,226,36,229,29,289,31,225,15,045,31*6A
$GAGSV,2,1,06,104,72,344,31,109,33,265,34,112,31,180,26,119,27,059,19*67
$GAGSV,2,2,06,101,16,118,31,121,15,067,23*65
$GPGSA,A,3,02,05,13,15,21,24,29,30,,,,,2.1,1.2,1.8*37
$GNGSA,A,3,02,05,13,15,21,24,29,30,,,,,2.1,1.2,1.8*29
$GNGSA,A,3,66,67,75,76,77,81,,,,,,,2.1,1.2,1.8*2E
$QZGSA,A,3,01,02,03,,,,,,,,,,2.1,1.2,1.8*27
$IMGSA,A,3,,,,,,,,,,,,,2.1,1.2,1.8*28
$BDGSA,A,3,206,208,209,213,216,220,223,225,229,230,,,2.1,1.2,1.8*24
$GAGSA,A,3,101,104,109,112,121,,,,,,,,2.1,1.2,1.8*17
$GPRMC,030439.00,A,3722.861753,N,12640.715232,E,000.0,219.5,231119,,,A*5E
$GPGGA,030440.00,3722.861753,N,12640.715232,E,1,34,0.6,4.6,M,17.7,M,,*66
$GPGSV,2,1,08,15,69,277,39,13,68,034,33,05,48,084,44,21,32,311,23*7F
$GPGSV,2,2,08,24,21,188,37,29,21,240,37,30,19,046,26,02,15,157,32*72
$GLGSV,2,1,07,66,47,030,32,67,45,306,32,81,36,211,34,76,32,089,41*69
$GLGSV,2,2,07,75,17,037,33,83,17,331,18,77,15,145,25*54
$QZGSV,1,1,03,01,77,068,31,02,23,152,33,03,15,182,35*54
$BDGSV,3,1,12,213,73,260,30,206,68,262,31,208,63,179,34,216,62,259,34*6B
$BDGSV,3,2,12,220,44,296,31,203,44,206,,209,40,244,25,223,37,095,34*66
$BDGSV,3,3,12,204,34,133,,230,31,226,36,229,29,289,31,225,15,045,31*6A
$GAGSV,2,1,06,104,72,344,30,109,33,265,34,112,31,180,25,119,27,059,19*65
$GAGSV,2,2,06,101,16,118,31,121,15,067,25*63
$GPGSA,A,3,02,05,13,15,21,24,29,30,,,,,2.1,1.4,1.6*3F
$GNGSA,A,3,02,05,13,15,21,24,29,30,,,,,2.1,1.4,1.6*21
$GNGSA,A,3,66,67,75,76,77,81,,,,,,,2.1,1.4,1.6*26
$QZGSA,A,3,01,02,03,,,,,,,,,,2.1,1.4,1.6*2F
$IMGSA,A,3,,,,,,,,,,,,,2.1,1.4,1.6*20
$BDGSA,A,3,206,208,209,213,216,220,223,225,229,230,,,2.1,1.4,1.6*2C
$GAGSA,A,3,101,104,109,112,121,,,,,,,,2.1,1.4,1.6*1F
$GPRMC,030440.00,A,3722.861753,N,12640.715232,E,000.0,219.5,231119,,,A*50
$GPGGA,030441.00,3722.861753,N,12640.715232,E,1,34,0.6,4.6,M,17.7,M,,*67
$GPGSV,2,1,08,15,69,277,39,13,68,034,32,05,48,084,44,21,32,311,23*7E
$GPGSV,2,2,08,24,21,188,37,29,21,240,37,30,19,046,26,02,15,157,32*72
$GLGSV,2,1,07,66,47,030,32,67,45,306,33,81,36,211,33,76,32,089,40*6E
$GLGSV,2,2,07,75,17,037,33,83,17,331,18,77,15,145,25*54
$QZGSV,1,1,03,01,77,068,31,02,23,152,33,03,15,182,35*54
$BDGSV,3,1,12,213,73,260,29,206,68,262,31,208,63,179,34,216,62,259,34*63
$BDGSV,3,2,12,220,44,296,31,203,44,206,,209,40,244,25,223,37,095,33*61
$BDGSV,3,3,12,204,34,133,,230,31,226,36,229,29,289,31,225,15,045,31*6A
$GAGSV,2,1,06,104,72,344,30,109,33,265,34,112,31,180,25,119,27,059,19*65
$GAGSV,2,2,06,101,16,118,31,121,15,067,25*63
$GPGSA,A,3,02,05,13,15,21,24,29,30,,,,,1.5,0.9,1.2*30
$GNGSA,A,3,02,05,13,15,21,24,29,30,,,,,1.5,0.9,1.2*2E
$GNGSA,A,3,66,67,75,76,77,81,,,,,,,1.5,0.9,1.2*29
$QZGSA,A,3,01,02,03,,,,,,,,,,1.5,0.9,1.2*20
$IMGSA,A,3,,,,,,,,,,,,,1.5,0.9,1.2*2F
$BDGSA,A,3,206,208,209,213,216,220,223,225,229,230,,,1.5,0.9,1.2*23
$GAGSA,A,3,101,104,109,112,121,,,,,,,,1.5,0.9,1.2*10
$GPRMC,030441.00,A,3722.861753,N,12640.715232,E,000.0,219.5,231119,,,A*51
$GPGGA,030442.00,3722.861753,N,12640.715232,E,1,35,0.6,4.6,M,17.7,M,,*65
$GPGSV,2,1,08,15,69,277,38,13,68,034,32,05,48,084,44,21,32,311,24*78
$GPGSV,2,2,08,24,21,188,37,29,21,240,37,30,19,046,25,02,15,157,32*71
$GLGSV,2,1,07,66,47,030,32,67,45,306,33,81,36,211,32,76,32,089,40*6F
$GLGSV,2,2,07,75,17,037,33,83,17,331,18,77,15,145,25*54
$QZGSV,1,1,03,01,77,068,30,02,23,152,33,03,15,182,34*54
$BDGSV,3,1,12,213,73,260,29,206,68,262,30,208,63,179,34,216,62,259,34*62
$BDGSV,3,2,12,220,44,296,31,203,44,206,,209,40,244,24,223,37,095,33*60
$BDGSV,3,3,12,204,34,133,,230,31,226,36,229,29,289,31,225,15,045,30*6B
$GAGSV,2,1,06,104,72,344,30,109,33,265,33,112,31,180,25,119,27,059,18*63
$GAGSV,2,2,06,101,16,118,31,121,15,067,26*60
$GPGSA,A,3,02,05,13,15,21,24,29,30,,,,,1.8,1.0,1.5*32
$GNGSA,A,3,02,05,13,15,21,24,29,30,,,,,1.8,1.0,1.5*2C
$GNGSA,A,3,66,67,75,76,77,81,,,,,,,1.8,1.0,1.5*2B
$QZGSA,A,3,01,02,03,,,,,,,,,,1.8,1.0,1.5*22
$IMGSA,A,3,,,,,,,,,,,,,1.8,1.0,1.5*2D
$BDGSA,A,3,206,208,209,213,216,220,223,225,229,230,,,1.8,1.0,1.5*21
$GAGSA,A,3,101,104,109,112,119,121,,,,,,,1.8,1.0,1.5*2B
$GPRMC,030442.00,A,3722.861753,N,12640.715232,E,000.0,219.5,231119,,,A*52
$GPGGA,030443.00,3722.861753,N,12640.715232,E,1,36,0.6,4.6,M,17.7,M,,*67
$GPGSV,2,1,08,15,69,277,38,13,68,034,32,05,48,084,44,21,32,311,24*78
$GPGSV,2,2,08,29,21,240,37,24,21,188,37,30,19,046,25,02,15,157,32*71
$GLGSV,2,1,07,66,47,030,31,67,45,306,33,81,36,211,32,76,32,089,40*6C
$GLGSV,2,2,07,83,17,331,18,75,17,037,32,77,15,145,25*55
$QZGSV,1,1,03,01,77,068,30,02,23,152,34,03,15,182,34*53
$BDGSV,3,1,12,213,73,260,29,206,68,262,30,208,63,179,34,216,62,259,34*62
$BDGSV,3,2,12,203,44,206,19,220,44,296,31,209,40,244,24,223,37,095,33*68
$BDGSV,3,3,12,204,34,133,25,230,31,226,36,229,29,289,31,225,15,045,30*6C
$GAGSV,2,1,06,104,72,344,29,109,33,265,34,112,31,180,25,136,27,315,24*65
$GAGSV,2,2,06,119,27,059,18,101,16,118,30*6B
$GPGSA,A,3,02,05,13,15,21,24,29,30,,,,,2.0,1.1,1.7*3A
$GNGSA,A,3,02,05,13,15,21,24,29,30,,,,,2.0,1.1,1.7*24
$GNGSA,A,3,66,67,75,76,77,81,,,,,,,2.0,1.1,1.7*23
$QZGSA,A,3,01,02,03,,,,,,,,,,2.0,1.1,1.7*2A
$IMGSA,A,3,,,,,,,,,,,,,2.0,1.1,1.7*25
$BDGSA,A,3,203,204,206,208,209,213,216,220,223,225,229,230,2.0,1.1,1.7*2E
$GAGSA,A,3,101,104,109,112,136,,,,,,,,2.0,1.1,1.7*1C
$GPRMC,030443.00,A,3722.861753,N,12640.715232,E,000.0,219.5,231119,,,A*53
$GPGGA,030444.00,3722.861753,N,12640.715232,E,1,34,0.6,4.6,M,17.7,M,,*62
$GPGSV,2,1,08,15,69,277,38,13,68,034,32,05,48,084,44,21,32,311,24*78
$GPGSV,2,2,08,24,21,188,37,29,21,240,37,30,19,046,25,02,15,157,32*71
$GLGSV,2,1,07,66,47,031,31,67,45,306,33,81,36,211,31,76,32,089,40*6E
$GLGSV,2,2,07,75,17,037,32,83,17,331,17,77,15,145,25*5A
$QZGSV,1,1,03,01,77,069,29,02,23,152,34,03,15,182,34*5A
$BDGSV,3,1,12,213,73,260,30,206,68,262,30,208,63,179,34,216,62,259,34*6A
$BDGSV,3,2,12,220,44,297,31,203,44,206,,209,40,244,23,223,37,095,33*66
$BDGSV,3,3,12,204,34,133,,230,31,226,36,229,29,289,32,225,15,044,30*69
$GAGSV,2,1,06,104,72,344,29,109,33,265,34,112,31,180,25,119,27,059,18*6C
$GAGSV,2,2,06,101,16,118,30,121,15,067,27*60
$GPGSA,A,3,02,05,13,15,21,24,29,30,,,,,1.9,1.2,1.5*31
$GNGSA,A,3,02,05,13,15,21,24,29,30,,,,,1.9,1.2,1.5*2F
$GNGSA,A,3,66,67,75,76,77,81,,,,,,,1.9,1.2,1.5*28
$QZGSA,A,3,01,02,03,,,,,,,,,,1.9,1.2,1.5*21
$IMGSA,A,3,,,,,,,,,,,,,1.9,1.2,1.5*2E
$BDGSA,A,3,206,208,209,213,216,220,223,225,229,230,,,1.9,1.2,1.5*22
$GAGSA,A,3,101,104,109,112,121,,,,,,,,1.9,1.2,1.5*11
$GPRMC,030444.00,A,3722.861753,N,12640.715232,E,000.0,219.5,231119,,,A*54
$GPGGA,030445.00,3722.861753,N,12640.715232,E,1,34,0.6,4.6,M,17.7,M,,*63
$GPGSV,2,1,08,15,69,277,38,13,68,034,31,05,48,084,43,21,32,311,25*7D
$GPGSV,2,2,08,24,21,188,38,29,21,240,37,30,19,046,24,02,15,157,32*7F
$GLGSV,2,1,07,66,47,031,31,67,45,306,33,81,36,211,31,76,32,089,40*6E
$GLGSV,2,2,07,75,17,037,32,83,17,331,17,77,15,145,25*5A
$QZGSV,1,1,03,01,77,069,29,02,23,152,34,03,15,182,35*5B
$BDGSV,3,1,12,213,73,260,30,206,68,262,30,208,63,179,34,216,62,259,34*6A
$BDGSV,3,2,12,220,44,297,31,203,44,206,,209,40,244,23,223,37,095,33*66
$BDGSV,3,3,12,204,34,133,,230,31,226,36,229,29,289,32,225,15,045,30*68
$GAGSV,2,1,06,104,72,344,29,109,33,265,34,112,31,180,25,119,27,059,18*6C
$GAGSV,2,2,06,101,16,118,30,121,15,067,27*60
$GPGSA,A,3,02,05,13,15,21,24,29,30,,,,,1.7,1.0,1.4*3C
$GNGSA,A,3,02,05,13,15,21,24,29,30,,,,,1.7,1.0,1.4*22
$GNGSA,A,3,66,67,75,76,77,81,,,,,,,1.7,1.0,1.4*25
$QZGSA,A,3,01,02,03,,,,,,,,,,1.7,1.0,1.4*2C
$IMGSA,A,3,,,,,,,,,,,,,1.7,1.0,1.4*23
$BDGSA,A,3,206,208,209,213,216,220,223,225,229,230,,,1.7,1.0,1.4*2F
$GAGSA,A,3,101,104,109,112,121,,,,,,,,1.7,1.0,1.4*1C
$GPRMC,030445.00,A,3722.861753,N,12640.715232,E,000.0,219.5,231119,,,A*55
$GPGGA,030446.00,3722.861753,N,12640.715232,E,1,36,0.8,4.6,M,17.7,M,,*6C
$GPGSV,2,1,08,15,69,277,37,13,68,034,31,05,48,084,43,21,32,311,26*71
$GPGSV,2,2,08,24,21,188,38,29,21,240,37,30,19,046,24,02,15,157,32*7F
$GLGSV,2,1,07,66,47,031,31,67,45,306,33,81,36,211,30,76,32,089,40*6F
$GLGSV,2,2,07,75,17,037,32,83,17,331,17,77,15,145,25*5A
$QZGSV,1,1,03,01,77,069,28,02,23,152,34,03,15,182,34*5B
$BDGSV,3,1,12,213,73,260,30,206,68,262,29,208,63,179,34,216,62,259,34*62
$BDGSV,3,2,12,220,44,297,31,203,44,206,27,209,40,244,22,223,37,095,32*63
$BDGSV,3,3,12,204,34,133,,230,31,226,37,229,29,289,32,225,15,044,29*60
$GAGSV,2,1,06,104,72,344,29,109,33,265,34,112,31,180,26,119,27,059,18*6F
$GAGSV,2,2,06,101,16,118,30,121,15,067,27*60
$GPGSA,A,3,02,05,13,15,21,24,29,30,,,,,2.5,1.6,1.9*36
$GNGSA,A,3,02,05,13,15,21,24,29,30,,,,,2.5,1.6,1.9*28
$GNGSA,A,3,66,67,75,76,77,81,83,,,,,,2.5,1.6,1.9*24
$QZGSA,A,3,01,02,03,,,,,,,,,,2.5,1.6,1.9*26
$IMGSA,A,3,,,,,,,,,,,,,2.5,1.6,1.9*29
$BDGSA,A,3,203,206,208,213,216,220,223,225,229,230,,,2.5,1.6,1.9*2F
$GAGSA,A,3,101,104,109,112,119,121,,,,,,,2.5,1.6,1.9*2F
$GPRMC,030446.00,A,3722.861753,N,12640.715232,E,000.0,219.5,231119,,,A*56
$GPGGA,030447.00,3722.861753,N,12640.715232,E,1,35,0.8,4.6,M,17.7,M,,*6E
$GPGSV,2,1,08,15,69,277,37,13,68,034,31,05,48,084,43,21,32,311,27*70
$GPGSV,2,2,08,24,21,188,38,29,21,240,37,30,19,046,24,02,15,157,32*7F
$GLGSV,2,1,07,66,47,031,30,67,45,306,33,81,36,211,29,76,32,089,40*66
$GLGSV,2,2,07,75,17,037,32,83,17,331,17,77,15,145,25*5A
$QZGSV,1,1,03,01,77,069,27,02,23,152,33,03,15,182,34*53
$BDGSV,3,1,12,213,73,260,31,206,68,262,29,208,63,179,33,216,62,259,35*65
$BDGSV,3,2,12,220,44,297,31,203,44,206,27,209,40,244,22,223,37,095,32*63
$BDGSV,3,3,12,204,34,133,,230,31,226,37,229,29,289,32,225,15,044,29*60
$GAGSV,2,1,06,104,72,344,29,109,33,265,34,112,31,180,26,119,27,059,18*6F
$GAGSV,2,2,06,101,16,118,29,121,15,067,27*68
$GPGSA,A,3,02,05,13,15,21,24,29,30,,,,,1.7,1.0,1.3*3B
$GNGSA,A,3,02,05,13,15,21,24,29,30,,,,,1.7,1.0,1.3*25
$GNGSA,A,3,66,67,75,76,77,81,83,,,,,,1.7,1.0,1.3*29
$QZGSA,A,3,01,02,03,,,,,,,,,,1.7,1.0,1.3*2B
$IMGSA,A,3,,,,,,,,,,,,,1.7,1.0,1.3*24
$BDGSA,A,3,203,206,208,213,216,220,223,225,229,230,,,1.7,1.0,1.3*22
$GAGSA,A,3,101,104,109,112,121,,,,,,,,1.7,1.0,1.3*1B
$GPRMC,030447.00,A,3722.861753,N,12640.715232,E,000.0,219.5,231119,,,A*57
$GPGGA,030448.00,3722.861753,N,12640.715232,E,1,35,0.8,4.5,M,17.7,M,,*62
$GPGSV,2,1,08,15,69,277,37,13,68,034,31,05,48,084,43,21,32,311,27*70
$GPGSV,2,2,08,29,21,240,36,24,21,188,38,30,19,046,24,02,15,157,32*7E
$GLGSV,2,1,07,66,47,031,30,67,45,306,33,81,36,211,29,76,32,089,40*66
$GLGSV,2,2,07,83,17,331,17,75,17,037,32,77,15,145,26*59
$QZGSV,1,1,03,01,77,069,27,02,23,152,33,03,15,182,34*53
$BDGSV,3,1,12,213,73,260,31,206,68,262,28,208,63,179,33,216,62,259,35*64
$BDGSV,3,2,12,203,44,206,26,220,44,297,31,209,40,244,21,223,37,095,33*60
$BDGSV,3,3,12,204,34,133,,230,31,226,37,229,29,289,32,225,15,044,29*60
$GAGSV,2,1,06,104,72,344,29,109,33,265,34,112,31,180,26,136,27,315,24*66
$GAGSV,2,2,06,119,27,059,18,101,16,118,29*63
$GPGSA,A,3,02,05,13,15,21,24,29,30,,,,,1.7,1.0,1.4*3C
$GNGSA,A,3,02,05,13,15,21,24,29,30,,,,,1.7,1.0,1.4*22
$GNGSA,A,3,66,67,75,76,77,81,83,,,,,,1.7,1.0,1.4*2E
$QZGSA,A,3,01,02,03,,,,,,,,,,1.7,1.0,1.4*2C
$IMGSA,A,3,,,,,,,,,,,,,1.7,1.0,1.4*23
$BDGSA,A,3,203,206,208,213,216,220,223,225,229,230,,,1.7,1.0,1.4*25
$GAGSA,A,3,101,104,109,112,136,,,,,,,,1.7,1.0,1.4*1A
$GPRMC,030448.00,A,3722.861753,N,12640.715232,E,000.0,219.5,231119,,,A*58
$GPGGA,030449.00,3722.861753,N,12640.715232,E,1,35,0.6,4.5,M,17.7,M,,*6D
$GPGSV,2,1,08,15,69,277,37,13,67,034,31,05,48,084,43,21,32,311,27*7F
$GPGSV,2,2,08,24,21,188,38,29,21,240,36,30,19,046,24,02,15,157,32*7E
$GLGSV,2,1,07,66,47,031,32,67,45,306,33,81,36,211,28,76,32,089,40*65
$GLGSV,2,2,07,83,17,331,17,75,17,037,32,77,15,145,26*59
$QZGSV,1,1,03,01,77,069,27,02,23,152,33,03,15,182,34*53
$BDGSV,3,1,12,213,73,260,31,206,68,262,28,208,63,179,33,216,62,259,35*64
$BDGSV,3,2,12,203,44,206,,220,44,297,31,209,40,244,21,223,37,095,33*64
$BDGSV,3,3,12,204,34,133,,230,31,226,37,229,29,289,32,225,15,044,29*60
$GAGSV,2,1,06,104,72,344,29,109,33,265,34,112,31,180,26,119,27,059,17*60
$GAGSV,2,2,06,121,16,067,26,101,16,118,29*6A
$GPGSA,A,3,02,05,13,15,21,24,29,30,,,,,1.6,0.9,1.3*32
$GNGSA,A,3,02,05,13,15,21,24,29,30,,,,,1.6,0.9,1.3*2C
$GNGSA,A,3,66,67,75,76,77,81,83,,,,,,1.6,0.9,1.3*20
$QZGSA,A,3,01,02,03,,,,,,,,,,1.6,0.9,1.3*22
$IMGSA,A,3,,,,,,,,,,,,,1.6,0.9,1.3*2D
$BDGSA,A,3,206,208,209,213,216,220,223,225,229,230,,,1.6,0.9,1.3*21
$GAGSA,A,3,101,104,109,112,121,,,,,,,,1.6,0.9,1.3*12
$GPRMC,030449.00,A,3722.861753,N,12640.715232,E,000.0,219.5,231119,,,A*59
$GPGGA,030450.00,3722.861753,N,12640.715232,E,1,35,0.6,4.6,M,17.7,M,,*66
$GPGSV,2,1,08,15,69,277,37,13,67,034,31,05,48,084,43,21,32,311,27*7F
$GPGSV,2,2,08,24,21,188,38,29,21,240,36,30,19,046,24,02,15,157,32*7E
$GLGSV,2,1,07,66,47,031,32,67,45,306,33,81,36,211,28,76,32,089,40*65
$GLGSV,2,2,07,75,17,037,32,83,17,331,17,77,15,145,27*58
$QZGSV,1,1,03,01,77,069,27,02,23,152,33,03,15,182,34*53
$BDGSV,3,1,12,213,73,260,31,206,68,262,28,208,63,179,33,216,62,259,34*65
$BDGSV,3,2,12,220,44,297,31,203,44,206,,209,40,244,20,223,37,095,33*65
$BDGSV,3,3,12,204,34,133,,230,31,226,37,229,29,289,31,225,15,044,29*63
$GAGSV,2,1,06,104,72,344,29,109,33,265,35,112,31,180,26,119,27,059,17*61
$GAGSV,2,2,06,101,16,118,29,121,15,067,26*69
$GPGSA,A,3,02,05,13,15,21,24,29,30,,,,,2.0,1.0,1.7*3B
$GNGSA,A,3,02,05,13,15,21,24,29,30,,,,,2.0,1.0,1.7*25
$GNGSA,A,3,66,67,75,76,77,81,,,,,,,2.0,1.0,1.7*22
$QZGSA,A,3,01,02,03,,,,,,,,,,2.0,1.0,1.7*2B
$IMGSA,A,3,,,,,,,,,,,,,2.0,1.0,1.7*24
$BDGSA,A,3,206,208,209,213,216,220,223,225,229,230,,,2.0,1.0,1.7*28
$GAGSA,A,3,101,104,109,112,119,121,,,,,,,2.0,1.0,1.7*22
$GPRMC,030450.00,A,3722.861753,N,12640.715232,E,000.0,219.5,231119,,,A*51
$GPGGA,030451.00,3722.861753,N,12640.715232,E,1,36,0.6,4.5,M,17.7,M,,*67
$GPGSV,2,1,08,15,69,277,37,13,67,034,30,05,48,084,43,21,32,311,27*7E
$GPGSV,2,2,08,24,21,188,38,29,21,240,36,30,19,046,23,02,15,157,32*79
$GLGSV,2,1,07,66,47,031,33,67,45,306,33,81,36,211,28,76,32,089,40*64
$GLGSV,2,2,07,83,17,331,17,75,17,037,32,77,15,145,27*58
$QZGSV,1,1,03,01,77,069,26,02,23,152,33,03,15,182,34*52
$BDGSV,3,1,12,213,73,260,30,206,68,262,27,208,63,179,33,216,62,259,34*6B
$BDGSV,3,2,12,203,44,206,23,220,44,297,30,209,40,244,20,223,37,095,32*64
$BDGSV,3,3,12,204,34,133,,230,31,226,37,229,29,289,32,225,15,044,29*60
$GAGSV,2,1,06,104,72,344,29,109,33,265,35,112,31,180,26,119,27,059,18*6E
$GAGSV,2,2,06,121,16,067,26,101,16,118,29*6A
$GPGSA,A,3,02,05,13,15,21,24,29,30,,,,,1.8,0.9,1.5*3A
$GNGSA,A,3,02,05,13,15,21,24,29,30,,,,,1.8,0.9,1.5*24
$GNGSA,A,3,66,67,75,76,77,81,,,,,,,1.8,0.9,1.5*23
$QZGSA,A,3,01,02,03,,,,,,,,,,1.8,0.9,1.5*2A
$IMGSA,A,3,,,,,,,,,,,,,1.8,0.9,1.5*25
$BDGSA,A,3,203,206,208,209,213,216,220,223,225,229,230,,1.8,0.9,1.5*18
$GAGSA,A,3,101,104,109,112,119,121,,,,,,,1.8,0.9,1.5*23
$GPRMC,030451.00,A,3722.861753,N,12640.715232,E,000.0,219.5,231119,,,A*50
$GPGGA,030452.00,3722.861753,N,12640.715232,E,1,36,1.2,4.5,M,17.7,M,,*61
$GPGSV,2,1,08,15,69,277,37,13,67,034,30,05,48,084,43,21,32,311,27*7E
$GPGSV,2,2,08,24,21,188,38,29,21,240,36,30,19,046,23,02,15,157,32*79
$GLGSV,2,1,07,66,47,031,33,67,45,306,33,81,36,211,27,76,32,089,40*6B
$GLGSV,2,2,07,83,17,331,17,75,17,037,31,77,15,145,27*5B
$QZGSV,1,1,03,01,77,069,25,02,23,152,33,03,15,182,34*51
$BDGSV,3,1,12,213,73,260,30,206,68,262,26,208,63,179,33,216,62,259,34*6A
$BDGSV,3,2,12,203,44,206,,220,44,297,30,209,40,244,20,223,37,095,32*65
$BDGSV,3,3,12,204,34,133,,230,31,226,37,229,29,289,32,225,15,044,29*60
$GAGSV,2,1,06,104,72,344,29,109,33,265,35,112,31,180,26,119,27,059,18*6E
$GAGSV,2,2,06,121,16,067,26,101,16,118,29*6A
$GPGSA,A,3,02,05,13,15,21,24,29,30,,,,,4.6,2.1,4.1*3A
$GNGSA,A,3,02,05,13,15,21,24,29,30,,,,,4.6,2.1,4.1*24
$GNGSA,A,3,66,67,75,76,77,81,83,,,,,,4.6,2.1,4.1*28
$QZGSA,A,3,01,02,03,,,,,,,,,,4.6,2.1,4.1*2A
$IMGSA,A,3,,,,,,,,,,,,,4.6,2.1,4.1*25
$BDGSA,A,3,206,208,209,213,216,220,223,225,229,230,,,4.6,2.1,4.1*29
$GAGSA,A,3,101,104,109,112,119,121,,,,,,,4.6,2.1,4.1*23
$GPRMC,030452.00,A,3722.861753,N,12640.715232,E,000.0,219.5,231119,,,A*53
$GPGGA,030453.00,3722.861753,N,12640.715232,E,1,37,0.6,4.5,M,17.7,M,,*64
$GPGSV,2,1,07,15,69,277,37,13,67,034,30,05,48,084,43,21,32,311,27*71
$GPGSV,2,2,07,24,21,188,38,29,21,240,36,30,19,046,23*42
$GLGSV,2,1,07,66,47,031,33,67,45,306,33,81,36,211,27,76,32,089,40*6B
$GLGSV,2,2,07,83,17,331,17,75,17,037,31,77,15,145,27*5B
$QZGSV,1,1,03,01,77,069,24,02,23,152,33,03,15,182,34*50
$BDGSV,3,1,12,213,73,260,30,206,68,262,26,208,63,179,33,216,62,259,34*6A
$BDGSV,3,2,12,203,44,206,22,220,44,297,30,209,40,244,20,223,37,095,32*65
$BDGSV,3,3,12,204,34,133,,230,31,226,37,229,29,289,33,225,15,044,29*61
$GAGSV,2,1,07,104,72,344,29,109,33,265,35,112,31,180,25,119,27,059,18*6C
$GAGSV,2,2,07,136,27,315,25,121,16,067,26,101,16,118,29*6A
$GPGSA,A,3,05,13,15,21,24,29,30,,,,,,2.4,1.2,2.1*3A
$GNGSA,A,3,05,13,15,21,24,29,30,,,,,,2.4,1.2,2.1*24
$GNGSA,A,3,66,67,75,76,77,81,83,,,,,,2.4,1.2,2.1*2A
$QZGSA,A,3,01,02,03,,,,,,,,,,2.4,1.2,2.1*28
$IMGSA,A,3,,,,,,,,,,,,,2.4,1.2,2.1*27
$BDGSA,A,3,203,206,208,209,213,216,220,223,225,229,230,,2.4,1.2,2.1*1A
$GAGSA,A,3,101,104,109,112,119,121,136,,,,,,2.4,1.2,2.1*15
$GPRMC,030453.00,A,3722.861753,N,12640.715232,E,000.0,219.5,231119,,,A*52
$GPGGA,030454.00,3722.861753,N,12640.715232,E,1,37,0.6,4.5,M,17.7,M,,*63
$GPGSV,2,1,08,15,69,277,36,13,67,034,30,05,48,084,43,21,32,311,27*7F
$GPGSV,2,2,08,24,21,188,38,29,21,240,36,30,19,046,24,02,15,157,31*7D
$GLGSV,2,1,07,66,47,031,33,67,45,306,32,81,36,211,29,76,32,089,39*6A
$GLGSV,2,2,07,83,17,331,18,75,17,037,31,77,15,145,28*5B
$QZGSV,1,1,03,01,77,069,24,02,23,152,32,03,15,182,34*51
$BDGSV,3,1,12,213,73,260,31,206,68,262,25,208,63,179,33,216,62,259,34*68
$BDGSV,3,2,12,203,44,206,,220,44,297,30,209,40,244,20,223,37,095,32*65
$BDGSV,3,3,12,204,34,133,21,230,31,226,36,229,29,289,33,225,15,044,29*63
$GAGSV,2,1,06,104,72,344,29,109,33,265,35,112,31,180,26,119,27,059,18*6E
$GAGSV,2,2,06,121,16,067,26,101,16,118,29*6A
$GPGSA,A,3,02,05,13,15,21,24,29,30,,,,,1.9,1.0,1.6*30
$GNGSA,A,3,02,05,13,15,21,24,29,30,,,,,1.9,1.0,1.6*2E
$GNGSA,A,3,66,67,75,76,77,81,83,,,,,,1.9,1.0,1.6*22
$QZGSA,A,3,01,02,03,,,,,,,,,,1.9,1.0,1.6*20
$IMGSA,A,3,,,,,,,,,,,,,1.9,1.0,1.6*2F
$BDGSA,A,3,204,206,208,209,213,216,220,223,225,229,230,,1.9,1.0,1.6*15
$GAGSA,A,3,101,104,109,112,119,121,,,,,,,1.9,1.0,1.6*29
$GPRMC,030454.00,A,3722.861753,N,12640.715232,E,000.0,219.5,231119,,,A*55
$GPGGA,030455.00,3722.861753,N,12640.715232,E,1,36,0.6,4.5,M,17.7,M,,*63
$GPGSV,2,1,08,15,69,277,36,13,67,034,30,05,48,084,43,21,32,311,27*7F
$GPGSV,2,2,08,24,21,188,38,29,21,240,36,30,19,046,24,02,15,157,31*7D
$GLGSV,2,1,07,66,47,031,33,67,45,306,32,81,36,211,31,76,32,089,39*63
$GLGSV,2,2,07,83,17,331,18,75,17,037,31,77,15,145,28*5B
$QZGSV,1,1,03,01,77,069,24,02,23,152,32,03,15,182,34*51
$BDGSV,3,1,12,213,73,260,31,206,68,262,25,208,63,179,33,216,62,259,35*69
$BDGSV,3,2,12,203,44,206,,220,44,297,30,209,40,244,20,223,37,095,33*64
$BDGSV,3,3,12,204,34,133,,230,31,226,36,229,29,289,33,225,15,044,29*60
$GAGSV,2,1,06,104,72,344,29,109,33,265,34,112,31,180,26,119,27,059,18*6F
$GAGSV,2,2,06,121,16,067,26,101,16,118,29*6A
$GPGSA,A,3,02,05,13,15,21,24,29,30,,,,,2.2,1.1,1.9*36
$GNGSA,A,3,02,05,13,15,21,24,29,30,,,,,2.2,1.1,1.9*28
$GNGSA,A,3,66,67,75,76,77,81,83,,,,,,2.2,1.1,1.9*24
$QZGSA,A,3,01,02,03,,,,,,,,,,2.2,1.1,1.9*26
$IMGSA,A,3,,,,,,,,,,,,,2.2,1.1,1.9*29
$BDGSA,A,3,206,208,209,213,216,220,223,225,229,230,,,2.2,1.1,1.9*25
$GAGSA,A,3,101,104,109,112,119,121,,,,,,,2.2,1.1,1.9*2F
$GPRMC,030455.00,A,3722.861753,N,12640.715232,E,000.0,219.5,231119,,,A*54
$GPGGA,030456.00,3722.861753,N,12640.715232,E,1,35,0.6,4.6,M,17.7,M,,*60
$GPGSV,2,1,08,15,69,277,36,13,67,034,29,05,48,084,43,21,32,311,27*77
$GPGSV,2,2,08,24,21,188,38,29,21,240,36,30,19,046,27,02,15,157,33*7C
$GLGSV,2,1,07,66,47,031,33,67,45,306,32,81,36,211,31,76,32,089,40*6D
$GLGSV,2,2,07,83,17,331,19,75,17,037,31,77,15,145,28*5A
$QZGSV,1,1,03,01,77,069,24,02,23,152,32,03,15,182,35*50
$BDGSV,3,1,12,213,73,260,31,206,68,262,25,208,63,179,33,216,62,259,35*69
$BDGSV,3,2,12,203,44,206,,220,44,297,30,209,40,244,19,223,37,095,33*6E
$BDGSV,3,3,12,204,34,133,,230,31,226,36,229,29,289,33,225,15,044,29*60
$GAGSV,2,1,06,104,72,344,29,109,33,265,34,112,31,180,26,119,27,059,18*6F
$GAGSV,2,2,06,121,16,067,26,101,16,118,29*6A
$GPGSA,A,3,02,05,13,15,21,24,29,30,,,,,1.8,1.0,1.5*32
$GNGSA,A,3,02,05,13,15,21,24,29,30,,,,,1.8,1.0,1.5*2C
$GNGSA,A,3,66,67,75,76,77,81,83,,,,,,1.8,1.0,1.5*20
$QZGSA,A,3,01,02,03,,,,,,,,,,1.8,1.0,1.5*22
$IMGSA,A,3,,,,,,,,,,,,,1.8,1.0,1.5*2D
$BDGSA,A,3,206,208,213,216,220,223,225,229,230,,,,1.8,1.0,1.5*1A
$GAGSA,A,3,101,104,109,112,119,121,,,,,,,1.8,1.0,1.5*2B
$GPRMC,030456.00,A,3722.861753,N,12640.715232,E,000.0,219.5,231119,,,A*57
$GPGGA,030457.00,3722.861753,N,12640.715232,E,1,34,0.6,4.5,M,17.7,M,,*63
$GPGSV,2,1,08,15,69,277,36,13,67,034,28,05,48,084,42,21,32,311,27*77
$GPGSV,2,2,08,24,21,188,38,29,21,240,36,30,19,046,27,02,15,157,33*7C
$GLGSV,2,1,07,66,47,031,33,67,45,306,32,81,36,211,31,76,32,089,40*6D
$GLGSV,2,2,07,83,17,331,19,75,17,037,31,77,15,145,28*5A
$QZGSV,1,1,03,01,77,069,25,02,23,152,32,03,15,182,35*51
$BDGSV,3,1,12,213,73,260,31,206,68,262,24,208,63,180,32,216,62,259,35*6F
$BDGSV,3,2,12,203,44,206,,220,44,297,29,209,40,244,19,223,37,095,33*66
$BDGSV,3,3,12,204,34,133,,230,31,226,36,229,29,289,32,225,15,044,29*61
$GAGSV,2,1,06,104,72,344,29,109,33,265,34,112,31,180,26,119,27,059,18*6F
$GAGSV,2,2,06,121,16,067,26,101,16,118,29*6A
$GPGSA,A,3,02,05,13,15,21,24,29,30,,,,,2.1,1.1,1.8*34
$GNGSA,A,3,02,05,13,15,21,24,29,30,,,,,2.1,1.1,1.8*2A
$GNGSA,A,3,66,67,75,76,77,81,83,,,,,,2.1,1.1,1.8*26
$QZGSA,A,3,01,02,03,,,,,,,,,,2.1,1.1,1.8*24
$IMGSA,A,3,,,,,,,,,,,,,2.1,1.1,1.8*2B
$BDGSA,A,3,206,208,213,216,220,223,225,229,230,,,,2.1,1.1,1.8*1C
$GAGSA,A,3,101,104,109,112,121,,,,,,,,2.1,1.1,1.8*14
$GPRMC,030457.00,A,3722.861753,N,12640.715232,E,000.0,219.5,231119,,,A*56
$GPGGA,030458.00,3722.861753,N,12640.715232,E,1,34,0.6,4.5,M,17.7,M,,*6C
$GPGSV,2,1,07,15,69,277,36,13,67,034,27,05,48,084,42,21,32,311,26*76
$GPGSV,2,2,07,24,21,188,38,29,21,240,36,30,19,046,26*47
$GLGSV,2,1,07,66,47,031,33,67,45,306,32,81,36,211,31,76,32,089,40*6D
$GLGSV,2,2,07,83,17,331,19,75,17,037,30,77,16,145,28*58
$QZGSV,1,1,03,01,77,069,25,02,23,152,32,03,15,182,35*51
$BDGSV,3,1,12,213,73,260,31,206,68,262,24,208,63,180,32,216,62,259,35*6F
$BDGSV,3,2,12,203,44,206,,220,44,297,30,209,40,244,,223,37,095,33*66
$BDGSV,3,3,12,204,34,133,,230,31,226,36,229,29,289,32,225,15,044,29*61
$GAGSV,2,1,07,104,72,344,30,109,33,265,34,112,31,180,25,119,27,059,18*65
$GAGSV,2,2,07,136,27,315,25,121,16,067,26,101,16,118,29*6A
$GPGSA,A,3,05,13,15,21,24,29,30,,,,,,1.8,1.0,1.6*33
$GNGSA,A,3,05,13,15,21,24,29,30,,,,,,1.8,1.0,1.6*2D
$GNGSA,A,3,66,67,75,76,77,81,83,,,,,,1.8,1.0,1.6*23
$QZGSA,A,3,01,02,03,,,,,,,,,,1.8,1.0,1.6*21
$IMGSA,A,3,,,,,,,,,,,,,1.8,1.0,1.6*2E
$BDGSA,A,3,206,208,213,216,220,223,225,229,230,,,,1.8,1.0,1.6*19
$GAGSA,A,3,101,104,109,112,121,136,,,,,,,1.8,1.0,1.6*25
$GPRMC,030458.00,A,3722.861753,N,12640.715232,E,000.0,219.5,231119,,,A*59
$GPGGA,030459.00,3722.861753,N,12640.715232,E,1,35,0.6,4.6,M,17.7,M,,*6F
$GPGSV,2,1,08,15,69,277,36,13,67,034,27,05,48,084,44,21,32,311,27*7E
$GPGSV,2,2,08,24,21,188,37,29,21,240,35,30,19,046,26,02,15,157,34*76
$GLGSV,2,1,07,66,47,031,34,67,45,306,31,81,36,211,33,76,32,089,41*6A
$GLGSV,2,2,07,83,17,331,19,75,17,037,30,77,16,145,28*58
$QZGSV,1,1,03,01,77,069,25,02,23,152,31,03,15,182,35*52
$BDGSV,3,1,12,213,73,260,31,206,68,262,29,208,63,180,32,216,62,259,35*62
$BDGSV,3,2,12,203,44,206,17,220,44,297,31,209,40,244,20,223,37,095,33*63
$BDGSV,3,3,12,204,34,133,,230,31,226,35,229,29,289,32,225,15,044,29*62
$GAGSV,2,1,06,104,72,344,31,109,33,265,33,112,31,180,26,119,27,059,18*61
$GAGSV,2,2,06,121,16,067,25,101,16,118,30*61
$GPGSA,A,3,02,05,13,15,21,24,29,30,,,,,2.4,1.3,2.0*38
$GNGSA,A,3,02,05,13,15,21,24,29,30,,,,,2.4,1.3,2.0*26
$GNGSA,A,3,66,67,75,76,77,81,83,,,,,,2.4,1.3,2.0*2A
$QZGSA,A,3,01,02,03,,,,,,,,,,2.4,1.3,2.0*28
$IMGSA,A,3,,,,,,,,,,,,,2.4,1.3,2.0*27
$BDGSA,A,3,206,208,209,213,216,220,223,225,229,230,,,2.4,1.3,2.0*2B
$GAGSA,A,3,101,104,109,112,121,,,,,,,,2.4,1.3,2.0*18
$GPRMC,030459.00,A,3722.861753,N,12640.715232,E,000.0,219.5,231119,,,A*58
$GPGGA,030500.00,3722.856529,N,12640.710550,E,1,35,0.8,4.7,M,17.7,M,,*60
$GPGSV,2,1,08,15,69,277,36,13,67,034,28,05,48,084,44,21,32,311,33*74
$GPGSV,2,2,08,24,21,188,37,29,21,240,35,30,19,046,25,02,15,157,34*75
$GLGSV,2,1,07,66,47,031,38,67,45,306,35,81,36,211,37,76,32,089,40*67
$GLGSV,2,2,07,83,17,331,19,75,17,037,33,77,16,145,28*5B
$QZGSV,1,1,03,01,77,069,33,02,23,152,36,03,15,182,34*53
$BDGSV,3,1,12,213,73,260,31,206,68,262,35,208,63,180,32,216,62,259,35*6F
$BDGSV,3,2,12,203,44,206,,220,44,297,35,209,40,244,22,223,37,095,34*64
$BDGSV,3,3,12,204,34,133,,230,31,226,36,229,29,289,32,225,15,044,29*61
$GAGSV,2,1,06,104,72,344,30,109,33,265,33,112,31,180,28,119,27,059,18*6E
$GAGSV,2,2,06,121,16,067,25,101,16,118,29*69
$GPGSA,A,3,02,05,13,15,21,24,29,30,,,,,3.3,1.8,2.8*3D
$GNGSA,A,3,02,05,13,15,21,24,29,30,,,,,3.3,1.8,2.8*23
$GNGSA,A,3,66,67,75,76,77,81,83,,,,,,3.3,1.8,2.8*2F
$QZGSA,A,3,01,02,03,,,,,,,,,,3.3,1.8,2.8*2D
$IMGSA,A,3,,,,,,,,,,,,,3.3,1.8,2.8*22
$BDGSA,A,3,206,208,209,213,216,220,223,225,229,230,,,3.3,1.8,2.8*2E
$GAGSA,A,3,101,104,109,112,121,,,,,,,,3.3,1.8,2.8*1D
$GPRMC,030500.00,A,3722.856529,N,12640.710550,E,015.0,205.1,231119,,,A*55
$GPGGA,030501.00,3722.850942,N,12640.707030,E,1,36,1.6,4.9,M,17.7,M,,*61
$GPGSV,2,1,08,15,69,277,38,13,67,034,29,05,48,084,43,21,32,311,32*7D
$GPGSV,2,2,08,24,21,188,37,29,21,240,34,30,19,046,24,02,15,157,34*75
$GLGSV,2,1,07,66,47,031,38,67,45,306,36,81,36,211,37,76,32,089,40*64
$GLGSV,2,2,07,83,17,331,19,75,17,037,35,77,16,145,28*5D
$QZGSV,1,1,03,01,77,069,34,02,23,152,36,03,15,182,34*54
$BDGSV,3,1,12,213,73,260,30,206,68,262,35,208,63,180,32,216,62,259,35*6E
$BDGSV,3,2,12,203,44,206,24,220,44,297,35,209,40,244,22,223,37,095,34*62
$BDGSV,3,3,12,204,34,133,,230,31,226,38,229,29,289,32,225,15,044,30*67
$GAGSV,2,1,06,104,72,344,31,109,33,265,33,112,31,180,28,119,27,059,17*60
$GAGSV,2,2,06,121,16,067,24,101,16,118,29*68
$GPGSA,A,3,02,05,13,15,21,24,29,30,,,,,7.8,3.6,6.9*3B
$GNGSA,A,3,02,05,13,15,21,24,29,30,,,,,7.8,3.6,6.9*25
$GNGSA,A,3,66,67,75,76,77,81,83,,,,,,7.8,3.6,6.9*29
$QZGSA,A,3,01,02,03,,,,,,,,,,7.8,3.6,6.9*2B
$IMGSA,A,3,,,,,,,,,,,,,7.8,3.6,6.9*24
$BDGSA,A,3,203,206,208,209,213,216,220,223,225,229,230,,7.8,3.6,6.9*19
$GAGSA,A,3,101,104,109,112,121,,,,,,,,7.8,3.6,6.9*1B
$GPRMC,030501.00,A,3722.850942,N,12640.707030,E,022.4,206.7,231119,,,A*53
$GPGGA,030502.00,3722.844016,N,12640.702002,E,1,37,1.6,5.1,M,17.7,M,,*63
$GPGSV,2,1,08,15,69,277,41,13,67,034,29,05,48,084,43,21,32,311,32*73
$GPGSV,2,2,08,24,21,188,37,29,21,240,33,30,19,046,24,02,15,157,34*72
$GLGSV,2,1,07,66,47,031,38,67,45,306,37,81,36,211,37,76,32,089,40*65
$GLGSV,2,2,07,83,17,331,19,75,17,037,35,77,16,145,28*5D
$QZGSV,1,1,03,01,77,069,35,02,23,152,36,03,15,182,33*52
$BDGSV,3,1,12,213,73,260,30,206,68,262,35,208,63,180,32,216,62,259,34*6F
$BDGSV,3,2,12,203,44,206,24,220,44,297,35,209,40,244,22,223,37,095,34*62
$BDGSV,3,3,12,204,34,133,,230,31,226,39,229,29,289,32,225,15,044,31*67
$GAGSV,2,1,06,104,72,344,34,109,33,265,33,112,31,180,29,119,27,059,17*64
$GAGSV,2,2,06,121,16,067,23,101,16,118,28*6E
$GPGSA,A,3,02,05,13,15,21,24,29,30,,,,,3.5,2.8,2.1*31
$GNGSA,A,3,02,05,13,15,21,24,29,30,,,,,3.5,2.8,2.1*2F
$GNGSA,A,3,66,67,75,76,77,81,83,,,,,,3.5,2.8,2.1*23
$QZGSA,A,3,01,02,03,,,,,,,,,,3.5,2.8,2.1*21
$IMGSA,A,3,,,,,,,,,,,,,3.5,2.8,2.1*2E
$BDGSA,A,3,203,206,208,209,213,216,220,223,225,229,230,,3.5,2.8,2.1*13
$GAGSA,A,3,101,104,109,112,119,,,,,,,,3.5,2.8,2.1*1A
$GPRMC,030502.00,A,3722.844016,N,12640.702002,E,028.9,209.8,231119,,,A*5E
$GPGGA,030503.00,3722.835804,N,12640.695661,E,1,37,1.2,5.3,M,17.7,M,,*65
$GPGSV,2,1,07,15,69,277,41,13,67,034,29,05,48,084,44,21,32,311,32*7B
$GPGSV,2,2,07,24,21,188,36,29,21,240,33,30,19,046,24*4E
$GLGSV,2,1,07,66,47,031,37,67,45,306,37,81,36,211,37,76,32,089,40*6A
$GLGSV,2,2,07,83,17,331,19,75,17,037,35,77,16,145,29*5C
$QZGSV,1,1,03,01,77,069,36,02,23,152,36,03,15,182,33*51
$BDGSV,3,1,12,213,73,260,30,206,68,262,34,208,63,180,31,216,62,259,34*6D
$BDGSV,3,2,12,203,44,206,26,220,44,297,34,209,40,244,27,223,37,095,37*67
$BDGSV,3,3,12,204,34,133,,230,31,226,39,229,29,289,32,225,15,044,31*67
$GAGSV,2,1,07,104,72,344,35,109,33,265,32,112,31,180,29,119,27,059,17*65
$GAGSV,2,2,07,136,27,315,30,121,16,067,22,101,16,118,28*6B
$GPGSA,A,3,05,13,15,21,24,29,30,,,,,,3.5,2.1,2.8*33
$GNGSA,A,3,05,13,15,21,24,29,30,,,,,,3.5,2.1,2.8*2D
$GNGSA,A,3,66,67,75,76,77,81,83,,,,,,3.5,2.1,2.8*23
$QZGSA,A,3,01,02,03,,,,,,,,,,3.5,2.1,2.8*21
$IMGSA,A,3,,,,,,,,,,,,,3.5,2.1,2.8*2E
$BDGSA,A,3,203,206,208,209,213,216,220,223,225,229,230,,3.5,2.1,2.8*13
$GAGSA,A,3,101,104,109,112,119,136,,,,,,,3.5,2.1,2.8*2E
$GPRMC,030503.00,A,3722.835804,N,12640.695661,E,034.6,211.8,231119,,,A*55
$GPGGA,030504.00,3722.826683,N,12640.688085,E,1,38,1.2,5.5,M,17.7,M,,*68
$GPGSV,2,1,07,15,69,277,41,13,67,034,28,05,48,084,44,21,32,311,32*7A
$GPGSV,2,2,07,24,21,188,36,29,21,240,35,30,19,046,26*4A
$GLGSV,2,1,07,66,47,031,36,67,45,306,37,81,36,211,36,76,32,089,41*6B
$GLGSV,2,2,07,83,17,331,19,75,17,037,35,77,16,145,29*5C
$QZGSV,1,1,03,01,77,069,36,02,23,152,35,03,15,182,32*53
$BDGSV,3,1,12,213,73,260,30,206,68,262,34,208,63,180,31,216,62,259,33*6A
$BDGSV,3,2,12,203,44,206,27,220,44,297,34,209,40,244,30,223,37,095,39*6E
$BDGSV,3,3,12,204,34,133,21,230,31,226,39,229,29,289,32,225,15,044,31*64
$GAGSV,2,1,07,104,72,344,35,109,33,265,32,112,31,180,28,119,27,059,17*64
$GAGSV,2,2,07,136,27,315,33,121,16,067,22,101,16,118,28*68
$GPGSA,A,3,05,13,15,21,24,29,30,,,,,,3.3,2.4,2.3*3B
$GNGSA,A,3,05,13,15,21,24,29,30,,,,,,3.3,2.4,2.3*25
$GNGSA,A,3,66,67,75,76,77,81,83,,,,,,3.3,2.4,2.3*2B
$QZGSA,A,3,01,02,03,,,,,,,,,,3.3,2.4,2.3*29
$IMGSA,A,3,,,,,,,,,,,,,3.3,2.4,2.3*26
$BDGSA,A,3,203,204,206,208,209,213,216,220,223,225,229,230,3.3,2.4,2.3*2D
$GAGSA,A,3,101,104,109,112,136,,,,,,,,3.3,2.4,2.3*1F
$GPRMC,030504.00,A,3722.826683,N,12640.688085,E,039.6,213.7,231119,,,A*51
$GPGGA,030505.00,3722.816765,N,12640.679437,E,1,35,0.6,5.7,M,17.7,M,,*6A
$GPGSV,2,1,07,15,69,277,41,13,67,034,28,05,48,084,44,21,32,311,32*7A
$GPGSV,2,2,07,24,21,188,35,29,21,240,36,30,19,046,27*4B
$GLGSV,2,1,07,66,47,031,36,67,45,306,37,81,36,211,36,76,32,089,42*68
$GLGSV,2,2,07,83,17,331,18,75,17,037,35,77,16,145,29*5D
$QZGSV,1,1,03,01,77,069,36,02,23,152,34,03,15,182,32*52
$BDGSV,3,1,12,213,73,260,30,206,68,262,34,208,63,180,31,216,62,259,33*6A
$BDGSV,3,2,12,203,44,206,,220,44,297,34,209,40,244,30,223,37,095,39*6B
$BDGSV,3,3,12,204,34,133,,230,31,226,39,229,29,289,31,225,15,044,31*64
$GAGSV,2,1,07,104,72,344,35,109,33,265,31,112,31,180,28,119,27,059,18*68
$GAGSV,2,2,07,136,27,315,34,121,16,067,21,101,16,118,27*63
$GPGSA,A,3,05,13,15,21,24,29,30,,,,,,1.9,1.3,1.3*34
$GNGSA,A,3,05,13,15,21,24,29,30,,,,,,1.9,1.3,1.3*2A
$GNGSA,A,3,66,67,75,76,77,81,,,,,,,1.9,1.3,1.3*2F
$QZGSA,A,3,01,02,03,,,,,,,,,,1.9,1.3,1.3*26
$IMGSA,A,3,,,,,,,,,,,,,1.9,1.3,1.3*29
$BDGSA,A,3,206,208,209,213,216,220,223,225,229,230,,,1.9,1.3,1.3*25
$GAGSA,A,3,101,104,109,112,119,136,,,,,,,1.9,1.3,1.3*29
$GPRMC,030505.00,A,3722.816765,N,12640.679437,E,043.9,214.3,231119,,,A*58
$GPGGA,030506.00,3722.806147,N,12640.670128,E,1,37,0.6,5.9,M,17.7,M,,*60
$GPGSV,2,1,07,15,69,277,40,13,67,034,29,05,48,084,45,21,32,311,31*78
$GPGSV,2,2,07,24,21,188,35,29,21,240,38,30,19,046,27*45
$GLGSV,2,1,07,66,47,031,36,67,45,306,37,81,36,211,35,76,32,089,42*6B
$GLGSV,2,2,07,83,17,331,18,75,17,037,34,77,16,145,28*5D
$QZGSV,1,1,03,01,77,069,36,02,23,152,34,03,15,182,32*52
$BDGSV,3,1,12,213,73,260,29,206,68,262,34,208,63,180,31,216,62,259,34*65
$BDGSV,3,2,12,203,44,206,25,220,44,297,34,209,40,244,30,223,37,095,39*6C
$BDGSV,3,3,12,204,34,133,,230,31,226,38,229,29,289,31,225,15,044,31*65
$GAGSV,2,1,07,104,72,344,34,109,33,265,31,112,31,180,27,119,27,059,18*66
$GAGSV,2,2,07,136,27,315,34,121,16,067,21,101,16,118,28*6C
$GPGSA,A,3,05,13,15,21,24,29,30,,,,,,1.3,0.8,1.0*37
$GNGSA,A,3,05,13,15,21,24,29,30,,,,,,1.3,0.8,1.0*29
$GNGSA,A,3,66,67,75,76,77,81,,,,,,,1.3,0.8,1.0*2C
$QZGSA,A,3,01,02,03,,,,,,,,,,1.3,0.8,1.0*25
$IMGSA,A,3,,,,,,,,,,,,,1.3,0.8,1.0*2A
$BDGSA,A,3,203,206,208,209,213,216,220,223,225,229,230,,1.3,0.8,1.0*17
$GAGSA,A,3,101,104,109,112,119,121,136,,,,,,1.3,0.8,1.0*18
$GPRMC,030506.00,A,3722.806147,N,12640.670128,E,046.4,214.9,231119,,,A*5C
$GPGGA,030507.00,3722.795516,N,12640.660328,E,1,37,0.6,6.1,M,17.7,M,,*6C
$GPGSV,2,1,07,15,69,277,40,13,67,034,28,05,48,084,44,21,32,311,31*78
$GPGSV,2,2,07,24,21,188,35,29,21,240,37,30,19,046,27*4A
$GLGSV,2,1,07,66,47,031,36,67,45,306,36,81,36,211,35,76,32,089,43*6B
$GLGSV,2,2,07,83,17,331,18,75,17,037,34,77,16,145,28*5D
$QZGSV,1,1,03,01,77,069,35,02,23,152,34,03,15,182,35*56
$BDGSV,3,1,12,213,73,260,29,206,68,262,33,208,63,180,31,216,62,259,34*62
$BDGSV,3,2,12,203,44,206,24,220,44,297,34,209,40,244,30,223,37,095,38*6C
$BDGSV,3,3,12,204,34,133,25,230,31,226,38,229,29,289,31,225,15,044,30*63
$GAGSV,2,1,07,104,72,344,34,109,33,265,31,112,31,180,27,119,27,059,19*67
$GAGSV,2,2,07,136,27,315,34,121,16,067,24,101,16,118,28*69
$GPGSA,A,3,05,13,15,21,24,29,30,,,,,,1.3,0.8,1.0*37
$GNGSA,A,3,05,13,15,21,24,29,30,,,,,,1.3,0.8,1.0*29
$GNGSA,A,3,66,67,75,76,77,81,,,,,,,1.3,0.8,1.0*2C
$QZGSA,A,3,01,02,03,,,,,,,,,,1.3,0.8,1.0*25
$IMGSA,A,3,,,,,,,,,,,,,1.3,0.8,1.0*2A
$BDGSA,A,3,204,206,208,209,213,216,220,223,225,229,230,,1.3,0.8,1.0*10
$GAGSA,A,3,101,104,109,112,119,121,136,,,,,,1.3,0.8,1.0*18
$GPRMC,030507.00,A,3722.795516,N,12640.660328,E,047.2,216.0,231119,,,A*57
$GPGGA,030508.00,3722.784988,N,12640.650308,E,1,36,0.6,6.3,M,17.7,M,,*6A
$GPGSV,2,1,07,15,69,277,39,13,67,034,28,05,48,084,44,21,32,311,31*76
$GPGSV,2,2,07,24,21,188,34,29,21,240,37,30,19,046,26*4A
$GLGSV,2,1,07,66,47,031,36,67,45,306,36,81,36,211,35,76,32,089,43*6B
$GLGSV,2,2,07,83,17,331,17,75,17,037,33,77,16,145,28*55
$QZGSV,1,1,03,01,77,069,34,02,23,152,34,03,15,182,35*57
$BDGSV,3,1,12,213,73,260,28,206,68,262,32,208,63,180,31,216,62,259,33*65
$BDGSV,3,2,12,203,44,206,,220,44,297,33,209,40,244,29,223,37,095,37*6A
$BDGSV,3,3,12,204,34,133,,230,31,226,38,229,29,289,31,225,15,044,30*64
$GAGSV,2,1,07,104,72,344,33,109,33,265,30,112,31,180,27,119,27,059,19*61
$GAGSV,2,2,07,136,27,315,33,121,16,067,27,101,16,118,28*6D
$GPGSA,A,3,05,13,15,21,24,29,30,,,,,,1.6,0.7,1.4*39
$GNGSA,A,3,05,13,15,21,24,29,30,,,,,,1.6,0.7,1.4*27
$GNGSA,A,3,66,67,75,76,77,81,,,,,,,1.6,0.7,1.4*22
$QZGSA,A,3,01,02,03,,,,,,,,,,1.6,0.7,1.4*2B
$IMGSA,A,3,,,,,,,,,,,,,1.6,0.7,1.4*24
$BDGSA,A,3,206,208,209,213,216,220,223,225,229,230,,,1.6,0.7,1.4*28
$GAGSA,A,3,101,104,109,112,119,121,136,,,,,,1.6,0.7,1.4*16
$GPRMC,030508.00,A,3722.784988,N,12640.650308,E,047.4,216.7,231119,,,A*53
$GPGGA,030509.00,3722.774497,N,12640.640361,E,1,36,0.6,6.5,M,17.7,M,,*6F
$GPGSV,2,1,07,15,69,277,39,13,67,034,28,05,48,084,44,21,32,311,30*77
$GPGSV,2,2,07,24,21,188,34,29,21,240,37,30,19,046,26*4A
$GLGSV,2,1,07,66,47,031,36,67,45,306,36,81,36,211,37,76,32,089,43*69
$GLGSV,2,2,07,83,17,331,17,75,17,037,33,77,16,145,28*55
$QZGSV,1,1,03,01,77,069,34,02,23,152,34,03,15,182,35*57
$BDGSV,3,1,12,213,73,260,28,206,68,262,31,208,63,180,31,216,62,259,33*66
$BDGSV,3,2,12,203,44,206,,220,44,297,33,209,40,244,29,223,37,095,37*6A
$BDGSV,3,3,12,204,34,133,22,230,31,226,38,229,29,289,31,225,15,044,30*64
$GAGSV,2,1,07,104,72,344,33,109,33,265,30,112,31,180,27,119,27,059,19*61
$GAGSV,2,2,07,136,27,315,33,121,16,067,29,101,16,118,29*62
$GPGSA,A,3,05,13,15,21,24,29,30,,,,,,1.6,0.8,1.4*36
$GNGSA,A,3,05,13,15,21,24,29,30,,,,,,1.6,0.8,1.4*28
$GNGSA,A,3,66,67,75,76,77,81,,,,,,,1.6,0.8,1.4*2D
$QZGSA,A,3,01,02,03,,,,,,,,,,1.6,0.8,1.4*24
$IMGSA,A,3,,,,,,,,,,,,,1.6,0.8,1.4*2B
$BDGSA,A,3,206,208,209,213,216,220,223,225,229,230,,,1.6,0.8,1.4*27
$GAGSA,A,3,101,104,109,112,119,121,136,,,,,,1.6,0.8,1.4*19
$GPRMC,030509.00,A,3722.774497,N,12640.640361,E,047.4,217.2,231119,,,A*54
$GPGGA,030510.00,3722.764129,N,12640.630183,E,1,36,0.6,6.6,M,17.7,M,,*6C
$GPGSV,2,1,07,15,69,277,39,13,67,034,28,05,48,084,44,21,32,311,30*77
$GPGSV,2,2,07,24,21,188,34,29,21,240,36,30,19,046,26*4B
$GLGSV,2,1,07,66,47,031,36,67,45,306,36,81,36,211,38,76,32,089,43*66
$GLGSV,2,2,07,83,17,331,17,75,17,037,32,77,16,145,28*54
$QZGSV,1,1,03,01,77,069,33,02,23,152,34,03,15,182,34*51
$BDGSV,3,1,12,213,73,260,28,206,68,262,30,208,63,180,31,216,62,259,33*67
$BDGSV,3,2,12,203,44,206,,220,44,297,32,209,40,244,29,223,37,095,37*6B
$BDGSV,3,3,12,204,34,133,,230,31,226,38,229,29,289,31,225,15,044,30*64
$GAGSV,2,1,07,104,72,344,32,109,33,265,30,112,31,180,27,119,27,059,19*60
$GAGSV,2,2,07,136,27,315,32,121,16,067,30,101,16,118,29*6B
$GPGSA,A,3,05,13,15,21,24,29,30,,,,,,1.6,0.8,1.4*36
$GNGSA,A,3,05,13,15,21,24,29,30,,,,,,1.6,0.8,1.4*28
$GNGSA,A,3,66,67,75,76,77,81,,,,,,,1.6,0.8,1.4*2D
$QZGSA,A,3,01,02,03,,,,,,,,,,1.6,0.8,1.4*24
$IMGSA,A,3,,,,,,,,,,,,,1.6,0.8,1.4*2B
$BDGSA,A,3,206,208,209,213,216,220,223,225,229,230,,,1.6,0.8,1.4*27
$GAGSA,A,3,101,104,109,112,119,121,136,,,,,,1.6,0.8,1.4*19
$GPRMC,030510.00,A,3722.764129,N,12640.630183,E,047.4,217.5,231119,,,A*53
$GPGGA,030511.00,3722.753639,N,12640.620030,E,1,37,0.6,6.7,M,17.7,M,,*67
$GPGSV,2,1,07,15,69,277,38,13,67,034,27,05,48,084,44,21,32,311,31*78
$GPGSV,2,2,07,24,21,188,34,29,21,240,36,30,19,046,25*48
$GLGSV,2,1,07,66,47,031,36,67,45,306,36,81,36,211,38,76,32,089,43*66
$GLGSV,2,2,07,83,17,331,17,75,17,037,32,77,16,145,28*54
$QZGSV,1,1,03,01,77,069,33,02,23,152,34,03,15,182,34*51
$BDGSV,3,1,12,213,73,260,28,206,68,262,30,208,63,180,31,216,62,259,32*66
$BDGSV,3,2,12,203,44,206,,220,44,297,32,209,40,244,29,223,37,095,39*65
$BDGSV,3,3,12,204,34,133,,230,31,226,37,229,29,289,31,225,15,044,30*6B
$GAGSV,2,1,07,104,72,344,32,109,33,265,30,112,31,180,26,119,27,059,20*6B
$GAGSV,2,2,07,136,27,315,32,121,16,067,30,101,16,118,29*6B
$GPGSA,A,3,05,13,15,21,24,29,30,,,,,,1.8,1.0,1.5*30
$GNGSA,A,3,05,13,15,21,24,29,30,,,,,,1.8,1.0,1.5*2E
$GNGSA,A,3,66,67,75,76,77,81,,,,,,,1.8,1.0,1.5*2B
$QZGSA,A,3,01,02,03,,,,,,,,,,1.8,1.0,1.5*22
$IMGSA,A,3,,,,,,,,,,,,,1.8,1.0,1.5*2D
$BDGSA,A,3,206,208,209,213,216,220,223,225,229,230,,,1.8,1.0,1.5*21
$GAGSA,A,3,101,104,109,112,119,121,136,,,,,,1.8,1.0,1.5*1F
$GPRMC,030511.00,A,3722.753639,N,12640.620030,E,047.5,217.6,231119,,,A*5A
$GPGGA,030512.00,3722.743047,N,12640.610024,E,1,36,0.6,6.8,M,17.7,M,,*62
$GPGSV,2,1,07,15,69,277,38,13,67,034,27,05,48,084,44,21,32,311,33*7A
$GPGSV,2,2,07,24,21,188,34,29,21,240,36,30,19,046,25*48
$GLGSV,2,1,07,66,47,031,36,67,45,306,36,81,36,211,38,76,32,089,42*67
$GLGSV,2,2,07,83,17,331,17,75,17,037,31,77,16,145,27*58
$QZGSV,1,1,03,01,77,069,33,02,23,152,33,03,15,182,34*56
$BDGSV,3,1,12,213,73,260,27,206,68,262,32,208,63,180,32,216,62,259,32*68
$BDGSV,3,2,12,203,44,206,,220,44,297,31,209,40,244,30,223,37,095,41*61
$BDGSV,3,3,12,204,34,133,,230,31,226,37,229,29,289,31,225,15,044,30*6B
$GAGSV,2,1,07,104,72,344,31,109,33,265,29,112,31,180,26,119,27,059,20*60
$GAGSV,2,2,07,136,27,315,31,121,16,067,30,101,16,118,28*69
$GPGSA,A,3,05,13,15,21,24,29,30,,,,,,1.7,0.8,1.5*36
$GNGSA,A,3,05,13,15,21,24,29,30,,,,,,1.7,0.8,1.5*28
$GNGSA,A,3,66,67,75,76,77,81,,,,,,,1.7,0.8,1.5*2D
$QZGSA,A,3,01,02,03,,,,,,,,,,1.7,0.8,1.5*24
$IMGSA,A,3,,,,,,,,,,,,,1.7,0.8,1.5*2B
$BDGSA,A,3,206,208,209,213,216,220,223,225,229,230,,,1.7,0.8,1.5*27
$GAGSA,A,3,101,104,109,112,119,121,136,,,,,,1.7,0.8,1.5*19
$GPRMC,030512.00,A,3722.743047,N,12640.610024,E,047.5,216.9,231119,,,A*5F
$GPGGA,030513.00,3722.732315,N,12640.600386,E,1,37,0.4,6.9,M,17.7,M,,*69
$GPGSV,2,1,07,15,69,277,38,13,67,034,28,05,48,084,44,21,32,311,33*75
$GPGSV,2,2,07,24,21,188,33,29,21,240,36,30,19,046,26*4C
$GLGSV,2,1,07,66,47,031,38,67,45,306,35,81,36,211,38,76,32,089,42*6A
$GLGSV,2,2,07,83,17,331,17,75,17,037,31,77,16,145,27*58
$QZGSV,1,1,03,01,77,069,33,02,23,152,32,03,15,182,33*50
$BDGSV,3,1,12,213,73,260,27,206,68,262,33,208,63,180,32,216,62,259,32*69
$BDGSV,3,2,12,203,44,206,26,220,44,297,31,209,40,244,32,223,37,095,42*64
$BDGSV,3,3,12,204,34,133,,230,31,226,37,229,29,289,30,225,15,044,29*62
$GAGSV,2,1,07,104,72,344,31,109,33,265,29,112,31,180,26,119,27,059,20*60
$GAGSV,2,2,07,136,27,315,31,121,16,067,29,101,16,118,28*61
$GPGSA,A,3,05,13,15,21,24,29,30,,,,,,1.6,0.9,1.4*37
$GNGSA,A,3,05,13,15,21,24,29,30,,,,,,1.6,0.9,1.4*29
$GNGSA,A,3,66,67,75,76,77,81,,,,,,,1.6,0.9,1.4*2C
$QZGSA,A,3,01,02,03,,,,,,,,,,1.6,0.9,1.4*25
$IMGSA,A,3,,,,,,,,,,,,,1.6,0.9,1.4*2A
$BDGSA,A,3,203,206,208,209,213,216,220,223,225,229,230,,1.6,0.9,1.4*17
$GAGSA,A,3,101,104,109,112,119,121,136,,,,,,1.6,0.9,1.4*18
$GPRMC,030513.00,A,3722.732315,N,12640.600386,E,047.5,215.6,231119,,,A*5A
$GPGGA,030514.00,3722.721501,N,12640.590830,E,1,36,0.6,7.0,M,17.7,M,,*68
$GPGSV,2,1,07,15,69,277,37,13,67,034,30,05,48,084,44,21,32,311,33*73
$GPGSV,2,2,07,24,21,188,33,29,21,240,36,30,19,046,27*4D
$GLGSV,2,1,07,66,47,031,38,67,45,306,35,81,36,211,38,76,32,089,42*6A
$GLGSV,2,2,07,83,17,331,17,75,17,037,32,77,16,145,27*5B
$QZGSV,1,1,03,01,77,069,32,02,23,152,31,03,15,182,33*52
$BDGSV,3,1,12,213,73,260,26,206,68,262,34,208,63,180,32,216,62,259,34*69
$BDGSV,3,2,12,203,44,206,28,220,44,297,31,209,40,244,32,223,37,095,41*69
$BDGSV,3,3,12,204,34,133,,230,31,226,37,229,29,289,29,225,15,044,29*6A
$GAGSV,2,1,07,104,72,344,30,109,33,265,29,112,31,180,25,119,27,059,21*63
$GAGSV,2,2,07,136,27,315,31,121,16,067,29,101,16,118,28*61
$GPGSA,A,3,05,13,15,21,24,29,30,,,,,,3.5,1.3,3.3*38
$GNGSA,A,3,05,13,15,21,24,29,30,,,,,,3.5,1.3,3.3*26
$GNGSA,A,3,66,67,75,76,77,81,,,,,,,3.5,1.3,3.3*23
$QZGSA,A,3,01,02,03,,,,,,,,,,3.5,1.3,3.3*2A
$IMGSA,A,3,,,,,,,,,,,,,3.5,1.3,3.3*25
$BDGSA,A,3,203,206,208,209,213,216,220,223,225,229,230,,3.5,1.3,3.3*18
$GAGSA,A,3,101,104,109,119,121,136,,,,,,,3.5,1.3,3.3*25
$GPRMC,030514.00,A,3722.721501,N,12640.590830,E,047.5,215.5,231119,,,A*53
$GPGGA,030515.00,3722.710879,N,12640.580978,E,1,37,0.4,7.1,M,17.7,M,,*67
$GPGSV,2,1,07,15,69,277,37,13,67,034,29,05,48,084,44,21,32,311,33*7B
$GPGSV,2,2,07,24,21,188,33,29,21,240,36,30,19,046,27*4D
$GLGSV,2,1,07,66,47,031,38,67,45,306,37,81,36,211,37,76,32,089,42*67
$GLGSV,2,2,07,83,17,331,18,75,17,037,33,77,16,145,27*55
$QZGSV,1,1,03,01,77,069,32,02,23,152,30,03,15,182,32*52
$BDGSV,3,1,12,213,73,260,25,206,68,262,34,208,63,180,32,216,62,259,34*6A
$BDGSV,3,2,12,203,44,206,28,220,44,297,31,209,40,244,32,223,37,095,41*69
$BDGSV,3,3,12,204,34,133,,230,31,226,37,229,29,289,29,225,15,044,29*6A
$GAGSV,2,1,07,104,72,344,30,109,33,265,28,112,31,180,24,119,27,059,21*63
$GAGSV,2,2,07,136,27,315,31,121,16,067,29,101,16,118,28*61
$GPGSA,A,3,05,13,15,21,24,29,30,,,,,,2.0,0.8,1.8*3F
$GNGSA,A,3,05,13,15,21,24,29,30,,,,,,2.0,0.8,1.8*21
$GNGSA,A,3,66,67,75,76,77,81,83,,,,,,2.0,0.8,1.8*2F
$QZGSA,A,3,01,02,03,,,,,,,,,,2.0,0.8,1.8*2D
$IMGSA,A,3,,,,,,,,,,,,,2.0,0.8,1.8*22
$BDGSA,A,3,203,206,208,209,213,216,220,223,225,229,230,,2.0,0.8,1.8*1F
$GAGSA,A,3,101,104,109,119,121,136,,,,,,,2.0,0.8,1.8*22
$GPRMC,030515.00,A,3722.710879,N,12640.580978,E,047.5,216.5,231119,,,A*5D
$GPGGA,030516.00,3722.700328,N,12640.570879,E,1,37,0.4,7.2,M,17.7,M,,*66
$GPGSV,2,1,07,15,69,277,37,13,67,034,29,05,48,084,44,21,32,311,32*7A
$GPGSV,2,2,07,24,21,188,33,29,21,240,37,30,19,046,27*4C
$GLGSV,2,1,07,66,47,031,38,67,45,306,38,81,36,211,37,76,32,089,42*68
$GLGSV,2,2,07,83,17,331,18,75,17,037,33,77,16,145,27*55
$QZGSV,1,1,03,01,77,069,33,02,23,152,30,03,15,182,32*53
$BDGSV,3,1,12,213,73,260,25,206,68,262,33,208,63,180,32,216,62,259,33*6A
$BDGSV,3,2,12,203,44,206,33,220,44,297,30,209,40,244,32,223,37,095,41*62
$BDGSV,3,3,12,204,34,133,,230,31,226,37,229,29,289,29,225,15,044,29*6A
$GAGSV,2,1,07,104,72,344,31,109,33,265,28,112,31,180,23,119,27,059,21*65
$GAGSV,2,2,07,136,27,315,30,121,16,067,28,101,16,118,27*6E
$GPGSA,A,3,05,13,15,21,24,29,30,,,,,,2.1,0.9,1.9*3E
$GNGSA,A,3,05,13,15,21,24,29,30,,,,,,2.1,0.9,1.9*20
$GNGSA,A,3,66,67,75,76,77,81,83,,,,,,2.1,0.9,1.9*2E
$QZGSA,A,3,01,02,03,,,,,,,,,,2.1,0.9,1.9*2C
$IMGSA,A,3,,,,,,,,,,,,,2.1,0.9,1.9*23
$BDGSA,A,3,203,206,208,209,213,216,220,223,225,229,230,,2.1,0.9,1.9*1E
$GAGSA,A,3,101,104,109,119,121,136,,,,,,,2.1,0.9,1.9*23
$GPRMC,030516.00,A,3722.700328,N,12640.570879,E,047.6,217.3,231119,,,A*5B
$GPGGA,030517.00,3722.689807,N,12640.560794,E,1,38,0.4,7.3,M,17.7,M,,*62
$GPGSV,2,1,07,15,69,278,37,13,67,034,29,05,48,084,44,21,32,311,32*75
$GPGSV,2,2,07,24,21,188,33,29,21,240,37,30,19,046,27*4C
$GLGSV,2,1,07,66,47,031,37,67,45,306,38,81,36,211,37,76,32,089,41*64
$GLGSV,2,2,07,83,17,331,18,75,17,037,32,77,16,145,27*54
$QZGSV,1,1,03,01,77,069,33,02,23,152,29,03,15,182,32*5B
$BDGSV,3,1,12,213,73,260,25,206,68,262,33,208,63,180,32,216,62,259,33*6A
$BDGSV,3,2,12,203,44,206,32,220,44,297,30,209,40,244,32,223,37,095,41*63
$BDGSV,3,3,12,204,34,133,21,230,31,226,37,229,29,289,29,225,15,044,29*69
$GAGSV,2,1,07,104,72,344,31,109,33,265,28,112,31,180,22,119,27,059,21*64
$GAGSV,2,2,07,136,27,315,30,121,16,067,28,101,16,118,28*61
$GPGSA,A,3,05,13,15,21,24,29,30,,,,,,2.1,0.9,1.9*3E
$GNGSA,A,3,05,13,15,21,24,29,30,,,,,,2.1,0.9,1.9*20
$GNGSA,A,3,66,67,75,76,77,81,83,,,,,,2.1,0.9,1.9*2E
$QZGSA,A,3,01,02,03,,,,,,,,,,2.1,0.9,1.9*2C
$IMGSA,A,3,,,,,,,,,,,,,2.1,0.9,1.9*23
$BDGSA,A,3,203,204,206,208,209,213,216,220,223,225,229,230,2.1,0.9,1.9*28
$GAGSA,A,3,101,104,109,119,121,136,,,,,,,2.1,0.9,1.9*23
$GPRMC,030517.00,A,3722.689807,N,12640.560794,E,047.6,217.5,231119,,,A*57
$GPGGA,030518.00,3722.679321,N,12640.550646,E,1,37,0.6,7.3,M,17.7,M,,*6D
$GPGSV,2,1,07,15,69,278,37,13,67,034,29,05,48,084,44,21,32,311,32*75
$GPGSV,2,2,07,24,21,188,33,29,21,240,36,30,19,046,27*4D
$GLGSV,2,1,07,66,47,031,37,67,45,306,38,81,36,211,37,76,32,089,41*64
$GLGSV,2,2,07,83,17,331,19,75,17,037,32,77,16,145,27*55
$QZGSV,1,1,03,01,77,069,33,02,23,152,28,03,15,182,33*5B
$BDGSV,3,1,12,213,72,260,24,206,68,262,33,208,63,180,32,216,62,259,33*6A
$BDGSV,3,2,12,203,44,206,31,220,44,297,29,209,40,244,32,223,37,095,41*68
$BDGSV,3,3,12,204,34,133,,230,31,226,36,229,29,289,29,225,15,044,29*6B
$GAGSV,2,1,07,104,72,344,31,109,33,265,28,112,31,180,22,119,27,059,21*64
$GAGSV,2,2,07,136,27,315,30,121,16,067,27,101,16,118,27*61
$GPGSA,A,3,05,13,15,21,24,29,30,,,,,,2.1,1.3,1.7*3B
$GNGSA,A,3,05,13,15,21,24,29,30,,,,,,2.1,1.3,1.7*25
$GNGSA,A,3,66,67,75,76,77,81,83,,,,,,2.1,1.3,1.7*2B
$QZGSA,A,3,01,02,03,,,,,,,,,,2.1,1.3,1.7*29
$IMGSA,A,3,,,,,,,,,,,,,2.1,1.3,1.7*26
$BDGSA,A,3,203,206,208,209,213,216,220,223,225,229,230,,2.1,1.3,1.7*1B
$GAGSA,A,3,101,104,109,119,121,136,,,,,,,2.1,1.3,1.7*26
$GPRMC,030518.00,A,3722.679321,N,12640.550646,E,047.6,217.6,231119,,,A*56
$GPGGA,030519.00,3722.668827,N,12640.540423,E,1,37,0.8,7.5,M,17.7,M,,*69
$GPGSV,2,1,07,15,69,278,37,13,67,034,30,05,48,084,44,21,32,311,32*7D
$GPGSV,2,2,07,24,21,188,33,29,21,240,37,30,19,046,27*4C
$GLGSV,2,1,07,66,47,031,37,67,45,306,38,81,36,211,37,76,32,089,41*64
$GLGSV,2,2,07,83,17,331,19,75,17,037,32,77,16,145,27*55
$QZGSV,1,1,03,01,77,069,33,02,23,152,28,03,15,182,33*5B
$BDGSV,3,1,12,213,72,260,23,206,68,262,32,208,63,180,32,216,62,259,33*6C
$BDGSV,3,2,12,203,44,206,31,220,44,297,29,209,40,244,31,223,37,095,41*6B
$BDGSV,3,3,12,204,34,133,,230,31,226,37,229,29,289,32,225,15,044,29*60
