$GNVTG,,T,,M,0.009,N,0.017,K,A*32
$GNGGA,024229.00,3722.86425,N,12640.71466,E,1,12,0.56,9.2,M,17.9,M,,*43
$GNGSA,A,3,02,13,193,15,05,29,30,21,195,194,42,24,1.04,0.56,0.88*2A
$GNGSA,A,3,413,406,416,430,403,401,427,420,409,425,423,404,1.04,0.56,0.88*14
$GNVTG,,T,,M,0.021,N,0.040,K,A*3A
$GNGGA,024230.00,3722.86426,N,12640.71464,E,1,12,0.56,9.2,M,17.9,M,,*4A
$GNGSA,A,3,02,13,193,15,05,29,30,21,195,194,42,24,1.04,0.56,0.88*2A
$GNGSA,A,3,413,406,416,430,403,401,427,420,409,425,423,404,1.04,0.56,0.88*14
$GNVTG,,T,,M,0.081,N,0.151,K,A*31
$GNGGA,024231.00,3722.86428,N,12640.71461,E,1,12,0.56,9.1,M,17.9,M,,*43
$GNGSA,A,3,02,13,193,15,05,29,30,21,195,194,42,24,1.04,0.56,0.88*2A
$GNGSA,A,3,413,406,416,430,403,401,427,420,409,425,423,404,1.04,0.56,0.88*14
$GNVTG,,T,,M,0.027,N,0.049,K,A*35
$GNGGA,024232.00,3722.86428,N,12640.71459,E,1,12,0.56,9.2,M,17.9,M,,*48
$GNGSA,A,3,02,13,193,15,05,29,30,21,195,194,42,24,1.04,0.56,0.88*2A
$GNGSA,A,3,413,406,416,430,403,401,427,420,409,425,423,404,1.04,0.56,0.88*14
$GNVTG,,T,,M,0.006,N,0.011,K,A*3B
$GNGGA,024233.00,3722.86428,N,12640.71458,E,1,12,0.56,9.2,M,17.9,M,,*48
$GNGSA,A,3,02,13,193,15,05,29,30,21,195,194,42,24,1.04,0.56,0.88*2A
$GNGSA,A,3,413,406,416,430,403,401,427,420,409,425,423,404,1.04,0.56,0.88*14
$GNVTG,,T,,M,0.026,N,0.048,K,A*35
$GNGGA,024234.00,3722.86428,N,12640.71458,E,1,12,0.56,9.2,M,17.9,M,,*4F
$GNGSA,A,3,02,13,193,15,05,29,30,21,195,194,42,24,1.04,0.56,0.88*2A
$GNGSA,A,3,413,406,416,430,403,401,427,420,409,425,423,404,1.04,0.56,0.88*14
$GNVTG,,T,,M,0.100,N,0.185,K,A*30
$GNGGA,024235.00,3722.86430,N,12640.71455,E,1,12,0.56,9.2,M,17.9,M,,*4A
$GNGSA,A,3,02,13,193,15,05,29,30,21,195,194,42,24,1.04,0.56,0.88*2A
$GNGSA,A,3,413,406,416,430,403,401,427,420,409,425,423,404,1.04,0.56,0.88*14
$GNVTG,,T,,M,0.008,N,0.015,K,A*31
$GNGGA,024236.00,3722.86431,N,12640.71453,E,1,12,0.57,9.2,M,17.9,M,,*4F
$GNGSA,A,3,02,13,193,15,05,29,30,21,195,194,42,24,1.05,0.57,0.88*2A
$GNGSA,A,3,413,406,416,430,403,401,427,420,409,425,423,404,1.05,0.57,0.88*14
$GNGLL,3722.86431,N,12640.71453,E,024236.00,A,A*7F
$GNZDA,024236.00,23,11,2019,00,00*72
$GNVTG,,T,,M,0.031,N,0.057,K,A*3D
$GNGGA,024237.00,3722.86431,N,12640.71453,E,1,12,0.57,9.2,M,17.9,M,,*4E
$GNGSA,A,3,02,13,193,15,05,29,30,21,195,194,42,24,1.05,0.57,0.88*2A
$GNGSA,A,3,413,406,416,430,403,401,427,420,409,425,423,402,1.05,0.57,0.88*12
$GNVTG,,T,,M,0.010,N,0.018,K,A*35
$GNGGA,024238.00,3722.86432,N,12640.71452,E,1,12,0.56,9.2,M,17.9,M,,*42
$GNGSA,A,3,02,13,193,15,05,29,30,21,195,194,42,24,1.01,0.56,0.84*23
$GNGSA,A,3,408,413,406,416,430,403,401,427,420,409,425,423,1.01,0.56,0.84*11
$GNZDA,024238.00,23,11,2019,00,00*7C
$GNVTG,,T,,M,0.010,N,0.019,K,A*34
$GNGGA,024239.00,3722.86433,N,12640.71451,E,1,12,0.57,9.2,M,17.9,M,,*40
$GNGSA,A,3,02,13,193,15,05,29,30,21,195,194,42,24,1.01,0.57,0.84*22
$GNGSA,A,3,408,413,406,416,430,403,401,427,420,409,425,423,1.01,0.57,0.84*10
$GNVTG,,T,,M,0.012,N,0.022,K,A*3E
$GNGGA,024240.00,3722.86434,N,12640.71450,E,1,12,0.57,9.2,M,17.9,M,,*48
$GNGSA,A,3,02,13,193,15,05,29,30,21,195,194,42,24,1.01,0.57,0.84*22
$GNGSA,A,3,408,413,406,416,430,403,401,427,420,409,425,423,1.01,0.57,0.84*10
$GNGLL,3722.86434,N,12640.71450,E,024240.00,A,A*78
$GNVTG,,T,,M,0.018,N,0.032,K,A*35
$GNGGA,024241.00,3722.86434,N,12640.71447,E,1,12,0.57,9.2,M,17.9,M,,*4F
$GNGSA,A,3,02,13,193,15,05,29,30,21,195,194,42,24,1.01,0.57,0.84*22
$GNGSA,A,3,408,413,406,416,430,403,401,427,420,409,425,423,1.01,0.57,0.84*10
$GNGLL,3722.86434,N,12640.71447,E,024241.00,A,A*7F
$GNZDA,024241.00,23,11,2019,00,00*72
$GNVTG,,T,,M,0.014,N,0.026,K,A*3C
$GNGGA,024242.00,3722.86435,N,12640.71446,E,1,12,0.57,9.2,M,17.9,M,,*4C
$GNGSA,A,3,02,13,193,15,05,29,30,21,195,194,42,24,1.01,0.57,0.84*22
$GNGSA,A,3,408,413,406,416,430,403,401,427,420,409,425,423,1.01,0.57,0.84*10
$GNVTG,,T,,M,0.004,N,0.008,K,A*31
$GNGGA,024243.00,3722.86436,N,12640.71444,E,1,12,0.57,9.3,M,17.9,M,,*4D
$GNGSA,A,3,02,13,193,15,05,29,30,21,195,194,42,24,1.01,0.57,0.84*22
$GNGSA,A,3,408,413,406,416,430,403,401,427,420,409,425,423,1.01,0.57,0.84*10
$GNGLL,3722.86436,N,12640.71444,E,024243.00,A,A*7C
$GNVTG,,T,,M,0.010,N,0.019,K,A*34
$GNGGA,024244.00,3722.86437,N,12640.71443,E,1,12,0.57,9.3,M,17.9,M,,*4C
$GNGSA,A,3,02,13,193,15,05,29,30,21,195,194,42,24,1.01,0.57,0.84*22
$GNGSA,A,3,408,413,406,416,430,403,401,427,420,409,425,423,1.01,0.57,0.84*10
$GNGLL,3722.86437,N,12640.71443,E,024244.00,A,A*7D
$GNVTG,,T,,M,0.117,N,0.217,K,A*3E
$GNGGA,024245.00,3722.86437,N,12640.71440,E,1,12,0.57,9.3,M,17.9,M,,*4E
$GNGSA,A,3,02,13,193,15,05,29,30,21,195,194,42,24,1.01,0.57,0.84*22
$GNGSA,A,3,408,413,406,416,430,403,401,427,420,409,425,423,1.01,0.57,0.84*10
$GNGLL,3722.86437,N,12640.71440,E,024245.00,A,A*7F
$GNVTG,215.15,T,,M,3.797,N,7.032,K,A*2D
$GNGGA,024246.00,3722.86376,N,12640.71385,E,1,12,0.57,9.3,M,17.9,M,,*41
$GNGSA,A,3,02,13,193,15,05,29,30,21,195,194,42,24,1.01,0.57,0.84*22
$GNGSA,A,3,408,413,406,416,430,403,401,427,420,409,425,423,1.01,0.57,0.84*10
$GNGLL,3722.86376,N,12640.71385,E,024246.00,A,A*70
$GNVTG,210.09,T,,M,7.552,N,13.986,K,A*19
$GNGGA,024247.00,3722.86222,N,12640.71270,E,1,12,0.57,9.2,M,17.9,M,,*4A
$GNGSA,A,3,02,13,193,15,05,29,30,21,195,194,42,24,1.01,0.57,0.84*22
$GNGSA,A,3,408,413,406,416,430,403,401,427,420,409,425,423,1.01,0.57,0.84*10
$GNGLL,3722.86222,N,12640.71270,E,024247.00,A,A*7A
$GNVTG,209.37,T,,M,10.566,N,19.568,K,A*2B
$GNGGA,024248.00,3722.85989,N,12640.71104,E,1,12,0.56,9.2,M,17.9,M,,*4D
$GNGSA,A,3,02,13,193,15,05,29,30,21,195,194,42,24,1.01,0.56,0.84*23
$GNGSA,A,3,408,413,406,416,430,403,401,427,420,409,425,423,1.01,0.56,0.84*11
$GNGLL,3722.85989,N,12640.71104,E,024248.00,A,A*7C
$GNVTG,211.22,T,,M,13.362,N,24.747,K,A*26
$GNGGA,024249.00,3722.85689,N,12640.70878,E,1,12,0.56,9.2,M,17.9,M,,*40
$GNGSA,A,3,02,13,193,15,05,29,30,21,195,194,42,24,1.01,0.56,0.84*23
$GNGSA,A,3,408,413,406,416,430,403,401,427,420,409,425,423,1.01,0.56,0.84*11
$GNVTG,213.82,T,,M,15.165,N,28.085,K,D*2D
$GNGGA,024250.00,3722.85348,N,12640.70598,E,2,12,0.57,9.2,M,17.9,M,,0000*41
$GNGSA,A,3,02,13,193,15,05,29,30,21,195,194,42,24,1.01,0.57,0.84*22
$GNGSA,A,3,408,413,406,416,430,403,401,427,420,409,425,423,1.01,0.57,0.84*10
$GNGLL,3722.85348,N,12640.70598,E,024250.00,A,D*77
$GNVTG,216.02,T,,M,16.037,N,29.700,K,D*2E
$GNGGA,024251.00,3722.84990,N,12640.70278,E,2,12,0.57,9.2,M,17.9,M,,0000*47
$GNGSA,A,3,02,13,193,15,05,29,30,21,195,194,42,24,1.01,0.57,0.84*22
$GNGSA,A,3,408,413,406,416,430,403,401,427,420,409,425,423,1.01,0.57,0.84*10
$GNGLL,3722.84990,N,12640.70278,E,024251.00,A,D*71
$GNVTG,216.77,T,,M,16.136,N,29.884,K,D*2F
$GNGGA,024252.00,3722.84627,N,12640.69943,E,2,12,0.57,9.3,M,17.9,M,,0000*4D
$GNGSA,A,3,02,13,193,15,05,29,30,21,195,194,42,24,1.01,0.57,0.84*22
$GNGSA,A,3,408,413,406,416,430,403,401,427,420,409,425,423,1.01,0.57,0.84*10
$GNVTG,217.08,T,,M,16.009,N,29.649,K,D*24
$GNGGA,024253.00,3722.84271,N,12640.69604,E,2,12,0.57,9.3,M,17.9,M,,0000*47
$GNGSA,A,3,02,13,193,15,05,29,30,21,195,194,42,24,1.01,0.57,0.84*22
$GNGSA,A,3,408,413,406,416,430,403,401,427,420,409,425,423,1.01,0.57,0.84*10
$GNVTG,217.32,T,,M,15.907,N,29.460,K,D*20
$GNGGA,024254.00,3722.83918,N,12640.69266,E,2,12,0.57,9.4,M,17.9,M,,0000*44
$GNGSA,A,3,02,13,193,15,05,29,30,21,195,194,42,24,1.01,0.57,0.84*22
$GNGSA,A,3,408,413,406,416,430,403,401,427,420,409,425,423,1.01,0.57,0.84*10
$GNGLL,3722.83918,N,12640.69266,E,024254.00,A,D*74
$GNVTG,217.37,T,,M,15.855,N,29.363,K,D*27
$GNGGA,024255.00,3722.83566,N,12640.68929,E,2,12,0.56,9.4,M,17.9,M,,0000*40
$GNGSA,A,3,02,13,193,15,05,29,30,21,195,194,42,24,1.01,0.56,0.84*23
$GNGSA,A,3,408,413,406,416,430,403,401,427,420,409,425,423,1.01,0.56,0.84*11
$GNVTG,217.19,T,,M,15.736,N,29.142,K,D*20
$GNGGA,024256.00,3722.83215,N,12640.68595,E,2,12,0.56,9.5,M,17.9,M,,0000*4A
$GNGSA,A,3,02,13,193,15,05,29,30,21,195,194,42,24,1.01,0.56,0.84*23
$GNGSA,A,3,408,413,406,416,430,403,401,427,420,409,425,423,1.01,0.56,0.84*11
$GNVTG,217.67,T,,M,15.687,N,29.053,K,D*23
$GNGGA,024257.00,3722.82866,N,12640.68261,E,2,12,0.56,9.5,M,17.9,M,,0000*48
$GNGSA,A,3,02,13,193,15,05,29,30,21,195,194,42,24,1.01,0.56,0.84*23
$GNGSA,A,3,408,413,406,416,430,403,401,427,420,409,425,423,1.01,0.56,0.84*11
$GNGLL,3722.82866,N,12640.68261,E,024257.00,A,D*78
$GNVTG,217.40,T,,M,15.734,N,29.140,K,D*2C
$GNGGA,024258.00,3722.82517,N,12640.67927,E,2,12,0.56,9.5,M,17.9,M,,0000*4A
$GNGSA,A,3,02,13,193,15,05,29,30,21,195,194,42,24,1.01,0.56,0.84*23
$GNGSA,A,3,408,413,406,416,430,403,401,427,420,409,425,423,1.01,0.56,0.84*11
$GNVTG,217.41,T,,M,15.686,N,29.051,K,D*24
$GNGGA,024259.00,3722.82169,N,12640.67595,E,2,12,0.56,9.5,M,17.9,M,,0000*43
$GNGSA,A,3,02,13,193,15,05,29,30,21,195,194,42,24,1.01,0.56,0.84*23
$GNGSA,A,3,408,413,406,416,430,403,401,427,420,409,425,423,1.01,0.56,0.84*11
$GNVTG,217.66,T,,M,15.693,N,29.063,K,D*24
$GNGGA,024300.00,3722.81822,N,12640.67261,E,2,12,0.56,9.5,M,17.9,M,,0000*47
$GNGSA,A,3,02,13,193,15,05,29,30,21,195,194,42,24,1.01,0.56,0.84*23
$GNGSA,A,3,408,413,406,416,430,403,401,427,420,409,425,423,1.01,0.56,0.84*11
$GNGLL,3722.81822,N,12640.67261,E,024300.00,A,D*77
$GNVTG,217.60,T,,M,15.624,N,28.936,K,D*26
$GNGGA,024301.00,3722.81476,N,12640.66926,E,2,12,0.56,9.4,M,17.9,M,,0000*43
$GNGSA,A,3,02,13,193,15,05,29,30,21,195,194,42,24,1.01,0.56,0.84*23
$GNGSA,A,3,408,413,406,416,430,403,401,427,420,409,425,423,1.01,0.56,0.84*11
$GNVTG,217.28,T,,M,15.595,N,28.883,K,D*2C
$GNGGA,024302.00,3722.81130,N,12640.66595,E,2,12,0.56,9.4,M,17.9,M,,0000*43
$GNGSA,A,3,02,13,193,15,05,29,30,21,195,194,42,24,1.01,0.56,0.84*23
$GNGSA,A,3,408,413,406,416,430,403,401,427,420,409,425,423,1.01,0.56,0.84*11
$GNVTG,217.56,T,,M,15.639,N,28.963,K,D*2F
$GNGGA,024303.00,3722.80784,N,12640.66262,E,2,12,0.56,9.4,M,17.9,M,,0000*45
$GNGSA,A,3,02,13,193,15,05,29,30,21,195,194,42,24,1.01,0.56,0.84*23
$GNGSA,A,3,408,413,406,416,430,403,401,427,420,409,425,423,1.01,0.56,0.84*11
$GNVTG,217.87,T,,M,15.607,N,28.904,K,D*2F
$GNGGA,024304.00,3722.80440,N,12640.65929,E,2,12,0.56,9.3,M,17.9,M,,0000*49
$GNGSA,A,3,02,13,193,15,05,29,30,21,195,194,42,24,1.01,0.56,0.84*23
$GNGSA,A,3,408,413,406,416,430,403,401,427,420,409,425,423,1.01,0.56,0.84*11
$GNVTG,217.83,T,,M,15.606,N,28.903,K,D*2D
$GNGGA,024305.00,3722.80097,N,12640.65595,E,2,12,0.56,9.3,M,17.9,M,,0000*4D
$GNGSA,A,3,02,13,193,15,05,29,30,21,195,194,42,24,1.01,0.56,0.84*23
$GNGSA,A,3,408,413,406,416,430,403,401,427,420,409,425,423,1.01,0.56,0.84*11
$GNGLL,3722.80097,N,12640.65595,E,024305.00,A,D*7B
$GNVTG,217.79,T,,M,15.646,N,28.976,K,D*2E
$GNGGA,024306.00,3722.79752,N,12640.65261,E,2,12,0.56,9.4,M,17.9,M,,0000*4D
$GNGSA,A,3,02,13,193,15,05,29,30,21,195,194,42,24,1.01,0.56,0.84*23
$GNGSA,A,3,408,413,406,416,430,403,401,427,420,409,425,423,1.01,0.56,0.84*11
$GNVTG,218.00,T,,M,15.625,N,28.938,K,D*20
$GNGGA,024307.00,3722.79408,N,12640.64926,E,2,12,0.56,9.4,M,17.9,M,,0000*49
$GNGSA,A,3,02,13,193,15,05,29,30,21,195,194,42,24,1.01,0.56,0.84*23
$GNGSA,A,3,408,413,406,416,430,403,401,427,420,409,425,423,1.01,0.56,0.84*11
$GNVTG,218.09,T,,M,15.614,N,28.917,K,D*26
$GNGGA,024308.00,3722.79066,N,12640.64590,E,2,12,0.57,9.3,M,17.9,M,,0000*4D
$GNGSA,A,3,02,13,15,05,29,30,21,195,194,42,24,,1.06,0.57,0.89*13
$GNGSA,A,3,408,413,406,416,430,403,401,427,420,409,425,423,1.06,0.57,0.89*1A
$GNVTG,217.89,T,,M,15.618,N,28.924,K,D*2D
$GNGGA,024309.00,3722.78723,N,12640.64255,E,2,12,0.56,9.3,M,17.9,M,,0000*44
$GNGSA,A,3,02,13,15,05,29,30,21,195,194,42,24,,1.04,0.56,0.88*11
$GNGSA,A,3,408,413,406,416,430,403,401,427,420,409,425,423,1.04,0.56,0.88*18
$GNVTG,218.06,T,,M,15.683,N,29.045,K,D*28
$GNGGA,024310.00,3722.78378,N,12640.63919,E,2,12,0.57,9.4,M,17.9,M,,0000*44
$GNGSA,A,3,02,13,15,05,29,30,21,195,194,42,24,,1.05,0.57,0.88*11
$GNGSA,A,3,408,413,406,416,430,403,401,427,420,409,425,423,1.05,0.57,0.88*18
$GNGLL,3722.78378,N,12640.63919,E,024310.00,A,D*74
$GNVTG,217.86,T,,M,15.679,N,29.037,K,D*2F
$GNGGA,024311.00,3722.78034,N,12640.63583,E,2,12,0.57,9.4,M,17.9,M,,0000*41
$GNGSA,A,3,02,13,15,05,29,30,21,195,194,42,24,,1.05,0.57,0.88*11
$GNGSA,A,3,408,413,406,416,430,403,401,427,420,409,425,423,1.05,0.57,0.88*18
$GNVTG,217.71,T,,M,15.766,N,29.198,K,D*2C
$GNGGA,024312.00,3722.77686,N,12640.63248,E,2,12,0.57,9.5,M,17.9,M,,0000*43
$GNGSA,A,3,02,13,193,15,05,29,30,21,195,194,42,24,1.01,0.57,0.84*22
$GNGSA,A,3,408,413,406,416,430,403,401,427,420,409,425,423,1.01,0.57,0.84*10
$GNVTG,217.91,T,,M,15.789,N,29.241,K,D*24
$GNGGA,024313.00,3722.77339,N,12640.62911,E,2,12,0.57,9.6,M,17.9,M,,0000*46
$GNGSA,A,3,02,13,193,15,05,29,30,21,195,194,42,24,1.01,0.57,0.84*22
$GNGSA,A,3,408,413,406,416,430,403,401,427,420,409,425,423,1.01,0.57,0.84*10
$GNVTG,217.81,T,,M,15.839,N,29.333,K,D*25
$GNGGA,024314.00,3722.76991,N,12640.62573,E,2,12,0.57,9.6,M,17.9,M,,0000*40
$GNGSA,A,3,02,13,193,15,05,29,30,21,195,194,42,24,1.01,0.57,0.84*22
$GNGSA,A,3,408,413,406,416,430,403,401,427,420,409,425,423,1.01,0.57,0.84*10
$GNVTG,217.79,T,,M,15.794,N,29.251,K,D*2F
$GNGGA,024315.00,3722.76642,N,12640.62234,E,2,12,0.57,9.6,M,17.9,M,,0000*44
$GNGSA,A,3,02,13,193,15,05,29,30,21,195,194,42,24,1.01,0.57,0.84*22
$GNGSA,A,3,408,413,406,416,430,403,401,427,420,409,425,423,1.01,0.57,0.84*10
$GNVTG,217.43,T,,M,15.867,N,29.385,K,D*2D
$GNGGA,024316.00,3722.76292,N,12640.61898,E,2,12,0.57,9.6,M,17.9,M,,0000*41
$GNGSA,A,3,02,13,193,15,05,29,30,21,195,194,42,24,1.01,0.57,0.84*22
$GNGSA,A,3,408,413,406,416,430,403,401,427,420,409,425,423,1.01,0.57,0.84*10
$GNVTG,217.46,T,,M,15.864,N,29.381,K,D*2F
$GNGGA,024317.00,3722.75943,N,12640.61562,E,2,12,0.57,9.6,M,17.9,M,,0000*4C
$GNGSA,A,3,02,13,193,15,05,29,30,21,195,194,42,24,1.01,0.57,0.84*22
$GNGSA,A,3,408,413,406,416,430,403,401,427,420,409,425,423,1.01,0.57,0.84*10
$GNVTG,217.31,T,,M,15.861,N,29.374,K,D*20
$GNGGA,024318.00,3722.75592,N,12640.61227,E,2,12,0.57,9.6,M,17.9,M,,0000*45
$GNGSA,A,3,02,13,193,15,05,29,30,21,195,194,42,24,1.01,0.57,0.84*22
$GNGSA,A,3,408,413,406,416,430,403,401,427,420,409,425,423,1.01,0.57,0.84*10
$GNVTG,217.28,T,,M,15.874,N,29.399,K,D*2F
$GNGGA,024319.00,3722.75241,N,12640.60892,E,2,12,0.57,9.6,M,17.9,M,,0000*48
$GNGSA,A,3,02,13,193,15,05,29,30,21,195,194,42,24,1.01,0.57,0.84*22
$GNGSA,A,3,408,413,406,416,430,403,401,427,420,409,425,423,1.01,0.57,0.84*10
$GNGLL,3722.75241,N,12640.60892,E,024319.00,A,D*7A
$GNVTG,217.33,T,,M,15.781,N,29.227,K,D*24
$GNGGA,024320.00,3722.74891,N,12640.60558,E,2,12,0.57,9.6,M,17.9,M,,0000*4F
$GNGSA,A,3,02,13,193,15,05,29,30,21,195,194,42,24,1.01,0.57,0.84*22
$GNGSA,A,3,408,413,406,416,430,403,401,427,420,409,425,423,1.01,0.57,0.84*10
$GNGLL,3722.74891,N,12640.60558,E,024320.00,A,D*7D
$GNVTG,217.36,T,,M,15.785,N,29.234,K,D*27
$GNGGA,024321.00,3722.74542,N,12640.60226,E,2,12,0.57,9.6,M,17.9,M,,0000*43
$GNGSA,A,3,02,13,193,15,05,29,30,21,195,194,42,24,1.01,0.57,0.84*22
$GNGSA,A,3,408,413,406,416,430,403,401,427,420,409,425,423,1.01,0.57,0.84*10
$GNVTG,217.72,T,,M,15.777,N,29.220,K,D*2F
$GNGGA,024322.00,3722.74194,N,12640.59891,E,2,12,0.57,9.7,M,17.9,M,,0000*42
$GNGSA,A,3,02,13,193,15,05,29,30,21,195,194,42,24,1.01,0.57,0.84*22
$GNGSA,A,3,408,413,406,416,430,403,401,427,420,409,425,423,1.01,0.57,0.84*10
$GNVTG,217.99,T,,M,15.686,N,29.051,K,D*21
$GNGGA,024323.00,3722.73849,N,12640.59555,E,2,12,0.58,9.7,M,17.9,M,,0000*47
$GNGSA,A,3,13,193,15,05,29,30,21,195,194,42,24,,1.02,0.58,0.84*2C
$GNGSA,A,3,408,413,406,416,430,403,401,427,420,409,425,423,1.02,0.58,0.84*1C
$GNGLL,3722.73849,N,12640.59555,E,024323.00,A,D*7B
$GNVTG,217.65,T,,M,15.750,N,29.170,K,D*2A
$GNGGA,024324.00,3722.73502,N,12640.59219,E,2,12,0.59,9.6,M,17.9,M,,0000*4D
$GNGSA,A,3,13,193,15,05,29,30,21,195,194,42,24,,1.06,0.59,0.88*25
$GNGSA,A,3,408,413,406,416,430,403,401,420,409,425,423,402,1.06,0.59,0.88*12
$GNVTG,217.94,T,,M,15.691,N,29.060,K,D*28
$GNGGA,024325.00,3722.73158,N,12640.58883,E,2,12,0.57,9.7,M,17.9,M,,0000*40
$GNGSA,A,3,02,13,193,15,05,29,30,21,195,194,42,24,1.01,0.57,0.84*22
$GNGSA,A,3,408,413,406,416,430,403,401,427,420,409,425,423,1.01,0.57,0.84*10
$GNVTG,217.51,T,,M,15.683,N,29.045,K,D*25
$GNGGA,024326.00,3722.72811,N,12640.58549,E,2,12,0.57,9.8,M,17.9,M,,0000*42
$GNGSA,A,3,02,13,193,15,05,29,30,21,195,194,42,24,1.01,0.57,0.84*22
$GNGSA,A,3,408,413,406,416,430,403,401,427,420,409,425,423,1.01,0.57,0.84*10
$GNGLL,3722.72811,N,12640.58549,E,024326.00,A,D*7E
$GNVTG,217.39,T,,M,15.616,N,28.921,K,D*2D
$GNGGA,024327.00,3722.72464,N,12640.58218,E,2,12,0.57,9.8,M,17.9,M,,0000*4E
$GNGSA,A,3,02,13,193,15,05,29,30,21,195,194,42,24,1.01,0.57,0.84*22
$GNGSA,A,3,408,413,406,416,430,403,401,427,420,409,425,423,1.01,0.57,0.84*10
$GNVTG,217.39,T,,M,15.587,N,28.868,K,D*2A
$GNGGA,024328.00,3722.72118,N,12640.57889,E,2,12,0.57,9.8,M,17.9,M,,0000*42
$GNGSA,A,3,02,13,193,15,05,29,30,21,195,194,42,24,1.01,0.57,0.84*22
$GNGSA,A,3,408,413,406,416,430,403,401,427,420,409,425,423,1.01,0.57,0.84*10
$GNVTG,217.71,T,,M,15.597,N,28.886,K,D*27
$GNGGA,024329.00,3722.71774,N,12640.57557,E,2,12,0.57,9.9,M,17.9,M,,0000*43
$GNGSA,A,3,02,13,193,15,05,29,30,21,195,194,42,24,1.01,0.57,0.84*22
$GNGSA,A,3,408,413,406,416,430,403,401,427,420,409,425,423,1.01,0.57,0.84*10
$GNVTG,217.84,T,,M,15.615,N,28.920,K,D*29
$GNGGA,024330.00,3722.71431,N,12640.57224,E,2,12,0.56,9.9,M,17.9,M,,0000*4B
$GNGSA,A,3,02,13,193,15,05,29,30,21,195,194,42,24,1.01,0.56,0.84*23
$GNGSA,A,3,408,413,406,416,430,403,401,427,420,409,425,423,1.01,0.56,0.84*11
$GNGLL,3722.71431,N,12640.57224,E,024330.00,A,D*77
$GNVTG,218.13,T,,M,15.569,N,28.834,K,D*24
$GNGGA,024331.00,3722.71090,N,12640.56890,E,2,12,0.56,9.9,M,17.9,M,,0000*41
$GNGSA,A,3,02,13,193,15,05,29,30,21,195,194,42,24,1.01,0.56,0.84*23
$GNGSA,A,3,408,413,406,416,430,403,401,427,420,409,425,423,1.01,0.56,0.84*11
$GNVTG,218.20,T,,M,15.625,N,28.937,K,D*2D
$GNGGA,024332.00,3722.70748,N,12640.56554,E,2,12,0.56,9.9,M,17.9,M,,0000*44
$GNGSA,A,3,02,13,193,15,05,29,30,21,195,194,42,24,1.01,0.56,0.84*23
$GNGSA,A,3,408,413,406,416,430,403,401,427,420,409,425,423,1.01,0.56,0.84*11
$GNVTG,218.09,T,,M,15.664,N,29.011,K,D*2F
$GNGGA,024333.00,3722.70406,N,12640.56217,E,2,12,0.56,9.9,M,17.9,M,,0000*4C
$GNGSA,A,3,02,13,193,15,05,29,30,21,195,194,42,24,1.01,0.56,0.84*23
$GNGSA,A,3,408,413,406,416,430,403,401,427,420,409,425,423,1.01,0.56,0.84*11
$GNGLL,3722.70406,N,12640.56217,E,024333.00,A,D*70
$GNVTG,217.92,T,,M,15.775,N,29.216,K,D*26
$GNGGA,024334.00,3722.70061,N,12640.55881,E,2,12,0.56,9.9,M,17.9,M,,0000*48
$GNGSA,A,3,02,13,193,15,05,29,30,21,195,194,42,24,1.01,0.56,0.84*23
$GNGSA,A,3,408,413,406,416,430,403,401,427,420,409,425,423,1.01,0.56,0.84*11
$GNVTG,217.93,T,,M,15.786,N,29.235,K,D*2A
$GNGGA,024335.00,3722.69716,N,12640.55542,E,2,12,0.56,9.9,M,17.9,M,,0000*44
$GNGSA,A,3,02,13,193,15,05,29,30,21,195,194,42,24,1.01,0.56,0.84*23
$GNGSA,A,3,408,413,406,416,430,403,401,427,420,409,425,423,1.01,0.56,0.84*11
$GNVTG,217.97,T,,M,15.803,N,29.267,K,D*2B
$GNGGA,024336.00,3722.69370,N,12640.55203,E,2,12,0.56,10.0,M,17.9,M,,0000*70
$GNGSA,A,3,02,13,193,15,05,29,30,21,195,194,42,24,1.01,0.56,0.84*23
$GNGSA,A,3,408,413,406,416,430,403,401,427,420,409,425,423,1.01,0.56,0.84*11
$GNVTG,217.44,T,,M,15.762,N,29.192,K,D*24
$GNGGA,024337.00,3722.69021,N,12640.54868,E,2,12,0.56,9.9,M,17.9,M,,0000*41
$GNGSA,A,3,02,13,193,15,05,29,30,21,195,194,42,24,1.01,0.56,0.84*23
$GNGSA,A,3,408,413,406,416,430,403,401,427,420,409,425,423,1.01,0.56,0.84*11
$GNGLL,3722.69021,N,12640.54868,E,024337.00,A,D*7D
$GNVTG,217.09,T,,M,15.745,N,29.159,K,D*2F
$GNGGA,024338.00,3722.68673,N,12640.54537,E,2,12,0.56,9.9,M,17.9,M,,0000*49
$GNGSA,A,3,02,13,193,15,05,29,30,21,195,194,42,24,1.01,0.56,0.84*23
$GNGSA,A,3,408,413,406,416,430,403,401,427,420,409,425,423,1.01,0.56,0.84*11
$GNVTG,217.73,T,,M,15.911,N,29.467,K,D*25
$GNGGA,024339.00,3722.68324,N,12640.54200,E,2,12,0.56,9.8,M,17.9,M,,0000*4D
$GNGSA,A,3,02,13,193,15,05,29,30,21,195,194,42,24,1.01,0.56,0.84*23
$GNGSA,A,3,408,413,406,416,430,403,401,427,420,409,425,423,1.01,0.56,0.84*11
$GNVTG,217.83,T,,M,15.766,N,29.199,K,D*20
$GNGGA,024340.00,3722.67976,N,12640.53863,E,2,12,0.57,9.8,M,17.9,M,,0000*48
$GNGSA,A,3,02,13,193,15,05,29,30,21,195,194,42,24,1.01,0.57,0.84*22
$GNGSA,A,3,408,413,406,416,430,403,401,427,420,409,425,423,1.01,0.57,0.84*10
$GNVTG,217.65,T,,M,15.825,N,29.308,K,D*2A
$GNGGA,024341.00,3722.67627,N,12640.53526,E,2,12,0.57,9.7,M,17.9,M,,0000*41
$GNGSA,A,3,02,13,193,15,05,29,30,21,195,194,42,24,1.01,0.57,0.84*22
$GNGSA,A,3,408,413,406,416,430,403,401,427,420,409,425,423,1.01,0.57,0.84*10
$GNVTG,217.47,T,,M,15.762,N,29.191,K,D*24
$GNGGA,024342.00,3722.67279,N,12640.53192,E,2,12,0.57,9.7,M,17.9,M,,0000*46
$GNGSA,A,3,02,13,193,15,05,29,30,21,195,194,42,24,1.01,0.57,0.84*22
$GNGSA,A,3,408,413,406,416,430,403,401,427,420,409,425,423,1.01,0.57,0.84*10
$GNVTG,217.57,T,,M,15.700,N,29.076,K,D*29
$GNGGA,024343.00,3722.66932,N,12640.52858,E,2,12,0.57,9.7,M,17.9,M,,0000*4C
$GNGSA,A,3,02,13,15,05,29,30,21,195,194,42,24,,1.05,0.57,0.88*11
$GNGSA,A,3,408,413,406,416,430,403,401,427,420,409,425,423,1.05,0.57,0.88*18
$GNVTG,217.58,T,,M,15.706,N,29.088,K,D*21
$GNGGA,024344.00,3722.66586,N,12640.52524,E,2,12,0.57,9.7,M,17.9,M,,0000*4E
$GNGSA,A,3,02,13,15,05,29,30,21,195,194,42,24,,1.05,0.57,0.88*11
$GNGSA,A,3,408,413,406,416,430,403,401,427,420,409,425,423,1.05,0.57,0.88*18
$GNVTG,217.60,T,,M,15.629,N,28.945,K,D*2F
$GNGGA,024345.00,3722.66241,N,12640.52190,E,2,12,0.57,9.7,M,17.9,M,,0000*48
$GNGSA,A,3,02,13,15,05,29,30,21,195,194,42,24,,1.05,0.57,0.88*11
$GNGSA,A,3,408,413,406,416,430,403,401,427,420,409,425,423,1.05,0.57,0.88*18
$GNVTG,217.52,T,,M,15.652,N,28.988,K,D*23
$GNGGA,024346.00,3722.65896,N,12640.51857,E,2,12,0.57,9.7,M,17.9,M,,0000*49
$GNGSA,A,3,02,13,193,15,05,29,30,21,195,194,42,24,1.01,0.57,0.84*22
$GNGSA,A,3,408,413,406,416,430,403,401,427,420,409,425,423,1.01,0.57,0.84*10
$GNVTG,217.63,T,,M,15.626,N,28.939,K,D*28
$GNGGA,024347.00,3722.65551,N,12640.51524,E,2,12,0.57,9.7,M,17.9,M,,0000*47
$GNGSA,A,3,02,13,193,15,05,29,30,21,195,194,42,24,1.01,0.57,0.84*22
$GNGSA,A,3,408,413,406,416,430,403,401,427,420,409,425,423,1.01,0.57,0.84*10
$GNVTG,216.88,T,,M,15.653,N,28.990,K,D*2D
$GNGGA,024348.00,3722.65204,N,12640.51195,E,2,12,0.57,9.6,M,17.9,M,,0000*40
$GNGSA,A,3,02,13,193,15,05,29,30,21,195,194,42,24,1.01,0.57,0.84*22
$GNGSA,A,3,408,413,406,416,430,403,401,427,420,409,425,423,1.01,0.57,0.84*10
$GNVTG,214.61,T,,M,15.680,N,29.039,K,D*2D
$GNGGA,024349.00,3722.64848,N,12640.50879,E,2,12,0.57,9.7,M,17.9,M,,0000*49
$GNGSA,A,3,02,13,193,15,05,29,30,21,195,194,42,24,1.01,0.57,0.84*22
$GNGSA,A,3,408,413,406,416,430,403,401,427,420,409,425,423,1.01,0.57,0.84*10
$GNVTG,212.99,T,,M,15.589,N,28.871,K,D*23
$GNGGA,024350.00,3722.64486,N,12640.50579,E,2,12,0.57,9.6,M,17.9,M,,0000*43
$GNGSA,A,3,02,13,193,15,05,29,30,21,195,194,42,24,1.01,0.57,0.84*22
$GNGSA,A,3,408,413,406,416,430,403,401,427,420,409,425,423,1.01,0.57,0.84*10
$GNVTG,213.88,T,,M,15.507,N,28.719,K,D*25
$GNGGA,024351.00,3722.64125,N,12640.50280,E,2,12,0.57,9.6,M,17.9,M,,0000*4F
$GNGSA,A,3,02,13,193,15,05,29,30,21,195,194,42,24,1.01,0.57,0.84*22
$GNGSA,A,3,408,413,406,416,430,403,401,427,420,409,425,423,1.01,0.57,0.84*10
$GNVTG,214.69,T,,M,15.560,N,28.818,K,D*22
$GNGGA,024352.00,3722.63768,N,12640.49973,E,2,12,0.57,9.6,M,17.9,M,,0000*4B
$GNGSA,A,3,02,13,193,15,05,29,30,21,195,194,42,24,1.01,0.57,0.84*22
$GNGSA,A,3,408,413,406,416,430,403,401,427,420,409,425,423,1.01,0.57,0.84*10
$GNVTG,215.13,T,,M,15.634,N,28.954,K,D*25
$GNGGA,024353.00,3722.63412,N,12640.49660,E,2,12,0.57,9.5,M,17.9,M,,0000*4A
$GNGSA,A,3,02,13,193,15,05,29,30,21,195,194,42,24,1.01,0.57,0.84*22
$GNGSA,A,3,408,413,406,416,430,403,401,427,420,409,425,423,1.01,0.57,0.84*10
$GNVTG,215.65,T,,M,15.663,N,29.009,K,D*26
$GNGGA,024354.00,3722.63057,N,12640.49343,E,2,12,0.57,9.5,M,17.9,M,,0000*4C
$GNGSA,A,3,02,13,193,15,05,29,30,21,195,194,42,24,1.01,0.57,0.84*22
$GNGSA,A,3,408,413,406,416,430,403,401,427,420,409,425,423,1.01,0.57,0.84*10
$GNVTG,216.11,T,,M,15.720,N,29.113,K,D*2A
$GNGGA,024355.00,3722.62702,N,12640.49021,E,2,12,0.57,9.5,M,17.9,M,,0000*4C
$GNGSA,A,3,02,13,193,15,05,29,30,21,195,194,42,24,1.01,0.57,0.84*22
$GNGSA,A,3,408,413,406,416,430,403,401,427,420,409,425,423,1.01,0.57,0.84*10
$GNVTG,216.88,T,,M,15.741,N,29.152,K,D*28
$GNGGA,024356.00,3722.62351,N,12640.48694,E,2,12,0.57,9.5,M,17.9,M,,0000*44
$GNGSA,A,3,02,13,193,15,05,29,30,21,195,194,42,24,1.01,0.57,0.84*22
$GNGSA,A,3,408,413,406,416,430,403,401,427,420,409,425,423,1.01,0.57,0.84*10
$GNVTG,217.33,T,,M,15.761,N,29.190,K,D*25
$GNGGA,024357.00,3722.62001,N,12640.48361,E,2,12,0.57,9.5,M,17.9,M,,0000*4C
$GNGSA,A,3,02,13,193,15,05,29,30,21,195,194,42,24,1.01,0.57,0.84*22
$GNGSA,A,3,408,413,406,416,430,403,401,427,420,409,425,423,1.01,0.57,0.84*10
$GNVTG,217.23,T,,M,15.823,N,29.304,K,D*22
$GNGGA,024358.00,3722.61651,N,12640.48025,E,2,12,0.57,9.5,M,17.9,M,,0000*40
$GNGSA,A,3,02,13,193,15,05,29,30,21,195,194,42,24,1.01,0.57,0.84*22
$GNGSA,A,3,408,413,406,416,430,403,401,427,420,409,425,423,1.01,0.57,0.84*10
$GNVTG,217.40,T,,M,15.913,N,29.471,K,D*20
$GNGGA,024359.00,3722.61300,N,12640.47689,E,2,12,0.57,9.4,M,17.9,M,,0000*4E
$GNGSA,A,3,02,13,193,15,05,29,30,21,195,194,42,24,1.01,0.57,0.84*22
$GNGSA,A,3,408,413,406,416,430,403,401,427,420,409,425,423,1.01,0.57,0.84*10
$GNGLL,3722.61300,N,12640.47689,E,024359.00,A,D*7E
$GNVTG,217.59,T,,M,15.911,N,29.467,K,D*2D
$GNGGA,024400.00,3722.60949,N,12640.47351,E,2,12,0.57,9.4,M,17.9,M,,0000*43
$GNGSA,A,3,02,13,193,15,05,29,30,21,195,194,42,24,1.01,0.57,0.84*22
$GNGSA,A,3,408,413,406,416,430,403,401,427,420,409,425,423,1.01,0.57,0.84*10
$GNVTG,217.65,T,,M,15.873,N,29.397,K,D*2F
$GNGGA,024401.00,3722.60599,N,12640.47012,E,2,12,0.57,9.4,M,17.9,M,,0000*47
$GNGSA,A,3,02,13,193,15,05,29,30,21,195,194,42,24,1.01,0.57,0.84*22
$GNGSA,A,3,408,413,406,416,430,403,401,427,420,409,425,423,1.01,0.57,0.84*10
$GNVTG,217.50,T,,M,15.766,N,29.198,K,D*2F
$GNGGA,024402.00,3722.60250,N,12640.46677,E,2,12,0.57,9.5,M,17.9,M,,0000*43
$GNGSA,A,3,02,13,193,15,05,29,30,21,195,194,42,24,1.01,0.57,0.84*22
$GNGSA,A,3,408,413,406,416,430,403,401,427,420,409,425,423,1.01,0.57,0.84*10
$GNVTG,217.61,T,,M,15.705,N,29.086,K,D*26
$GNGGA,024403.00,3722.59903,N,12640.46344,E,2,12,0.57,9.6,M,17.9,M,,0000*43
$GNGSA,A,3,02,13,193,15,05,29,30,21,195,194,42,24,1.01,0.57,0.84*22
$GNGSA,A,3,408,413,406,416,430,403,401,427,420,409,425,423,1.01,0.57,0.84*10
$GNVTG,217.82,T,,M,15.657,N,28.996,K,D*24
$GNGGA,024404.00,3722.59558,N,12640.46009,E,2,12,0.56,9.6,M,17.9,M,,0000*4D
$GNGSA,A,3,02,13,193,15,05,29,30,21,195,194,42,24,1.01,0.56,0.84*23
$GNGSA,A,3,408,413,406,416,430,403,401,427,420,409,425,404,1.01,0.56,0.84*14
$GNVTG,217.93,T,,M,15.621,N,28.930,K,D*29
$GNGGA,024405.00,3722.59215,N,12640.45673,E,2,12,0.56,9.5,M,17.9,M,,0000*49
$GNGSA,A,3,02,13,193,15,05,29,30,21,195,194,42,24,1.01,0.56,0.84*23
$GNGSA,A,3,408,413,406,416,430,403,401,427,420,409,425,404,1.01,0.56,0.84*14
$GNVTG,217.19,T,,M,15.632,N,28.950,K,D*2F
$GNGGA,024406.00,3722.58869,N,12640.45344,E,2,12,0.56,9.6,M,17.9,M,,0000*48
$GNGSA,A,3,02,13,193,15,05,29,30,21,195,194,42,24,1.01,0.56,0.84*23
$GNGSA,A,3,408,413,406,416,430,403,401,427,420,409,425,404,1.01,0.56,0.84*14
$GNVTG,217.82,T,,M,15.669,N,29.019,K,D*26
$GNGGA,024407.00,3722.58523,N,12640.45011,E,2,12,0.56,9.6,M,17.9,M,,0000*49
$GNGSA,A,3,02,13,193,15,05,29,30,21,195,194,42,24,1.01,0.56,0.84*23
$GNGSA,A,3,408,413,406,416,430,403,401,427,420,409,425,404,1.01,0.56,0.84*14
$GNVTG,217.89,T,,M,15.575,N,28.845,K,D*23
$GNGGA,024408.00,3722.58180,N,12640.44677,E,2,12,0.57,9.5,M,17.9,M,,0000*4E
$GNGSA,A,3,02,13,193,15,05,29,30,21,195,194,42,24,1.01,0.57,0.84*22
$GNGSA,A,3,408,413,406,416,430,403,401,427,420,409,425,404,1.01,0.57,0.84*15
$GNVTG,217.67,T,,M,15.584,N,28.861,K,D*2B
$GNGGA,024409.00,3722.57837,N,12640.44344,E,2,12,0.57,9.6,M,17.9,M,,0000*43
$GNGSA,A,3,02,13,193,15,05,29,30,21,195,194,42,24,1.01,0.57,0.84*22
$GNGSA,A,3,408,413,406,416,430,403,401,427,420,409,425,423,1.01,0.57,0.84*10
$GNVTG,217.18,T,,M,15.698,N,29.072,K,D*26
$GNGGA,024410.00,3722.57490,N,12640.44013,E,2,12,0.57,9.5,M,17.9,M,,0000*48
$GNGSA,A,3,02,13,193,15,05,29,30,21,195,194,42,24,1.02,0.57,0.84*21
$GNGSA,A,3,408,413,406,416,430,403,401,427,420,409,425,423,1.02,0.57,0.84*13
$GNGLL,3722.57490,N,12640.44013,E,024410.00,A,D*79
$GNZDA,024410.00,23,11,2019,00,00*70
$GNVTG,217.44,T,,M,15.856,N,29.366,K,D*25
$GNGGA,024411.00,3722.57142,N,12640.43680,E,2,12,0.57,9.5,M,17.9,M,,0000*48
$GNGSA,A,3,02,13,193,15,05,29,30,21,195,194,42,24,1.02,0.57,0.84*21
$GNGSA,A,3,408,413,406,416,430,403,401,427,420,409,425,423,1.02,0.57,0.84*13
$GNVTG,217.44,T,,M,15.854,N,29.362,K,D*23
$GNGGA,024412.00,3722.56790,N,12640.43344,E,2,12,0.57,9.5,M,17.9,M,,0000*4E
$GNGSA,A,3,02,13,193,15,05,29,30,21,195,194,42,24,1.02,0.57,0.84*21
$GNGSA,A,3,408,413,406,416,430,403,401,427,420,409,425,423,1.02,0.57,0.84*13
$GNVTG,217.55,T,,M,15.706,N,29.087,K,D*23
$GNGGA,024413.00,3722.56440,N,12640.43010,E,2,12,0.57,9.6,M,17.9,M,,0000*40
$GNGSA,A,3,02,13,193,15,05,29,30,21,195,194,42,24,1.02,0.57,0.84*21
$GNGSA,A,3,408,413,406,416,430,403,401,427,420,409,425,423,1.02,0.57,0.84*13
$GNVTG,217.78,T,,M,15.723,N,29.119,K,D*2D
$GNGGA,024414.00,3722.56093,N,12640.42675,E,2,12,0.57,9.5,M,17.9,M,,0000*4A
$GNGSA,A,3,02,13,193,15,05,29,30,21,195,194,42,24,1.02,0.57,0.84*21
$GNGSA,A,3,408,413,406,416,430,403,401,427,420,409,425,423,1.02,0.57,0.84*13
$GNVTG,217.74,T,,M,15.784,N,29.231,K,D*25
$GNGGA,024415.00,3722.55746,N,12640.42340,E,2,12,0.57,9.5,M,17.9,M,,0000*44
$GNGSA,A,3,02,13,193,15,05,29,30,21,195,194,42,24,1.02,0.57,0.84*21
$GNGSA,A,3,408,413,406,416,430,403,401,427,420,409,425,423,1.02,0.57,0.84*13
$GNVTG,218.11,T,,M,15.788,N,29.240,K,D*23
$GNGGA,024416.00,3722.55400,N,12640.42001,E,2,12,0.57,9.4,M,17.9,M,,0000*41
$GNGSA,A,3,02,13,193,15,05,29,30,21,195,194,42,24,1.02,0.57,0.84*21
$GNGSA,A,3,408,413,406,416,430,403,401,427,420,409,425,423,1.02,0.57,0.84*13
$GNVTG,218.05,T,,M,15.697,N,29.071,K,D*29
$GNGGA,024417.00,3722.55055,N,12640.41664,E,2,12,0.57,9.5,M,17.9,M,,0000*43
$GNGSA,A,3,02,13,193,15,05,29,30,21,195,194,42,24,1.02,0.57,0.84*21
$GNGSA,A,3,408,413,406,416,430,403,401,427,420,409,425,423,1.02,0.57,0.84*13
$GNVTG,218.11,T,,M,15.581,N,28.857,K,D*25
$GNGGA,024418.00,3722.54714,N,12640.41328,E,2,12,0.57,9.5,M,17.9,M,,0000*42
$GNGSA,A,3,02,13,193,15,05,29,30,21,195,194,42,24,1.02,0.57,0.84*21
$GNGSA,A,3,408,413,406,416,430,403,401,427,420,409,425,423,1.02,0.57,0.84*13
$GNVTG,218.08,T,,M,15.630,N,28.946,K,D*25
$GNGGA,024419.00,3722.54371,N,12640.40993,E,2,12,0.57,9.5,M,17.9,M,,0000*4F
$GNGSA,A,3,02,13,193,15,05,29,30,21,195,194,42,24,1.02,0.57,0.84*21
$GNGSA,A,3,408,413,406,416,430,403,401,427,420,409,425,423,1.02,0.57,0.84*13
$GNVTG,218.22,T,,M,15.673,N,29.026,K,D*24
$GNGGA,024420.00,3722.54030,N,12640.40655,E,2,12,0.57,9.4,M,17.9,M,,0000*47
$GNGSA,A,3,02,13,193,15,05,29,30,21,195,194,42,24,1.02,0.57,0.84*21
$GNGSA,A,3,408,413,406,416,430,403,401,427,420,409,425,423,1.02,0.57,0.84*13
$GNVTG,218.19,T,,M,15.779,N,29.222,K,D*21
$GNGGA,024421.00,3722.53686,N,12640.40316,E,2,12,0.57,9.4,M,17.9,M,,0000*48
$GNGSA,A,3,02,13,193,15,05,29,30,21,195,194,42,24,1.02,0.57,0.84*21
$GNGSA,A,3,408,413,406,416,430,403,401,427,420,409,425,423,1.02,0.57,0.84*13
$GNVTG,217.89,T,,M,15.792,N,29.248,K,D*2E
$GNGGA,024422.00,3722.53341,N,12640.39977,E,2,12,0.57,9.4,M,17.9,M,,0000*46
$GNGSA,A,3,02,13,193,15,05,29,30,21,195,194,42,24,1.02,0.57,0.84*21
$GNGSA,A,3,408,413,406,416,430,403,401,427,420,409,425,423,1.02,0.57,0.84*13
$GNVTG,217.66,T,,M,15.712,N,29.098,K,D*28
$GNGGA,024423.00,3722.52995,N,12640.39642,E,2,12,0.57,9.5,M,17.9,M,,0000*4D
$GNGSA,A,3,02,13,193,15,05,29,30,21,195,194,42,24,1.02,0.57,0.84*21
$GNGSA,A,3,408,413,406,416,430,403,401,427,420,409,425,423,1.02,0.57,0.84*13
$GNVTG,217.37,T,,M,15.693,N,29.063,K,D*20
$GNGGA,024424.00,3722.52649,N,12640.39309,E,2,12,0.57,9.5,M,17.9,M,,0000*4E
$GNGSA,A,3,02,13,193,15,05,29,30,21,195,194,42,24,1.02,0.57,0.84*21
$GNGSA,A,3,408,413,406,416,430,403,401,427,420,409,425,423,1.02,0.57,0.84*13
$GNVTG,217.33,T,,M,15.697,N,29.071,K,D*23
$GNGGA,024425.00,3722.52302,N,12640.38977,E,2,12,0.57,9.6,M,17.9,M,,0000*44
$GNGSA,A,3,02,13,193,15,05,29,30,21,195,194,42,24,1.02,0.57,0.84*21
$GNGSA,A,3,408,413,406,416,430,403,401,427,420,409,425,423,1.02,0.57,0.84*13
$GNVTG,217.19,T,,M,15.632,N,28.951,K,D*2E
$GNGGA,024426.00,3722.51955,N,12640.38647,E,2,12,0.57,9.6,M,17.9,M,,0000*40
$GNGSA,A,3,02,13,193,15,05,29,30,21,195,194,42,24,1.02,0.57,0.84*21
$GNGSA,A,3,408,413,406,416,430,403,401,427,420,409,425,423,1.02,0.57,0.84*13
$GNVTG,217.22,T,,M,15.643,N,28.971,K,D*22
$GNGGA,024427.00,3722.51608,N,12640.38317,E,2,12,0.57,9.6,M,17.9,M,,0000*46
$GNGSA,A,3,02,13,193,15,05,29,30,21,195,194,42,24,1.02,0.57,0.84*21
$GNGSA,A,3,408,413,406,416,430,403,401,427,420,409,425,423,1.02,0.57,0.84*13
$GNVTG,217.28,T,,M,15.582,N,28.857,K,D*23
$GNGGA,024428.00,3722.51263,N,12640.37988,E,2,12,0.57,9.7,M,17.9,M,,0000*42
$GNGSA,A,3,02,13,193,15,05,29,30,21,195,194,42,24,1.02,0.57,0.84*21
$GNGSA,A,3,408,413,406,416,430,403,401,427,420,409,425,423,1.02,0.57,0.84*13
$GNVTG,217.23,T,,M,15.607,N,28.904,K,D*21
$GNGGA,024429.00,3722.50918,N,12640.37659,E,2,12,0.57,9.7,M,17.9,M,,0000*46
$GNGSA,A,3,02,13,193,15,05,29,30,21,195,194,42,24,1.02,0.57,0.84*21
$GNGSA,A,3,408,413,406,416,430,403,401,427,420,409,425,423,1.02,0.57,0.84*13
$GNVTG,217.56,T,,M,15.654,N,28.990,K,D*28
$GNGGA,024430.00,3722.50573,N,12640.37327,E,2,12,0.57,9.7,M,17.9,M,,0000*43
$GNGSA,A,3,02,13,193,15,05,29,30,21,195,194,42,24,1.02,0.57,0.84*21
$GNGSA,A,3,408,413,406,416,430,403,401,427,420,409,425,423,1.02,0.57,0.84*13
$GNVTG,217.58,T,,M,15.759,N,29.186,K,D*24
$GNGGA,024431.00,3722.50226,N,12640.36994,E,2,12,0.57,9.7,M,17.9,M,,0000*46
$GNGSA,A,3,02,13,193,15,05,29,30,21,195,194,42,24,1.02,0.57,0.84*21
$GNGSA,A,3,408,413,406,416,430,403,401,427,420,409,425,423,1.02,0.57,0.84*13
$GNVTG,217.61,T,,M,15.757,N,29.181,K,D*27
$GNGGA,024432.00,3722.49879,N,12640.36660,E,2,12,0.57,9.7,M,17.9,M,,0000*49
$GNGSA,A,3,02,13,193,15,05,29,30,21,195,194,42,24,1.02,0.57,0.84*21
$GNGSA,A,3,408,413,406,416,430,403,401,427,420,409,425,423,1.02,0.57,0.84*13
$GNVTG,217.71,T,,M,15.742,N,29.154,K,D*2A
$GNGGA,024433.00,3722.49532,N,12640.36325,E,2,12,0.57,9.7,M,17.9,M,,0000*4E
$GNGSA,A,3,02,13,193,15,05,29,30,21,195,194,42,24,1.02,0.57,0.84*21
$GNGSA,A,3,408,413,406,416,430,403,401,427,420,409,425,423,1.02,0.57,0.84*13
$GNVTG,217.61,T,,M,15.715,N,29.105,K,D*2D
$GNGGA,024434.00,3722.49185,N,12640.35991,E,2,12,0.57,9.7,M,17.9,M,,0000*47
$GNGSA,A,3,02,13,193,15,05,29,30,21,195,194,42,24,1.02,0.57,0.84*21
$GNGSA,A,3,408,413,406,416,430,403,401,427,420,409,425,423,1.02,0.57,0.84*13
$GNVTG,218.12,T,,M,15.644,N,28.973,K,D*2B
$GNGGA,024435.00,3722.48841,N,12640.35655,E,2,12,0.57,9.7,M,17.9,M,,0000*41
$GNGSA,A,3,02,13,193,15,05,29,30,21,195,194,42,24,1.02,0.57,0.84*21
$GNGSA,A,3,408,413,406,416,430,403,401,427,420,409,425,423,1.02,0.57,0.84*13
$GNVTG,218.06,T,,M,15.688,N,29.054,K,D*23
$GNGGA,024436.00,3722.48498,N,12640.35318,E,2,12,0.57,9.6,M,17.9,M,,0000*47
$GNGSA,A,3,02,13,193,15,05,29,30,21,195,194,42,24,1.02,0.57,0.84*21
$GNGSA,A,3,408,413,406,416,430,403,401,427,420,409,425,423,1.02,0.57,0.84*13
$GNVTG,217.82,T,,M,15.632,N,28.950,K,D*2D
$GNGGA,024437.00,3722.48155,N,12640.34984,E,2,12,0.57,9.6,M,17.9,M,,0000*4C
$GNGSA,A,3,02,13,193,15,05,29,30,21,195,194,42,24,1.02,0.57,0.84*21
$GNGSA,A,3,408,413,406,416,430,403,401,427,420,409,425,423,1.02,0.57,0.84*13
$GNVTG,217.79,T,,M,15.688,N,29.054,K,D*24
$GNGGA,024438.00,3722.47811,N,12640.34650,E,2,12,0.57,9.6,M,17.9,M,,0000*43
$GNGSA,A,3,02,13,193,15,05,29,30,21,195,194,42,24,1.02,0.57,0.84*21
$GNGSA,A,3,408,413,406,416,430,403,401,427,420,409,425,423,1.02,0.57,0.84*13
$GNVTG,217.77,T,,M,15.612,N,28.913,K,D*22
$GNGGA,024439.00,3722.47467,N,12640.34316,E,2,12,0.57,9.5,M,17.9,M,,0000*4B
$GNGSA,A,3,02,13,193,15,05,29,30,21,195,194,42,24,1.02,0.57,0.84*21
$GNGSA,A,3,408,413,406,416,430,403,401,427,420,409,425,423,1.02,0.57,0.84*13
$GNVTG,217.72,T,,M,15.634,N,28.955,K,D*21
$GNGGA,024440.00,3722.47123,N,12640.33983,E,2,12,0.57,9.5,M,17.9,M,,0000*41
$GNGSA,A,3,02,13,193,15,05,29,30,21,195,194,42,24,1.02,0.57,0.84*21
$GNGSA,A,3,408,413,406,416,430,403,401,427,420,409,425,423,1.02,0.57,0.84*13
$GNVTG,217.59,T,,M,15.596,N,28.884,K,D*2E
$GNGGA,024441.00,3722.46779,N,12640.33650,E,2,12,0.57,9.5,M,17.9,M,,0000*49
$GNGSA,A,3,02,13,193,15,05,29,30,21,195,194,42,24,1.02,0.57,0.84*21
$GNGSA,A,3,408,413,406,416,430,403,401,427,420,409,425,423,1.02,0.57,0.84*13
$GNVTG,217.65,T,,M,15.625,N,28.937,K,D*23
$GNGGA,024442.00,3722.46434,N,12640.33318,E,2,12,0.57,9.5,M,17.9,M,,0000*49
$GNGSA,A,3,02,13,193,15,05,29,30,21,195,194,42,24,1.02,0.57,0.84*21
$GNGSA,A,3,408,413,406,416,430,403,401,427,420,409,425,423,1.02,0.57,0.84*13
$GNVTG,217.43,T,,M,15.663,N,29.008,K,D*21
$GNGGA,024443.00,3722.46089,N,12640.32985,E,2,12,0.57,9.5,M,17.9,M,,0000*45
$GNGSA,A,3,02,13,193,15,05,29,30,21,195,194,42,24,1.02,0.57,0.84*21
$GNGSA,A,3,408,413,406,416,430,403,401,427,420,409,425,423,1.02,0.57,0.84*13
$GNVTG,217.54,T,,M,15.678,N,29.036,K,D*20
$GNGGA,024444.00,3722.45743,N,12640.32653,E,2,12,0.57,9.5,M,17.9,M,,0000*44
$GNGSA,A,3,02,13,193,15,05,29,30,21,195,194,42,24,1.02,0.57,0.84*21
$GNGSA,A,3,408,413,406,416,430,403,401,427,420,409,425,423,1.02,0.57,0.84*13
$GNVTG,217.40,T,,M,15.671,N,29.022,K,D*29
$GNGGA,024445.00,3722.45396,N,12640.32321,E,2,12,0.57,9.5,M,17.9,M,,0000*49
$GNGSA,A,3,02,13,193,15,05,29,30,21,195,194,42,24,1.02,0.57,0.84*21
$GNGSA,A,3,408,413,406,416,430,403,401,427,420,409,425,423,1.02,0.57,0.84*13
$GNVTG,217.43,T,,M,15.767,N,29.200,K,D*2E
$GNGGA,024446.00,3722.45047,N,12640.31987,E,2,12,0.57,9.5,M,17.9,M,,0000*40
$GNGSA,A,3,02,13,193,15,05,29,30,21,195,194,42,24,1.02,0.57,0.84*21
$GNGSA,A,3,408,413,406,416,430,403,401,427,420,409,425,423,1.02,0.57,0.84*13
$GNGLL,3722.45047,N,12640.31987,E,024446.00,A,D*71
$GNVTG,217.33,T,,M,15.795,N,29.252,K,D*23
$GNGGA,024447.00,3722.44698,N,12640.31653,E,2,12,0.57,9.5,M,17.9,M,,0000*42
$GNGSA,A,3,02,13,193,15,05,29,30,21,195,194,42,24,1.02,0.57,0.84*21
$GNGSA,A,3,408,413,406,416,430,403,401,427,420,409,425,423,1.02,0.57,0.84*13
$GNVTG,217.84,T,,M,15.766,N,29.199,K,D*27
$GNGGA,024448.00,3722.44350,N,12640.31318,E,2,12,0.57,9.5,M,17.9,M,,0000*46
$GNGSA,A,3,02,13,193,15,05,29,30,21,195,194,42,24,1.02,0.57,0.84*21
$GNGSA,A,3,408,413,406,416,430,403,401,427,420,409,425,423,1.02,0.57,0.84*13
$GNVTG,217.88,T,,M,15.695,N,29.066,K,D*27
$GNGGA,024449.00,3722.44004,N,12640.30981,E,2,12,0.57,9.5,M,17.9,M,,0000*4E
$GNGSA,A,3,02,13,193,15,05,29,30,21,195,194,42,24,1.02,0.57,0.84*21
$GNGSA,A,3,408,413,406,416,430,403,401,427,420,409,425,423,1.02,0.57,0.84*13
$GNVTG,218.25,T,,M,15.663,N,29.007,K,D*21
$GNGGA,024450.00,3722.43662,N,12640.30646,E,2,12,0.57,9.5,M,17.9,M,,0000*43
$GNGSA,A,3,02,13,193,15,05,29,30,21,195,194,42,24,1.02,0.57,0.84*21
$GNGSA,A,3,408,413,406,416,430,403,401,427,420,409,425,423,1.02,0.57,0.84*13
$GNVTG,218.18,T,,M,15.632,N,28.950,K,D*21
$GNGGA,024451.00,3722.43320,N,12640.30310,E,2,12,0.57,9.6,M,17.9,M,,0000*44
$GNGSA,A,3,02,13,193,15,05,29,30,21,195,194,42,24,1.02,0.57,0.84*21
$GNGSA,A,3,408,413,406,416,430,403,401,427,420,409,425,423,1.02,0.57,0.84*13
$GNVTG,218.20,T,,M,15.643,N,28.971,K,D*2F
$GNGGA,024452.00,3722.42978,N,12640.29974,E,2,12,0.57,9.6,M,17.9,M,,0000*41
$GNGSA,A,3,02,13,193,15,05,29,30,21,195,194,42,24,1.02,0.57,0.84*21
$GNGSA,A,3,408,413,406,416,430,403,401,427,420,409,425,423,1.02,0.57,0.84*13
$GNVTG,217.71,T,,M,15.665,N,29.012,K,D*2D
$GNGGA,024453.00,3722.42635,N,12640.29640,E,2,12,0.57,9.7,M,17.9,M,,0000*4F
$GNGSA,A,3,02,13,193,15,05,29,30,21,195,194,42,24,1.02,0.57,0.84*21
$GNGSA,A,3,408,413,406,416,430,403,401,427,420,409,425,423,1.02,0.57,0.84*13
$GNGLL,3722.42635,N,12640.29640,E,024453.00,A,D*7C
$GNVTG,217.56,T,,M,15.648,N,28.980,K,D*24
$GNGGA,024454.00,3722.42290,N,12640.29307,E,2,12,0.57,9.7,M,17.9,M,,0000*45
$GNGSA,A,3,02,13,193,15,05,29,30,21,195,194,42,24,1.02,0.57,0.84*21
$GNGSA,A,3,408,413,406,416,430,403,401,427,420,409,425,423,1.02,0.57,0.84*13
$GNVTG,217.39,T,,M,15.639,N,28.964,K,D*21
$GNGGA,024455.00,3722.41945,N,12640.28976,E,2,12,0.57,9.7,M,17.9,M,,0000*49
$GNGSA,A,3,02,13,193,15,05,29,30,21,195,194,42,24,1.02,0.57,0.84*21
$GNGSA,A,3,408,413,406,416,430,403,401,427,420,409,425,423,1.02,0.57,0.84*13
$GNVTG,217.27,T,,M,15.665,N,29.011,K,D*2D
$GNGGA,024456.00,3722.41598,N,12640.28645,E,2,12,0.57,9.8,M,17.9,M,,0000*46
$GNGSA,A,3,02,13,193,15,05,29,30,21,195,194,42,24,1.02,0.57,0.84*21
$GNGSA,A,3,408,413,406,416,430,403,401,427,420,409,425,423,1.02,0.57,0.84*13
$GNGLL,3722.41598,N,12640.28645,E,024456.00,A,D*7A
$GNVTG,217.28,T,,M,15.691,N,29.061,K,D*2E
$GNGGA,024457.00,3722.41252,N,12640.28315,E,2,12,0.57,9.8,M,17.9,M,,0000*46
$GNGSA,A,3,02,13,193,15,05,29,30,21,195,194,42,24,1.02,0.57,0.84*21
$GNGSA,A,3,408,413,406,416,430,403,401,427,420,409,425,423,1.02,0.57,0.84*13
$GNGLL,3722.41252,N,12640.28315,E,024457.00,A,D*7A
$GNVTG,217.04,T,,M,15.682,N,29.044,K,D*25
$GNGGA,024458.00,3722.40904,N,12640.27987,E,2,12,0.57,9.8,M,17.9,M,,0000*4E
$GNGSA,A,3,02,13,193,15,05,29,30,21,195,194,42,24,1.02,0.57,0.84*21
$GNGSA,A,3,408,413,406,416,430,403,401,427,420,409,425,423,1.02,0.57,0.84*13
$GNVTG,217.32,T,,M,15.663,N,29.008,K,D*27
$GNGGA,024459.00,3722.40558,N,12640.27657,E,2,12,0.57,9.8,M,17.9,M,,0000*48
$GNGSA,A,3,02,13,193,15,05,29,30,21,195,194,42,24,1.05,0.57,0.88*2A
$GNGSA,A,3,413,406,416,430,403,401,427,420,409,425,423,402,1.05,0.57,0.88*12
$GNGLL,3722.40558,N,12640.27657,E,024459.00,A,D*74
$GNVTG,217.50,T,,M,15.652,N,28.988,K,D*21
$GNGGA,024500.00,3722.40213,N,12640.27326,E,2,12,0.56,9.9,M,17.9,M,,0000*4E
$GNGSA,A,3,02,13,193,15,05,29,30,21,195,194,42,24,1.04,0.56,0.88*2A
$GNGSA,A,3,413,406,416,430,403,401,427,420,409,425,423,404,1.04,0.56,0.88*14
$GNVTG,217.77,T,,M,15.605,N,28.900,K,D*26
$GNGGA,024501.00,3722.39870,N,12640.26996,E,2,12,0.56,10.0,M,17.9,M,,0000*7F
$GNGSA,A,3,02,13,193,15,05,29,30,21,195,194,42,24,1.04,0.56,0.88*2A
$GNGSA,A,3,413,406,416,430,403,401,427,420,409,425,423,404,1.04,0.56,0.88*14
$GNGLL,3722.39870,N,12640.26996,E,024501.00,A,D*72
$GNVTG,217.28,T,,M,15.562,N,28.821,K,D*2C
$GNGGA,024502.00,3722.39526,N,12640.26667,E,2,12,0.56,10.1,M,17.9,M,,0000*72
$GNGSA,A,3,02,13,193,15,05,29,30,21,195,194,42,24,1.04,0.56,0.88*2A
$GNGSA,A,3,413,406,416,430,403,401,427,420,409,425,423,404,1.04,0.56,0.88*14
$GNVTG,217.74,T,,M,15.656,N,28.996,K,D*2C
$GNGGA,024503.00,3722.39184,N,12640.26335,E,2,12,0.56,10.2,M,17.9,M,,0000*7E
$GNGSA,A,3,02,13,193,15,05,29,30,21,195,194,42,24,1.01,0.56,0.84*23
$GNGSA,A,3,408,413,406,416,430,403,401,427,420,409,425,423,1.01,0.56,0.84*11
$GNVTG,217.45,T,,M,15.667,N,29.015,K,D*2F
$GNGGA,024504.00,3722.38840,N,12640.26003,E,2,12,0.56,10.2,M,17.9,M,,0000*7F
$GNGSA,A,3,02,13,193,15,05,29,30,21,195,194,42,24,1.01,0.56,0.84*23
$GNGSA,A,3,408,413,406,416,430,403,401,427,420,409,425,423,1.01,0.56,0.84*11
$GNGLL,3722.38840,N,12640.26003,E,024504.00,A,D*70
$GNVTG,217.55,T,,M,15.610,N,28.909,K,D*2B
$GNGGA,024505.00,3722.38497,N,12640.25673,E,2,12,0.56,10.2,M,17.9,M,,0000*7A
$GNGSA,A,3,02,13,193,15,05,29,30,21,195,194,42,24,1.01,0.56,0.84*23
$GNGSA,A,3,408,413,406,416,430,403,401,427,420,409,425,423,1.01,0.56,0.84*11
$GNVTG,217.76,T,,M,15.648,N,28.980,K,D*26
$GNGGA,024506.00,3722.38155,N,12640.25341,E,2,12,0.56,10.3,M,17.9,M,,0000*77
$GNGSA,A,3,02,13,193,15,05,29,30,21,195,194,42,24,1.01,0.56,0.84*23
$GNGSA,A,3,408,413,406,416,430,403,401,427,420,409,425,423,1.01,0.56,0.84*11
$GNVTG,218.05,T,,M,15.666,N,29.013,K,D*23
$GNGGA,024507.00,3722.37813,N,12640.25007,E,2,12,0.56,10.3,M,17.9,M,,0000*73
$GNGSA,A,3,02,13,193,15,05,29,30,21,195,194,42,24,1.01,0.56,0.84*23
$GNGSA,A,3,408,413,406,416,430,403,401,427,420,409,425,423,1.01,0.56,0.84*11
$GNGLL,3722.37813,N,12640.25007,E,024507.00,A,D*7D
$GNVTG,218.19,T,,M,15.669,N,29.019,K,D*2B
$GNGGA,024508.00,3722.37472,N,12640.24671,E,2,12,0.56,10.3,M,17.9,M,,0000*71
$GNGSA,A,3,02,13,193,15,05,29,30,21,195,194,42,24,1.01,0.56,0.84*23
$GNGSA,A,3,408,413,406,416,430,403,401,427,420,409,425,423,1.01,0.56,0.84*11
$GNVTG,217.91,T,,M,15.672,N,29.025,K,D*21
$GNGGA,024509.00,3722.37130,N,12640.24336,E,2,12,0.56,10.4,M,17.9,M,,0000*72
$GNGSA,A,3,02,13,193,15,05,29,30,21,195,194,42,24,1.01,0.56,0.84*23
$GNGSA,A,3,408,413,406,416,430,403,401,427,420,409,425,423,1.01,0.56,0.84*11
$GNVTG,218.31,T,,M,15.746,N,29.161,K,D*23
$GNGGA,024510.00,3722.36787,N,12640.23998,E,2,12,0.56,10.4,M,17.9,M,,0000*78
$GNGSA,A,3,02,13,193,15,05,29,30,21,195,194,42,24,1.01,0.56,0.84*23
$GNGSA,A,3,408,413,406,416,430,403,401,427,420,409,425,423,1.01,0.56,0.84*11
$GNVTG,217.62,T,,M,15.783,N,29.230,K,D*24
$GNGGA,024511.00,3722.36441,N,12640.23662,E,2,12,0.56,10.4,M,17.9,M,,0000*7A
$GNGSA,A,3,02,13,193,15,05,29,30,21,195,194,42,24,1.01,0.56,0.84*23
$GNGSA,A,3,408,413,406,416,430,403,401,427,420,409,425,423,1.01,0.56,0.84*11
$GNGLL,3722.36441,N,12640.23662,E,024511.00,A,D*73
$GNVTG,217.47,T,,M,15.771,N,29.208,K,D*25
$GNGGA,024512.00,3722.36095,N,12640.23328,E,2,12,0.56,10.4,M,17.9,M,,0000*7F
$GNGSA,A,3,02,13,193,15,05,29,30,21,195,194,42,24,1.01,0.56,0.84*23
$GNGSA,A,3,408,413,406,416,430,403,401,427,420,409,425,423,1.01,0.56,0.84*11
$GNVTG,217.17,T,,M,15.745,N,29.160,K,D*2A
$GNGGA,024513.00,3722.35747,N,12640.22996,E,2,12,0.56,10.5,M,17.9,M,,0000*7A
$GNGSA,A,3,02,13,193,15,05,29,30,21,195,194,42,24,1.01,0.56,0.84*23
$GNGSA,A,3,408,413,406,416,430,403,401,427,420,409,425,423,1.01,0.56,0.84*11
$GNVTG,217.20,T,,M,15.736,N,29.143,K,D*2B
$GNGGA,024514.00,3722.35399,N,12640.22663,E,2,12,0.56,10.5,M,17.9,M,,0000*7F
$GNGSA,A,3,02,13,193,15,05,29,30,21,195,194,42,24,1.01,0.56,0.84*23
$GNGSA,A,3,408,413,406,416,430,403,401,427,420,409,425,423,1.01,0.56,0.84*11
$GNVTG,217.27,T,,M,15.726,N,29.125,K,D*2D
$GNGGA,024515.00,3722.35051,N,12640.22332,E,2,12,0.57,10.6,M,17.9,M,,0000*7A
$GNGSA,A,3,02,13,193,15,05,29,30,21,195,194,42,24,1.02,0.57,0.84*21
$GNGSA,A,3,408,413,406,416,430,403,401,427,420,409,425,423,1.02,0.57,0.84*13
$GNVTG,217.39,T,,M,15.721,N,29.115,K,D*26
$GNGGA,024516.00,3722.34703,N,12640.21999,E,2,12,0.57,10.6,M,17.9,M,,0000*70
$GNGSA,A,3,02,13,193,15,05,29,30,21,195,194,42,24,1.02,0.57,0.84*21
$GNGSA,A,3,408,413,406,416,430,403,401,427,420,409,425,423,1.02,0.57,0.84*13
$GNVTG,217.77,T,,M,15.728,N,29.129,K,D*2A
$GNGGA,024517.00,3722.34356,N,12640.21663,E,2,12,0.57,10.6,M,17.9,M,,0000*7F
$GNGSA,A,3,02,13,193,15,05,29,30,21,195,194,42,24,1.02,0.57,0.84*21
$GNGSA,A,3,408,413,406,416,430,403,401,427,420,409,425,423,1.02,0.57,0.84*13
$GNVTG,217.46,T,,M,15.757,N,29.181,K,D*22
$GNGGA,024518.00,3722.34010,N,12640.21330,E,2,12,0.57,10.6,M,17.9,M,,0000*72
$GNGSA,A,3,02,13,193,15,05,29,30,21,195,194,42,24,1.02,0.57,0.84*21
$GNGSA,A,3,408,413,406,416,430,403,401,427,420,409,425,423,1.02,0.57,0.84*13
$GNVTG,217.24,T,,M,15.672,N,29.025,K,D*2F
$GNGGA,024519.00,3722.33663,N,12640.20997,E,2,12,0.57,10.6,M,17.9,M,,0000*70
$GNGSA,A,3,02,13,193,15,05,29,30,21,195,194,42,24,1.02,0.57,0.84*21
$GNGSA,A,3,408,413,406,416,430,403,401,427,420,409,425,423,1.02,0.57,0.84*13
$GNVTG,217.26,T,,M,15.649,N,28.982,K,D*20
$GNGGA,024520.00,3722.33316,N,12640.20667,E,2,12,0.57,10.7,M,17.9,M,,0000*7C
$GNGSA,A,3,02,13,193,15,05,29,30,21,195,194,42,24,1.02,0.57,0.84*21
$GNGSA,A,3,408,413,406,416,430,403,401,427,420,409,425,423,1.02,0.57,0.84*13
$GNVTG,217.50,T,,M,15.682,N,29.044,K,D*24
$GNGGA,024521.00,3722.32971,N,12640.20336,E,2,12,0.57,10.7,M,17.9,M,,0000*76
$GNGSA,A,3,02,13,193,15,05,29,30,21,195,194,42,24,1.02,0.57,0.84*21
$GNGSA,A,3,408,413,406,416,430,403,401,427,420,409,425,423,1.02,0.57,0.84*13
$GNVTG,217.85,T,,M,15.431,N,28.579,K,D*2C
$GNGGA,024522.00,3722.32630,N,12640.20004,E,2,12,0.57,10.7,M,17.9,M,,0000*7D
$GNGSA,A,3,02,13,193,15,05,29,30,21,195,194,42,24,1.02,0.57,0.84*21
$GNGSA,A,3,408,413,406,416,430,403,401,427,420,409,425,423,1.02,0.57,0.84*13
$GNVTG,218.05,T,,M,14.848,N,27.498,K,D*29
$GNGGA,024523.00,3722.32303,N,12640.19682,E,2,12,0.57,10.8,M,17.9,M,,0000*74
$GNGSA,A,3,02,13,193,15,05,29,30,21,195,194,42,24,1.02,0.57,0.84*21
$GNGSA,A,3,408,413,406,416,430,403,401,427,420,409,425,423,1.02,0.57,0.84*13
$GNVTG,218.05,T,,M,14.042,N,26.007,K,D*28
$GNGGA,024524.00,3722.31991,N,12640.19376,E,2,12,0.57,10.8,M,17.9,M,,0000*7F
$GNGSA,A,3,02,13,193,15,05,29,30,21,195,194,42,24,1.02,0.57,0.84*21
$GNGSA,A,3,408,413,406,416,430,403,401,427,420,409,425,423,1.02,0.57,0.84*13
$GNVTG,217.65,T,,M,13.220,N,24.484,K,D*2D
$GNGGA,024525.00,3722.31696,N,12640.19089,E,2,12,0.57,10.8,M,17.9,M,,0000*75
$GNGSA,A,3,02,13,193,15,05,29,30,21,195,194,42,24,1.02,0.57,0.84*21
$GNGSA,A,3,408,413,406,416,430,403,401,427,420,409,425,423,1.02,0.57,0.84*13
$GNVTG,217.55,T,,M,12.097,N,22.403,K,D*28
$GNGGA,024526.00,3722.31423,N,12640.18826,E,2,12,0.57,10.9,M,17.9,M,,0000*77
$GNGSA,A,3,02,13,193,15,05,29,30,21,195,194,42,24,1.02,0.57,0.84*21
$GNGSA,A,3,408,413,406,416,430,403,401,427,420,409,425,423,1.02,0.57,0.84*13
$GNVTG,217.32,T,,M,11.024,N,20.417,K,D*25
$GNGGA,024527.00,3722.31175,N,12640.18586,E,2,12,0.57,11.0,M,17.9,M,,0000*7F
$GNGSA,A,3,02,13,193,15,05,29,30,21,195,194,42,24,1.02,0.57,0.84*21
$GNGSA,A,3,408,413,406,416,430,403,401,427,420,409,425,423,1.02,0.57,0.84*13
$GNGLL,3722.31175,N,12640.18586,E,024527.00,A,D*72
$GNVTG,217.63,T,,M,9.797,N,18.144,K,D*1F
$GNGGA,024528.00,3722.30954,N,12640.18370,E,2,12,0.57,11.1,M,17.9,M,,0000*74
$GNGSA,A,3,02,13,193,15,05,29,30,21,195,194,42,24,1.02,0.57,0.84*21
$GNGSA,A,3,408,413,406,416,430,403,401,427,420,409,425,423,1.02,0.57,0.84*13
$GNVTG,217.42,T,,M,7.694,N,14.249,K,D*12
$GNGGA,024529.00,3722.30773,N,12640.18194,E,2,12,0.57,11.3,M,17.9,M,,0000*74
$GNGSA,A,3,02,13,193,15,05,29,30,21,195,194,42,24,1.02,0.57,0.84*21
$GNGSA,A,3,408,413,406,416,430,403,401,427,420,409,425,423,1.02,0.57,0.84*13
$GNVTG,217.36,T,,M,6.997,N,12.959,K,D*10
$GNGGA,024530.00,3722.30618,N,12640.18040,E,2,12,0.57,11.4,M,17.9,M,,0000*7F
$GNGSA,A,3,02,13,193,15,05,29,30,21,195,194,42,24,1.02,0.57,0.84*21
$GNGSA,A,3,408,413,406,416,430,403,401,427,420,409,425,423,1.02,0.57,0.84*13
$GNVTG,217.46,T,,M,6.454,N,11.953,K,D*1C
$GNGGA,024531.00,3722.30474,N,12640.17899,E,2,12,0.57,11.5,M,17.9,M,,0000*74
$GNGSA,A,3,02,13,193,15,05,29,30,21,195,194,42,24,1.02,0.57,0.84*21
$GNGSA,A,3,408,413,406,416,430,403,401,427,420,409,425,423,1.02,0.57,0.84*13
$GNVTG,217.67,T,,M,5.496,N,10.179,K,D*13
$GNGGA,024532.00,3722.30350,N,12640.17774,E,2,12,0.57,11.6,M,17.9,M,,0000*79
$GNGSA,A,3,02,13,193,15,05,29,30,21,195,194,42,24,1.02,0.57,0.84*21
$GNGSA,A,3,408,413,406,416,430,403,401,427,420,409,425,423,1.02,0.57,0.84*13
$GNVTG,217.81,T,,M,3.774,N,6.990,K,D*2A
$GNGGA,024533.00,3722.30258,N,12640.17682,E,2,12,0.57,11.7,M,17.9,M,,0000*78
$GNGSA,A,3,02,13,193,15,05,29,30,21,195,194,42,24,1.02,0.57,0.84*21
$GNGSA,A,3,408,413,406,416,430,403,401,427,420,409,425,423,1.02,0.57,0.84*13
$GNVTG,218.13,T,,M,3.877,N,7.181,K,D*2B
$GNGGA,024534.00,3722.30176,N,12640.17598,E,2,12,0.57,11.7,M,17.9,M,,0000*78
$GNGSA,A,3,02,13,193,15,05,29,30,21,195,194,42,24,1.02,0.57,0.84*21
$GNGSA,A,3,408,413,406,416,430,403,401,427,420,409,425,423,1.02,0.57,0.84*13
$GNVTG,217.58,T,,M,6.635,N,12.288,K,D*18
$GNGGA,024535.00,3722.30050,N,12640.17473,E,2,12,0.57,11.7,M,17.9,M,,0000*78
$GNGSA,A,3,02,13,193,15,05,29,30,21,195,194,42,24,1.05,0.57,0.88*2A
$GNGSA,A,3,413,406,416,430,403,401,427,420,409,425,423,402,1.05,0.57,0.88*12
$GNVTG,217.67,T,,M,8.352,N,15.469,K,D*10
$GNGGA,024536.00,3722.29879,N,12640.17305,E,2,12,0.57,11.8,M,17.9,M,,0000*79
$GNGSA,A,3,02,13,193,15,05,29,30,21,195,194,42,24,1.05,0.57,0.88*2A
$GNGSA,A,3,413,406,416,430,403,401,427,420,409,425,423,402,1.05,0.57,0.88*12
$GNVTG,217.40,T,,M,10.049,N,18.611,K,D*25
$GNGGA,024537.00,3722.29670,N,12640.17101,E,2,12,0.57,11.9,M,17.9,M,,0000*78
$GNGSA,A,3,02,13,193,15,05,29,30,21,195,194,42,24,1.05,0.57,0.88*2A
$GNGSA,A,3,413,406,416,430,403,401,427,420,409,425,423,402,1.05,0.57,0.88*12
$GNVTG,217.42,T,,M,11.132,N,20.617,K,D*26
$GNGGA,024538.00,3722.29433,N,12640.16870,E,2,12,0.57,12.0,M,17.9,M,,0000*76
$GNGSA,A,3,02,13,193,15,05,29,30,21,195,194,42,24,1.05,0.57,0.88*2A
$GNGSA,A,3,413,406,416,430,403,401,427,420,409,425,423,402,1.05,0.57,0.88*12
$GNGLL,3722.29433,N,12640.16870,E,024538.00,A,D*78
$GNVTG,217.22,T,,M,12.278,N,22.740,K,D*2F
$GNGGA,024539.00,3722.29173,N,12640.16616,E,2,12,0.57,12.1,M,17.9,M,,0000*79
$GNGSA,A,3,02,13,193,15,05,29,30,21,195,194,42,24,1.02,0.57,0.84*21
$GNGSA,A,3,408,413,406,416,430,403,401,427,420,409,425,423,1.02,0.57,0.84*13
$GNVTG,217.23,T,,M,13.750,N,25.465,K,D*23
$GNGGA,024540.00,3722.28881,N,12640.16334,E,2,12,0.57,12.2,M,17.9,M,,0000*74
$GNGSA,A,3,02,13,193,15,05,29,30,21,195,194,42,24,1.02,0.57,0.84*21
$GNGSA,A,3,408,413,406,416,430,403,401,427,420,409,425,423,1.02,0.57,0.84*13
$GNVTG,217.50,T,,M,15.013,N,27.804,K,D*28
$GNGGA,024541.00,3722.28560,N,12640.16024,E,2,12,0.57,12.2,M,17.9,M,,0000*75
$GNGSA,A,3,02,13,193,15,05,29,30,21,195,194,42,24,1.02,0.57,0.84*21
$GNGSA,A,3,408,413,406,416,430,403,401,427,420,409,425,423,1.02,0.57,0.84*13
$GNVTG,217.52,T,,M,15.629,N,28.944,K,D*2F
$GNGGA,024542.00,3722.28222,N,12640.15696,E,2,12,0.57,12.2,M,17.9,M,,0000*7B
$GNGSA,A,3,02,13,193,15,05,29,30,21,195,194,42,24,1.02,0.57,0.84*21
$GNGSA,A,3,408,413,406,416,430,403,401,427,420,409,425,423,1.02,0.57,0.84*13
$GNVTG,217.56,T,,M,15.771,N,29.208,K,D*25
$GNGGA,024543.00,3722.27878,N,12640.15362,E,2,12,0.57,12.2,M,17.9,M,,0000*7E
$GNGSA,A,3,02,13,193,15,05,29,30,21,195,194,42,24,1.02,0.57,0.84*21
$GNGSA,A,3,408,413,406,416,430,403,401,427,420,409,425,423,1.02,0.57,0.84*13
$GNVTG,218.02,T,,M,15.774,N,29.213,K,D*24
$GNGGA,024544.00,3722.27534,N,12640.15025,E,2,12,0.57,12.2,M,17.9,M,,0000*7C
$GNGSA,A,3,02,13,193,15,05,29,30,21,195,194,42,24,1.02,0.57,0.84*21
$GNGSA,A,3,408,413,406,416,430,403,401,427,420,409,425,423,1.02,0.57,0.84*13
$GNGLL,3722.27534,N,12640.15025,E,024544.00,A,D*70
$GNVTG,218.12,T,,M,15.808,N,29.276,K,D*22
$GNGGA,024545.00,3722.27190,N,12640.14685,E,2,12,0.57,12.3,M,17.9,M,,0000*7B
$GNGSA,A,3,02,13,193,15,05,29,30,21,195,194,42,24,1.02,0.57,0.84*21
$GNGSA,A,3,408,413,406,416,430,403,401,427,420,409,425,423,1.02,0.57,0.84*13
$GNVTG,218.14,T,,M,15.785,N,29.234,K,D*28
$GNGGA,024546.00,3722.26847,N,12640.14344,E,2,12,0.57,12.4,M,17.9,M,,0000*75
$GNGSA,A,3,02,13,193,15,05,29,30,21,195,194,42,24,1.02,0.57,0.84*21
$GNGSA,A,3,408,413,406,416,430,403,401,427,420,409,425,423,1.02,0.57,0.84*13
$GNVTG,218.02,T,,M,15.723,N,29.119,K,D*2F
$GNGGA,024547.00,3722.26504,N,12640.14004,E,2,12,0.57,12.4,M,17.9,M,,0000*79
$GNGSA,A,3,02,13,193,15,05,29,30,21,195,194,42,24,1.02,0.57,0.84*21
$GNGSA,A,3,408,413,406,416,430,403,401,427,420,409,425,423,1.02,0.57,0.84*13
$GNVTG,217.93,T,,M,15.653,N,28.989,K,D*2E
$GNGGA,024548.00,3722.26163,N,12640.13667,E,2,12,0.57,12.5,M,17.9,M,,0000*76
$GNGSA,A,3,02,13,193,15,05,29,30,21,195,194,42,24,1.02,0.57,0.84*21
$GNGSA,A,3,408,413,406,416,430,403,401,427,420,409,425,423,1.02,0.57,0.84*13
$GNVTG,217.95,T,,M,15.681,N,29.041,K,D*2B
$GNGGA,024549.00,3722.25821,N,12640.13330,E,2,12,0.57,12.6,M,17.9,M,,0000*7F
$GNGSA,A,3,02,13,193,15,05,29,30,21,195,194,42,24,1.02,0.57,0.84*21
$GNGSA,A,3,408,413,406,416,430,403,401,427,420,409,425,423,1.02,0.57,0.84*13
$GNVTG,218.11,T,,M,15.705,N,29.086,K,D*2E
$GNGGA,024550.00,3722.25480,N,12640.12991,E,2,12,0.57,12.6,M,17.9,M,,0000*70
$GNGSA,A,3,02,13,193,15,05,29,30,21,195,194,42,24,1.02,0.57,0.84*21
$GNGSA,A,3,408,413,406,416,430,403,401,427,420,409,425,423,1.02,0.57,0.84*13
$GNVTG,217.94,T,,M,15.579,N,28.853,K,D*24
$GNGGA,024551.00,3722.25140,N,12640.12655,E,2,12,0.57,12.6,M,17.9,M,,0000*7F
$GNGSA,A,3,02,13,193,15,05,29,30,21,195,194,42,24,1.02,0.57,0.84*21
$GNGSA,A,3,408,413,406,416,430,403,401,427,420,409,425,423,1.02,0.57,0.84*13
$GNVTG,218.05,T,,M,15.615,N,28.918,K,D*24
$GNGGA,024552.00,3722.24800,N,12640.12319,E,2,12,0.56,12.6,M,17.9,M,,0000*7C
$GNGSA,A,3,02,13,193,15,05,29,30,21,195,194,42,24,1.01,0.56,0.84*23
$GNGSA,A,3,408,413,406,416,430,403,401,427,420,409,425,423,1.01,0.56,0.84*11
$GNVTG,217.60,T,,M,15.596,N,28.885,K,D*25
$GNGGA,024553.00,3722.24459,N,12640.11984,E,2,12,0.56,12.6,M,17.9,M,,0000*70
$GNGSA,A,3,02,13,193,15,05,29,30,21,195,194,42,24,1.01,0.56,0.84*23
$GNGSA,A,3,408,413,406,416,430,403,401,427,420,409,425,423,1.01,0.56,0.84*11
$GNVTG,217.75,T,,M,15.603,N,28.896,K,D*2C
$GNGGA,024554.00,3722.24116,N,12640.11651,E,2,12,0.56,12.6,M,17.9,M,,0000*7E
$GNGSA,A,3,02,13,193,15,05,29,30,21,195,194,42,24,1.01,0.56,0.84*23
$GNGSA,A,3,408,413,406,416,430,403,401,427,420,409,425,423,1.01,0.56,0.84*11
$GNVTG,217.97,T,,M,15.578,N,28.851,K,D*24
$GNGGA,024555.00,3722.23776,N,12640.11317,E,2,12,0.56,12.7,M,17.9,M,,0000*7E
$GNGSA,A,3,02,13,193,15,05,29,30,21,195,194,42,24,1.01,0.56,0.84*23
$GNGSA,A,3,408,413,406,416,430,403,401,427,420,409,425,423,1.01,0.56,0.84*11
$GNVTG,218.35,T,,M,15.617,N,28.923,K,D*2D
$GNGGA,024556.00,3722.23436,N,12640.10979,E,2,12,0.56,12.7,M,17.9,M,,0000*79
$GNGSA,A,3,02,13,193,15,05,29,30,21,195,194,42,24,1.01,0.56,0.84*23
$GNGSA,A,3,408,413,406,416,430,403,401,427,420,409,425,423,1.01,0.56,0.84*11
$GNVTG,218.02,T,,M,15.590,N,28.873,K,D*21
$GNGGA,024557.00,3722.23096,N,12640.10644,E,2,12,0.56,12.7,M,17.9,M,,0000*77
$GNGSA,A,3,02,13,193,15,05,29,30,21,195,194,42,24,1.01,0.56,0.84*23
$GNGSA,A,3,408,413,406,416,430,403,401,427,420,409,425,423,1.01,0.56,0.84*11
$GNVTG,217.39,T,,M,15.626,N,28.939,K,D*27
$GNGGA,024558.00,3722.22752,N,12640.10311,E,2,12,0.56,12.7,M,17.9,M,,0000*73
$GNGSA,A,3,02,13,193,15,05,29,30,21,195,194,42,24,1.01,0.56,0.84*23
$GNGSA,A,3,408,413,406,416,430,403,401,427,420,409,425,423,1.01,0.56,0.84*11
$GNVTG,217.58,T,,M,15.609,N,28.907,K,D*20
$GNGGA,024559.00,3722.22408,N,12640.09978,E,2,12,0.56,12.7,M,17.9,M,,0000*73
$GNGSA,A,3,02,13,193,15,05,29,30,21,195,194,42,24,1.01,0.56,0.84*23
$GNGSA,A,3,408,413,406,416,430,403,401,427,420,409,425,423,1.01,0.56,0.84*11
$GNGLL,3722.22408,N,12640.09978,E,024559.00,A,D*7B
$GNVTG,217.52,T,,M,15.654,N,28.990,K,D*2C
$GNGGA,024600.00,3722.22064,N,12640.09645,E,2,12,0.56,12.7,M,17.9,M,,0000*73
$GNGSA,A,3,02,13,193,15,05,29,30,21,195,194,42,24,1.01,0.56,0.84*23
$GNGSA,A,3,408,413,406,416,430,403,401,427,420,409,425,423,1.01,0.56,0.84*11
$GNVTG,217.46,T,,M,15.706,N,29.088,K,D*2E
$GNGGA,024601.00,3722.21719,N,12640.09313,E,2,12,0.56,12.7,M,17.9,M,,0000*7A
$GNGSA,A,3,02,13,193,15,05,29,30,21,195,194,42,24,1.01,0.56,0.84*23
$GNGSA,A,3,408,413,406,416,430,403,401,427,420,409,425,423,1.01,0.56,0.84*11
$GNVTG,217.63,T,,M,15.683,N,29.044,K,D*25
$GNGGA,024602.00,3722.21374,N,12640.08980,E,2,12,0.56,12.8,M,17.9,M,,0000*78
$GNGSA,A,3,02,13,193,15,05,29,30,21,195,194,42,24,1.01,0.56,0.84*23
$GNGSA,A,3,408,413,406,416,430,403,401,427,420,409,425,423,1.01,0.56,0.84*11
$GNVTG,217.60,T,,M,15.720,N,29.114,K,D*2A
$GNGGA,024603.00,3722.21028,N,12640.08646,E,2,12,0.56,12.8,M,17.9,M,,0000*76
$GNGSA,A,3,02,13,193,15,05,29,30,21,195,194,42,24,1.01,0.56,0.84*23
$GNGSA,A,3,408,413,406,416,430,403,401,427,420,409,425,423,1.01,0.56,0.84*11
$GNVTG,217.65,T,,M,15.723,N,29.119,K,D*21
$GNGGA,024604.00,3722.20682,N,12640.08310,E,2,12,0.56,12.8,M,17.9,M,,0000*70
$GNGSA,A,3,02,13,193,15,05,29,30,21,195,194,42,24,1.01,0.56,0.84*23
$GNGSA,A,3,408,413,406,416,430,403,401,427,420,409,425,423,1.01,0.56,0.84*11
$GNVTG,217.64,T,,M,15.713,N,29.101,K,D*2A
$GNGGA,024605.00,3722.20335,N,12640.07974,E,2,12,0.56,12.9,M,17.9,M,,0000*7E
$GNGSA,A,3,02,13,193,15,05,29,30,21,195,194,42,24,1.01,0.56,0.84*23
$GNGSA,A,3,408,413,406,416,430,403,401,427,420,409,425,423,1.01,0.56,0.84*11
$GNVTG,218.17,T,,M,15.628,N,28.943,K,D*27
$GNGGA,024606.00,3722.19991,N,12640.07638,E,2,12,0.56,13.0,M,17.9,M,,0000*7C
$GNGSA,A,3,02,13,193,15,05,29,30,21,195,194,42,24,1.01,0.56,0.84*23
$GNGSA,A,3,408,413,406,416,430,403,401,427,420,409,425,423,1.01,0.56,0.84*11
$GNVTG,217.87,T,,M,15.728,N,29.128,K,D*24
$GNGGA,024607.00,3722.19647,N,12640.07300,E,2,12,0.56,13.0,M,17.9,M,,0000*77
$GNGSA,A,3,02,13,193,15,05,29,30,21,195,194,42,24,1.01,0.56,0.84*23
$GNGSA,A,3,408,413,406,416,430,403,401,427,420,409,425,423,1.01,0.56,0.84*11
$GNVTG,217.57,T,,M,15.727,N,29.127,K,D*29
$GNGGA,024608.00,3722.19301,N,12640.06965,E,2,12,0.56,12.9,M,17.9,M,,0000*7F
$GNGSA,A,3,02,13,193,15,05,29,30,21,195,194,42,24,1.01,0.56,0.84*23
$GNGSA,A,3,408,413,406,416,430,403,401,427,420,409,425,423,1.01,0.56,0.84*11
$GNVTG,217.52,T,,M,15.743,N,29.156,K,D*28
$GNGGA,024609.00,3722.18954,N,12640.06631,E,2,12,0.56,12.9,M,17.9,M,,0000*7B
$GNGSA,A,3,02,13,193,15,05,29,30,21,195,194,42,24,1.01,0.56,0.84*23
