$GNVTG,,T,,M,0.023,N,0.043,K,A*3B
$GNGGA,030433.00,3722.86279,N,12640.71333,E,1,12,0.53,8.0,M,17.9,M,,*45
$GNGSA,A,3,02,13,41,193,15,05,29,30,21,195,194,20,0.98,0.53,0.82*26
$GNGSA,A,3,413,406,416,430,403,401,420,409,425,423,404,402,0.98,0.53,0.82*18
$GNGLL,3722.86279,N,12640.71333,E,030433.00,A,A*72
$GNZDA,030433.00,23,11,2019,00,00*74
$GNVTG,,T,,M,0.009,N,0.016,K,A*33
$GNGGA,030434.00,3722.86277,N,12640.71328,E,1,12,0.57,7.9,M,17.9,M,,*44
$GNGSA,A,3,02,13,41,193,15,05,29,30,21,195,194,24,1.07,0.57,0.91*23
$GNGSA,A,3,413,406,416,430,403,401,420,409,425,423,404,402,1.07,0.57,0.91*19
$GNGLL,3722.86277,N,12640.71328,E,030434.00,A,A*71
$GNVTG,,T,,M,0.048,N,0.089,K,A*30
$GNGSA,A,3,02,13,41,193,15,05,29,30,21,195,194,20,0.98,0.53,0.82*26
$GNGSA,A,3,413,406,416,430,403,401,420,409,425,423,404,402,0.98,0.53,0.82*18
$GNGLL,3722.86274,N,12640.71324,E,030435.00,A,A*7F
$GNZDA,030435.00,23,11,2019,00,00*72
$GNVTG,,T,,M,0.021,N,0.039,K,A*34
$GNGGA,030436.00,3722.86272,N,12640.71320,E,1,12,0.57,7.8,M,17.9,M,,*4A
$GNGSA,A,3,02,13,41,193,15,05,29,30,21,195,194,20,1.07,0.57,0.91*27
$GNGSA,A,3,413,406,416,430,403,401,420,409,425,423,404,402,1.07,0.57,0.91*19
$GNGLL,3722.86272,N,12640.71320,E,030436.00,A,A*7E
$GNVTG,,T,,M,0.058,N,0.107,K,D*33
$GNGGA,030437.00,3722.86269,N,12640.71314,E,2,12,0.56,7.7,M,17.9,M,,0000*4B
$GNGSA,A,3,02,13,41,193,15,05,29,30,21,195,194,20,1.04,0.56,0.87*22
$GNGSA,A,3,408,413,406,416,430,403,401,420,409,425,423,404,1.04,0.56,0.87*16
$GNGLL,3722.86269,N,12640.71314,E,030437.00,A,D*77
$GNZDA,030437.00,23,11,2019,00,00*70
$GNVTG,,T,,M,0.048,N,0.088,K,D*34
$GNGGA,030438.00,3722.86268,N,12640.71311,E,2,12,0.53,7.6,M,17.9,M,,0000*44
$GNGSA,A,3,02,13,41,193,15,05,29,30,21,195,194,20,0.95,0.53,0.79*2F
$GNGSA,A,3,408,413,406,416,430,403,401,420,409,425,423,404,0.95,0.53,0.79*1B
$GNGLL,3722.86268,N,12640.71311,E,030438.00,A,D*7C
$GNVTG,,T,,M,0.036,N,0.066,K,D*3D
$GNGGA,030439.00,3722.86266,N,12640.71307,E,2,12,0.56,7.5,M,17.9,M,,0000*4A
$GNGSA,A,3,02,13,41,193,15,05,29,30,21,195,194,24,1.04,0.56,0.87*26
$GNGSA,A,3,408,413,406,416,430,403,401,420,409,425,423,404,1.04,0.56,0.87*16
$GNGLL,3722.86266,N,12640.71307,E,030439.00,A,D*74
$GNVTG,,T,,M,0.025,N,0.047,K,D*3C
$GNGGA,030440.00,3722.86264,N,12640.71304,E,2,12,0.57,7.5,M,17.9,M,,0000*44
$GNGSA,A,3,02,13,41,193,15,05,29,30,21,195,194,20,1.07,0.57,0.91*27
$GNGSA,A,3,413,406,416,430,403,401,420,409,425,423,404,402,1.07,0.57,0.91*19
$GNGLL,3722.86264,N,12640.71304,E,030440.00,A,D*7B
$GNVTG,,T,,M,0.005,N,0.010,K,D*3C
$GNGGA,030441.00,3722.86262,N,12640.71299,E,2,12,0.57,7.4,M,17.9,M,,0000*47
$GNGSA,A,3,02,13,41,193,15,05,29,30,21,195,194,20,1.07,0.57,0.91*27
$GNGSA,A,3,413,406,416,430,403,401,420,409,425,423,404,402,1.07,0.57,0.91*19
$GNGLL,3722.86262,N,12640.71299,E,030441.00,A,D*79
$GNVTG,,T,,M,0.015,N,0.028,K,D*36
$GNGGA,030442.00,3722.86260,N,12640.71294,E,2,12,0.57,7.3,M,17.9,M,,0000*4C
$GNGSA,A,3,02,13,41,193,15,05,29,30,21,195,194,20,1.07,0.57,0.91*27
$GNGSA,A,3,413,406,416,430,403,401,420,409,425,423,404,402,1.07,0.57,0.91*19
$GNGLL,3722.86260,N,12640.71294,E,030442.00,A,D*75
$GNZDA,030442.00,23,11,2019,00,00*72
$GNVTG,,T,,M,0.032,N,0.060,K,D*3F
$GNGGA,030443.00,3722.86258,N,12640.71290,E,2,12,0.57,7.3,M,17.9,M,,0000*42
$GNGSA,A,3,02,13,41,193,15,05,29,30,21,195,194,20,1.07,0.57,0.91*27
$GNGSA,A,3,413,406,416,430,403,401,420,409,425,423,404,402,1.07,0.57,0.91*19
$GNGLL,3722.86258,N,12640.71290,E,030443.00,A,D*7B
$GNVTG,,T,,M,0.020,N,0.037,K,D*3E
$GNGGA,030444.00,3722.86256,N,12640.71286,E,2,12,0.57,7.3,M,17.9,M,,0000*4C
$GNGSA,A,3,02,13,41,193,15,05,29,30,21,195,194,20,1.07,0.57,0.91*27
$GNGSA,A,3,413,406,416,430,403,401,420,409,425,423,404,402,1.07,0.57,0.91*19
$GNGLL,3722.86256,N,12640.71286,E,030444.00,A,D*75
$GNVTG,,T,,M,0.022,N,0.041,K,D*3D
$GNGGA,030445.00,3722.86256,N,12640.71283,E,2,12,0.57,7.3,M,17.9,M,,0000*48
$GNGSA,A,3,02,13,41,193,15,05,29,30,21,195,194,20,1.07,0.57,0.91*27
$GNGSA,A,3,413,406,416,430,403,401,420,409,425,423,404,402,1.07,0.57,0.91*19
$GNGLL,3722.86256,N,12640.71283,E,030445.00,A,D*71
$GNZDA,030445.00,23,11,2019,00,00*75
$GNVTG,,T,,M,0.043,N,0.080,K,D*37
$GNGGA,030446.00,3722.86255,N,12640.71281,E,2,12,0.57,7.3,M,17.9,M,,0000*4A
$GNGSA,A,3,02,13,41,193,15,05,29,30,21,195,194,20,1.07,0.57,0.91*27
$GNGSA,A,3,413,406,416,430,403,401,420,409,425,423,404,402,1.07,0.57,0.91*19
$GNGLL,3722.86255,N,12640.71281,E,030446.00,A,D*73
$GNZDA,030446.00,23,11,2019,00,00*76
$GNVTG,,T,,M,0.008,N,0.015,K,D*34
$GNGGA,030447.00,3722.86255,N,12640.71278,E,2,12,0.53,7.3,M,17.9,M,,0000*49
$GNGSA,A,3,02,13,41,193,15,05,29,30,21,195,194,20,0.98,0.53,0.82*26
$GNGSA,A,3,413,406,416,430,403,401,420,409,425,423,404,402,0.98,0.53,0.82*18
$GNGLL,3722.86255,N,12640.71278,E,030447.00,A,D*74
$GNVTG,,T,,M,0.023,N,0.043,K,D*3E
$GNGGA,030448.00,3722.86256,N,12640.71276,E,2,12,0.57,7.3,M,17.9,M,,0000*4F
$GNGSA,A,3,02,13,41,193,15,05,29,30,21,195,194,24,1.07,0.57,0.91*23
$GNGSA,A,3,413,406,416,430,403,401,420,409,425,423,404,402,1.07,0.57,0.91*19
$GNGLL,3722.86256,N,12640.71276,E,030448.00,A,D*76
$GNZDA,030448.00,23,11,2019,00,00*78
$GNVTG,,T,,M,0.025,N,0.046,K,D*3D
$GNGGA,030449.00,3722.86257,N,12640.71274,E,2,12,0.57,7.2,M,17.9,M,,0000*4C
$GNGSA,A,3,02,13,41,193,15,05,29,30,21,195,194,20,1.07,0.57,0.91*27
$GNGSA,A,3,413,406,416,430,403,401,420,409,425,423,404,402,1.07,0.57,0.91*19
$GNGLL,3722.86257,N,12640.71274,E,030449.00,A,D*74
$GNZDA,030449.00,23,11,2019,00,00*79
$GNVTG,,T,,M,0.029,N,0.054,K,D*32
$GNGGA,030450.00,3722.86258,N,12640.71271,E,2,12,0.57,7.2,M,17.9,M,,0000*4E
$GNGSA,A,3,02,13,41,193,15,05,29,30,21,195,194,24,1.07,0.57,0.91*23
$GNGSA,A,3,413,406,416,430,403,401,420,409,425,423,404,402,1.07,0.57,0.91*19
$GNGLL,3722.86258,N,12640.71271,E,030450.00,A,D*76
$GNVTG,,T,,M,0.016,N,0.030,K,D*3C
$GNGGA,030451.00,3722.86259,N,12640.71268,E,2,12,0.57,7.2,M,17.9,M,,0000*46
$GNGSA,A,3,02,13,41,193,15,05,29,30,21,195,194,20,1.07,0.57,0.91*27
$GNGSA,A,3,413,406,416,430,403,401,420,409,425,423,404,402,1.07,0.57,0.91*19
$GNGLL,3722.86259,N,12640.71268,E,030451.00,A,D*7E
$GNVTG,,T,,M,0.040,N,0.074,K,D*3F
$GNGGA,030452.00,3722.86258,N,12640.71268,E,2,12,0.60,7.2,M,17.9,M,,0000*40
$GNGSA,A,3,02,13,41,193,15,05,29,30,21,195,194,20,1.10,0.60,0.93*27
$GNGSA,A,3,413,406,416,430,403,401,420,409,425,423,404,402,1.10,0.60,0.93*19
$GNGLL,3722.86258,N,12640.71268,E,030452.00,A,D*7C
$GNVTG,,T,,M,0.048,N,0.090,K,D*3D
$GNGGA,030453.00,3722.86257,N,12640.71268,E,2,12,0.60,7.2,M,17.9,M,,0000*4E
$GNGSA,A,3,02,13,41,193,15,05,29,30,21,195,194,20,1.10,0.60,0.93*27
$GNGSA,A,3,413,406,416,430,403,401,420,409,425,423,404,402,1.10,0.60,0.93*19
$GNGLL,3722.86257,N,12640.71268,E,030453.00,A,D*72
$GNZDA,030453.00,23,11,2019,00,00*72
$GNVTG,,T,,M,0.060,N,0.111,K,D*3F
$GNGGA,030454.00,3722.86257,N,12640.71269,E,2,12,0.60,7.2,M,17.9,M,,0000*48
$GNGSA,A,3,02,13,41,193,15,05,29,30,21,195,194,20,1.10,0.60,0.93*27
$GNGSA,A,3,413,406,416,430,403,401,420,409,425,423,404,402,1.10,0.60,0.93*19
$GNVTG,,T,,M,0.037,N,0.069,K,D*33
$GNGGA,030455.00,3722.86255,N,12640.71266,E,2,12,0.56,7.3,M,17.9,M,,0000*40
$GNGSA,A,3,02,13,41,193,15,05,29,30,21,195,194,20,1.03,0.56,0.87*25
$GNGSA,A,3,408,413,406,416,430,403,401,420,409,425,423,404,1.03,0.56,0.87*11
$GNGLL,3722.86255,N,12640.71266,E,030455.00,A,D*78
$GNVTG,,T,,M,0.072,N,0.134,K,D*3B
$GNGGA,030456.00,3722.86257,N,12640.71263,E,2,12,0.53,7.2,M,17.9,M,,0000*40
$GNGSA,A,3,02,13,41,193,15,05,29,30,21,195,194,20,0.95,0.53,0.79*2F
$GNGSA,A,3,408,413,406,416,430,403,401,420,409,425,423,404,0.95,0.53,0.79*1B
$GNGLL,3722.86257,N,12640.71263,E,030456.00,A,D*7C
$GNZDA,030456.00,23,11,2019,00,00*77
$GNVTG,,T,,M,0.080,N,0.149,K,D*3C
$GNGGA,030457.00,3722.86257,N,12640.71261,E,2,12,0.56,7.2,M,17.9,M,,0000*46
$GNGSA,A,3,02,13,41,193,15,05,29,30,21,195,194,20,1.03,0.56,0.87*25
$GNGSA,A,3,408,413,406,416,430,403,401,420,409,425,423,404,1.03,0.56,0.87*11
$GNGLL,3722.86257,N,12640.71261,E,030457.00,A,D*7F
$GNVTG,220.65,T,,M,1.661,N,3.076,K,D*27
$GNGGA,030458.00,3722.86232,N,12640.71233,E,2,12,0.56,7.1,M,17.9,M,,0000*4E
$GNGSA,A,3,02,13,41,193,15,05,29,30,21,195,194,20,1.03,0.56,0.87*25
$GNGSA,A,3,408,413,406,416,430,403,401,420,409,425,423,404,1.03,0.56,0.87*11
$GNGLL,3722.86232,N,12640.71233,E,030458.00,A,D*74
$GNVTG,211.18,T,,M,9.220,N,17.075,K,D*10
$GNGGA,030459.00,3722.86069,N,12640.71104,E,2,12,0.53,7.0,M,17.9,M,,0000*40
$GNGSA,A,3,02,13,41,193,15,05,29,30,21,195,194,20,0.95,0.53,0.79*2F
$GNGSA,A,3,408,413,406,416,430,403,401,420,409,425,423,404,0.95,0.53,0.79*1B
$GNGLL,3722.86069,N,12640.71104,E,030459.00,A,D*7E
$GNVTG,204.92,T,,M,16.957,N,31.405,K,D*24
$GNGGA,030500.00,3722.85703,N,12640.70883,E,2,12,0.53,7.0,M,17.9,M,,0000*42
$GNGSA,A,3,02,13,41,193,15,05,29,30,21,195,194,20,0.95,0.53,0.79*2F
$GNGSA,A,3,408,413,406,416,430,403,401,420,409,425,423,404,0.95,0.53,0.79*1B
$GNGLL,3722.85703,N,12640.70883,E,030500.00,A,D*7C
$GNZDA,030500.00,23,11,2019,00,00*75
$GNVTG,207.56,T,,M,24.839,N,46.002,K,D*24
$GNGGA,030501.00,3722.85142,N,12640.70528,E,2,12,0.59,7.1,M,17.9,M,,0000*47
$GNGSA,A,3,02,13,41,193,15,05,29,30,21,195,24,,1.06,0.59,0.88*18
$GNGSA,A,3,408,413,406,416,430,403,420,409,425,423,404,402,1.06,0.59,0.88*17
$GNVTG,210.40,T,,M,30.763,N,56.974,K,D*29
$GNGGA,030502.00,3722.84441,N,12640.70028,E,2,12,0.59,7.2,M,17.9,M,,0000*45
$GNGSA,A,3,02,13,41,193,15,05,29,30,21,195,24,,1.06,0.59,0.88*18
$GNGSA,A,3,408,413,406,416,430,403,420,409,425,423,404,402,1.06,0.59,0.88*17
$GNGLL,3722.84441,N,12640.70028,E,030502.00,A,D*73
$GNVTG,212.50,T,,M,36.141,N,66.933,K,D*2A
$GNGGA,030503.00,3722.83620,N,12640.69392,E,2,12,0.56,7.4,M,17.9,M,,0000*45
$GNGSA,A,3,02,13,41,193,15,05,29,30,21,195,20,24,0.98,0.56,0.80*1B
$GNGSA,A,3,408,413,406,416,430,403,420,409,425,423,404,402,0.98,0.56,0.80*16
$GNGLL,3722.83620,N,12640.69392,E,030503.00,A,D*7A
$GNZDA,030503.00,23,11,2019,00,00*76
$GNVTG,214.00,T,,M,41.141,N,76.192,K,D*2B
$GNGGA,030504.00,3722.82698,N,12640.68629,E,2,12,0.54,7.5,M,17.9,M,,0000*47
$GNGSA,A,3,02,13,41,193,15,05,29,30,21,195,194,20,0.96,0.54,0.79*2B
$GNGSA,A,3,408,413,406,416,430,403,401,420,409,425,423,402,0.96,0.54,0.79*19
$GNGLL,3722.82698,N,12640.68629,E,030504.00,A,D*7B
$GNVTG,214.53,T,,M,45.038,N,83.410,K,D*23
$GNGGA,030505.00,3722.81687,N,12640.67767,E,2,12,0.54,7.6,M,17.9,M,,0000*4C
$GNGSA,A,3,02,13,41,193,15,05,29,30,21,195,194,20,0.96,0.54,0.79*2B
$GNGSA,A,3,408,413,406,416,430,403,401,420,409,425,423,402,0.96,0.54,0.79*19
$GNGLL,3722.81687,N,12640.67767,E,030505.00,A,D*73
$GNVTG,215.18,T,,M,46.893,N,86.846,K,D*2D
$GNGGA,030506.00,3722.80629,N,12640.66844,E,2,12,0.58,7.7,M,17.9,M,,0000*48
$GNGSA,A,3,02,13,41,193,15,05,29,21,195,194,20,24,1.01,0.58,0.83*28
$GNGSA,A,3,408,413,406,416,430,403,401,420,409,425,423,402,1.01,0.58,0.83*1F
$GNVTG,216.11,T,,M,47.327,N,87.649,K,D*22
$GNGGA,030507.00,3722.79564,N,12640.65881,E,2,12,0.58,7.7,M,17.9,M,,0000*4F
$GNGSA,A,3,02,13,41,193,15,05,29,21,195,194,20,24,1.01,0.58,0.83*28
$GNGSA,A,3,408,413,406,416,430,403,401,420,409,425,423,402,1.01,0.58,0.83*1F
$GNGLL,3722.79564,N,12640.65881,E,030507.00,A,D*7D
$GNZDA,030507.00,23,11,2019,00,00*72
$GNVTG,216.25,T,,M,47.499,N,87.969,K,D*2A
$GNGGA,030508.00,3722.78498,N,12640.64905,E,2,12,0.57,7.7,M,17.9,M,,0000*40
$GNGSA,A,3,02,13,41,193,15,05,29,21,195,194,20,24,1.01,0.57,0.83*27
$GNGSA,A,3,408,413,406,416,430,403,401,420,409,425,423,404,1.01,0.57,0.83*16
$GNGLL,3722.78498,N,12640.64905,E,030508.00,A,D*7D
$GNVTG,217.19,T,,M,47.357,N,87.706,K,D*26
$GNGGA,030509.00,3722.77443,N,12640.63913,E,2,12,0.58,7.8,M,17.9,M,,0000*48
$GNGSA,A,3,02,13,41,193,15,05,29,21,195,194,20,24,1.01,0.58,0.83*28
$GNGSA,A,3,408,413,406,416,430,403,401,420,409,425,423,404,1.01,0.58,0.83*19
$GNGLL,3722.77443,N,12640.63913,E,030509.00,A,D*75
$GNVTG,217.58,T,,M,47.382,N,87.752,K,D*2A
$GNGGA,030510.00,3722.76397,N,12640.62910,E,2,12,0.54,7.8,M,17.9,M,,0000*41
$GNGSA,A,3,02,13,41,193,15,05,29,30,21,195,194,20,0.96,0.54,0.79*2B
$GNGSA,A,3,408,413,406,416,430,403,401,420,409,425,423,404,0.96,0.54,0.79*1F
$GNGLL,3722.76397,N,12640.62910,E,030510.00,A,D*70
$GNVTG,217.52,T,,M,47.544,N,88.051,K,D*27
$GNGGA,030511.00,3722.75350,N,12640.61902,E,2,12,0.54,7.8,M,17.9,M,,0000*48
$GNGSA,A,3,02,13,41,193,15,05,29,30,21,195,194,20,0.96,0.54,0.79*2B
$GNGSA,A,3,408,413,406,416,430,403,401,420,409,425,423,402,0.96,0.54,0.79*19
$GNGLL,3722.75350,N,12640.61902,E,030511.00,A,D*79
$GNVTG,216.62,T,,M,47.544,N,88.052,K,D*26
$GNGGA,030512.00,3722.74293,N,12640.60908,E,2,12,0.55,7.8,M,17.9,M,,0000*4E
$GNGSA,A,3,02,13,41,193,15,05,29,30,21,195,194,20,0.99,0.55,0.82*21
$GNGSA,A,3,413,406,416,430,403,401,420,409,425,423,402,429,0.99,0.55,0.82*10
$GNVTG,215.39,T,,M,47.442,N,87.862,K,D*28
$GNGGA,030513.00,3722.73220,N,12640.59942,E,2,12,0.55,7.9,M,17.9,M,,0000*45
$GNGSA,A,3,02,13,41,193,15,05,29,30,21,195,194,20,0.99,0.55,0.82*21
$GNGSA,A,3,413,406,416,430,403,401,420,409,425,423,402,429,0.99,0.55,0.82*10
$GNVTG,215.58,T,,M,47.502,N,87.973,K,D*2B
$GNGGA,030514.00,3722.72143,N,12640.58981,E,2,12,0.55,8.0,M,17.9,M,,0000*4D
$GNGSA,A,3,02,13,41,193,15,05,29,30,21,195,194,20,0.99,0.55,0.82*21
$GNGSA,A,3,413,406,416,430,403,401,420,409,425,423,402,429,0.99,0.55,0.82*10
$GNVTG,216.89,T,,M,47.506,N,87.981,K,D*2D
$GNGGA,030515.00,3722.71080,N,12640.57995,E,2,12,0.55,8.1,M,17.9,M,,0000*4A
$GNGSA,A,3,02,13,41,193,15,05,29,30,21,195,194,20,0.99,0.55,0.82*21
$GNGSA,A,3,413,406,416,430,403,401,420,409,425,423,402,429,0.99,0.55,0.82*10
$GNVTG,217.48,T,,M,47.560,N,88.081,K,D*27
$GNGGA,030516.00,3722.70028,N,12640.56990,E,2,12,0.55,8.1,M,17.9,M,,0000*4E
$GNGSA,A,3,02,13,41,193,15,05,29,30,21,195,194,20,0.99,0.55,0.82*21
$GNGSA,A,3,413,406,416,430,403,401,420,409,425,423,402,429,0.99,0.55,0.82*10
$GNGLL,3722.70028,N,12640.56990,E,030516.00,A,D*78
$GNVTG,217.79,T,,M,47.546,N,88.055,K,D*28
$GNGGA,030517.00,3722.68981,N,12640.55976,E,2,12,0.59,8.3,M,17.9,M,,0000*49
$GNGSA,A,3,02,13,41,15,05,29,21,195,194,20,24,,1.08,0.59,0.90*19
$GNGSA,A,3,413,406,416,430,403,401,420,409,425,423,402,429,1.08,0.59,0.90*16
$GNVTG,217.60,T,,M,47.697,N,88.336,K,D*29
$GNGGA,030518.00,3722.67932,N,12640.54963,E,2,12,0.55,8.4,M,17.9,M,,0000*4F
$GNGSA,A,3,02,13,41,15,05,29,30,21,195,194,20,24,1.03,0.55,0.87*1B
$GNGSA,A,3,413,406,416,430,403,401,420,409,425,423,404,402,1.03,0.55,0.87*18
$GNVTG,217.80,T,,M,47.608,N,88.171,K,D*20
$GNGGA,030519.00,3722.66885,N,12640.53947,E,2,12,0.55,8.4,M,17.9,M,,0000*43
$GNGSA,A,3,02,13,41,193,15,05,29,30,21,195,194,20,0.99,0.55,0.82*21
$GNGSA,A,3,413,406,416,430,403,401,420,409,425,423,402,429,0.99,0.55,0.82*10
$GNVTG,217.59,T,,M,47.593,N,88.143,K,D*24
$GNGGA,030520.00,3722.65837,N,12640.52933,E,2,12,0.55,8.4,M,17.9,M,,0000*41
$GNGSA,A,3,02,13,41,193,15,05,29,30,21,195,194,20,0.99,0.55,0.82*21
$GNGSA,A,3,413,406,416,430,403,401,420,409,425,423,402,429,0.99,0.55,0.82*10
$GNVTG,217.77,T,,M,47.556,N,88.073,K,D*23
$GNGGA,030521.00,3722.64790,N,12640.51918,E,2,12,0.55,8.5,M,17.9,M,,0000*48
$GNGSA,A,3,02,13,41,193,15,05,29,30,21,195,194,20,0.99,0.55,0.82*21
$GNGSA,A,3,413,406,416,430,403,401,420,409,425,423,404,402,0.99,0.55,0.82*1F
$GNVTG,217.58,T,,M,47.569,N,88.098,K,D*27
$GNGGA,030522.00,3722.63743,N,12640.50904,E,2,12,0.55,8.6,M,17.9,M,,0000*4D
$GNGSA,A,3,02,13,41,193,15,05,29,30,21,195,194,20,0.99,0.55,0.82*21
$GNGSA,A,3,413,406,416,430,403,401,420,409,425,423,402,429,0.99,0.55,0.82*10
$GNGLL,3722.63743,N,12640.50904,E,030522.00,A,D*7C
$GNVTG,217.41,T,,M,47.399,N,87.783,K,D*24
$GNGGA,030523.00,3722.62696,N,12640.49898,E,2,12,0.55,8.5,M,17.9,M,,0000*4B
$GNGSA,A,3,02,13,41,193,15,05,29,30,21,195,194,20,0.99,0.55,0.82*21
$GNGSA,A,3,413,406,416,430,403,401,420,409,425,423,402,429,0.99,0.55,0.82*10
$GNVTG,217.37,T,,M,47.504,N,87.978,K,D*2D
$GNGGA,030524.00,3722.61644,N,12640.48894,E,2,12,0.55,8.5,M,17.9,M,,0000*4D
$GNGSA,A,3,02,13,41,193,15,05,29,30,21,195,194,20,0.99,0.55,0.82*21
$GNGSA,A,3,413,406,416,430,403,401,420,409,425,423,402,429,0.99,0.55,0.82*10
$GNVTG,217.33,T,,M,47.555,N,88.071,K,D*22
$GNGGA,030525.00,3722.60592,N,12640.47889,E,2,12,0.55,8.5,M,17.9,M,,0000*46
$GNGSA,A,3,02,13,41,193,15,05,29,30,21,195,194,20,0.99,0.55,0.82*21
$GNGSA,A,3,413,406,416,430,403,401,420,409,425,423,402,429,0.99,0.55,0.82*10
$GNVTG,217.25,T,,M,47.565,N,88.091,K,D*28
$GNGGA,030526.00,3722.59538,N,12640.46883,E,2,12,0.55,8.5,M,17.9,M,,0000*44
$GNGSA,A,3,02,13,41,193,15,05,29,30,21,195,194,20,0.99,0.55,0.82*21
$GNGSA,A,3,413,406,416,430,403,401,420,409,425,423,402,429,0.99,0.55,0.82*10
$GNVTG,217.40,T,,M,47.626,N,88.204,K,D*21
$GNGGA,030527.00,3722.58485,N,12640.45876,E,2,12,0.54,8.5,M,17.9,M,,0000*4B
$GNGSA,A,3,02,13,41,193,15,05,29,30,21,195,194,20,0.96,0.54,0.79*2B
$GNGSA,A,3,408,413,406,416,430,403,401,420,409,425,423,402,0.96,0.54,0.79*19
$GNVTG,217.68,T,,M,47.652,N,88.251,K,D*28
$GNGGA,030528.00,3722.57435,N,12640.44861,E,2,12,0.53,8.4,M,17.9,M,,0000*41
$GNGSA,A,3,02,13,41,193,15,05,29,30,21,195,194,20,0.95,0.53,0.79*2F
$GNGSA,A,3,408,413,406,416,430,403,401,420,409,425,423,404,0.95,0.53,0.79*1B
$GNGLL,3722.57435,N,12640.44861,E,030528.00,A,D*74
$GNVTG,218.12,T,,M,47.623,N,88.197,K,D*25
$GNGGA,030529.00,3722.56390,N,12640.43837,E,2,12,0.53,8.5,M,17.9,M,,0000*4C
$GNGSA,A,3,02,13,41,193,15,05,29,30,21,195,194,20,0.95,0.53,0.79*2F
$GNGSA,A,3,408,413,406,416,430,403,401,420,409,425,423,404,0.95,0.53,0.79*1B
$GNVTG,218.23,T,,M,47.659,N,88.264,K,D*25
$GNGGA,030530.00,3722.55349,N,12640.42809,E,2,12,0.53,8.5,M,17.9,M,,0000*4F
$GNGSA,A,3,02,13,41,193,15,05,29,30,21,195,194,20,0.95,0.53,0.79*2F
$GNGSA,A,3,408,413,406,416,430,403,401,420,409,425,423,404,0.95,0.53,0.79*1B
$GNVTG,217.80,T,,M,47.634,N,88.218,K,D*23
$GNGGA,030531.00,3722.54305,N,12640.41787,E,2,12,0.53,8.4,M,17.9,M,,0000*4C
$GNGSA,A,3,02,13,41,193,15,05,29,30,21,195,194,20,0.95,0.53,0.79*2F
$GNGSA,A,3,408,413,406,416,430,403,401,420,409,425,423,404,0.95,0.53,0.79*1B
$GNVTG,218.15,T,,M,47.610,N,88.174,K,D*2F
$GNGGA,030532.00,3722.53262,N,12640.40763,E,2,12,0.53,8.5,M,17.9,M,,0000*42
$GNGSA,A,3,02,13,41,193,15,05,29,30,21,195,194,20,0.95,0.53,0.79*2F
$GNGSA,A,3,408,413,406,416,430,403,401,420,409,425,423,404,0.95,0.53,0.79*1B
$GNGLL,3722.53262,N,12640.40763,E,030532.00,A,D*76
$GNVTG,217.69,T,,M,47.581,N,88.119,K,D*2B
$GNGGA,030533.00,3722.52216,N,12640.39747,E,2,12,0.53,8.4,M,17.9,M,,0000*48
$GNGSA,A,3,02,13,41,193,15,05,29,30,21,195,194,20,0.95,0.53,0.79*2F
$GNGSA,A,3,408,413,406,416,430,403,401,420,409,425,423,404,0.95,0.53,0.79*1B
$GNVTG,217.74,T,,M,47.597,N,88.149,K,D*25
$GNGGA,030534.00,3722.51169,N,12640.38732,E,2,12,0.53,8.4,M,17.9,M,,0000*44
$GNGSA,A,3,02,13,41,193,15,05,29,30,21,195,194,20,0.95,0.53,0.79*2F
$GNGSA,A,3,408,413,406,416,430,403,401,420,409,425,423,404,0.95,0.53,0.79*1B
$GNVTG,217.70,T,,M,47.502,N,87.973,K,D*23
$GNGGA,030535.00,3722.50124,N,12640.37719,E,2,12,0.53,8.5,M,17.9,M,,0000*4A
$GNGSA,A,3,02,13,41,193,15,05,29,30,21,195,194,20,0.95,0.53,0.79*2F
$GNGSA,A,3,408,413,406,416,430,403,401,420,409,425,423,404,0.95,0.53,0.79*1B
$GNVTG,217.43,T,,M,47.560,N,88.081,K,D*2C
$GNGGA,030536.00,3722.49076,N,12640.36710,E,2,12,0.53,8.4,M,17.9,M,,0000*4E
$GNGSA,A,3,02,13,41,193,15,05,29,30,21,195,194,20,0.95,0.53,0.79*2F
$GNGSA,A,3,408,413,406,416,430,403,401,420,409,425,423,404,0.95,0.53,0.79*1B
$GNGLL,3722.49076,N,12640.36710,E,030536.00,A,D*7B
$GNVTG,217.73,T,,M,47.469,N,87.912,K,D*2B
$GNGGA,030537.00,3722.48030,N,12640.35698,E,2,12,0.53,8.4,M,17.9,M,,0000*4E
$GNGSA,A,3,02,13,41,193,15,05,29,30,21,195,194,20,0.95,0.53,0.79*2F
$GNGSA,A,3,408,413,406,416,430,403,401,420,409,425,423,404,0.95,0.53,0.79*1B
$GNVTG,217.74,T,,M,47.544,N,88.051,K,D*23
$GNGGA,030538.00,3722.46985,N,12640.34684,E,2,12,0.53,8.4,M,17.9,M,,0000*44
$GNGSA,A,3,02,13,41,193,15,05,29,30,21,195,194,20,0.95,0.53,0.79*2F
$GNGSA,A,3,408,413,406,416,430,403,401,420,409,425,423,404,0.95,0.53,0.79*1B
$GNVTG,217.72,T,,M,47.513,N,87.995,K,D*29
$GNGGA,030539.00,3722.45938,N,12640.33670,E,2,12,0.53,8.4,M,17.9,M,,0000*4C
$GNGSA,A,3,02,13,41,193,15,05,29,30,21,195,194,20,0.95,0.53,0.79*2F
$GNGSA,A,3,408,413,406,416,430,403,401,420,409,425,423,404,0.95,0.53,0.79*1B
$GNGLL,3722.45938,N,12640.33670,E,030539.00,A,D*79
$GNVTG,217.49,T,,M,47.613,N,88.179,K,D*27
$GNGGA,030540.00,3722.44891,N,12640.32659,E,2,12,0.53,8.2,M,17.9,M,,0000*4D
$GNGSA,A,3,02,13,41,193,15,05,29,30,21,195,194,20,0.95,0.53,0.79*2F
$GNGSA,A,3,408,413,406,416,430,403,401,420,409,425,423,404,0.95,0.53,0.79*1B
$GNVTG,217.93,T,,M,47.523,N,88.012,K,D*2C
$GNGGA,030541.00,3722.43845,N,12640.31644,E,2,12,0.57,8.4,M,17.9,M,,0000*4F
$GNGSA,A,3,02,13,41,193,15,05,29,21,195,194,20,24,1.01,0.57,0.83*27
$GNGSA,A,3,408,413,406,416,430,403,401,420,409,425,423,404,1.01,0.57,0.83*16
$GNVTG,217.65,T,,M,47.544,N,88.052,K,D*20
$GNGGA,030542.00,3722.42799,N,12640.30629,E,2,12,0.57,8.3,M,17.9,M,,0000*4E
$GNGSA,A,3,02,13,41,193,15,05,29,21,195,194,20,24,1.01,0.57,0.83*27
$GNGSA,A,3,408,413,406,416,430,403,401,420,409,425,423,404,1.01,0.57,0.83*16
$GNVTG,217.74,T,,M,47.683,N,88.309,K,D*25
$GNGGA,030543.00,3722.41749,N,12640.29612,E,2,12,0.53,8.4,M,17.9,M,,0000*42
$GNGSA,A,3,02,13,41,193,15,05,29,30,21,195,194,20,0.95,0.53,0.79*2F
$GNGSA,A,3,408,413,406,416,430,403,401,420,409,425,423,404,0.95,0.53,0.79*1B
$GNGLL,3722.41749,N,12640.29612,E,030543.00,A,D*77
$GNVTG,217.44,T,,M,47.670,N,88.285,K,D*2F
$GNGGA,030544.00,3722.40697,N,12640.28601,E,2,12,0.53,8.4,M,17.9,M,,0000*45
$GNGSA,A,3,02,13,41,193,15,05,29,30,21,195,194,20,0.95,0.53,0.79*2F
$GNGSA,A,3,408,413,406,416,430,403,401,420,409,425,423,404,0.95,0.53,0.79*1B
$GNGLL,3722.40697,N,12640.28601,E,030544.00,A,D*70
$GNVTG,217.09,T,,M,47.755,N,88.442,K,D*2D
$GNGGA,030545.00,3722.39641,N,12640.27596,E,2,12,0.53,8.2,M,17.9,M,,0000*45
$GNGSA,A,3,02,13,41,193,15,05,29,30,21,195,194,20,0.95,0.53,0.79*2F
$GNGSA,A,3,408,413,406,416,430,403,401,420,409,425,423,404,0.95,0.53,0.79*1B
$GNGLL,3722.39641,N,12640.27596,E,030545.00,A,D*76
$GNZDA,030545.00,23,11,2019,00,00*74
$GNVTG,217.35,T,,M,47.584,N,88.125,K,D*28
$GNGGA,030546.00,3722.38587,N,12640.26589,E,2,12,0.53,8.2,M,17.9,M,,0000*41
$GNGSA,A,3,02,13,41,193,15,05,29,30,21,195,194,20,0.95,0.53,0.79*2F
$GNGSA,A,3,408,413,406,416,430,403,401,420,409,425,423,404,0.95,0.53,0.79*1B
$GNGLL,3722.38587,N,12640.26589,E,030546.00,A,D*72
$GNVTG,217.72,T,,M,47.524,N,88.014,K,D*22
$GNGGA,030547.00,3722.37540,N,12640.25578,E,2,12,0.53,8.2,M,17.9,M,,0000*49
$GNGSA,A,3,02,13,41,193,15,05,29,30,21,195,194,20,0.98,0.53,0.82*26
$GNGSA,A,3,413,406,416,430,403,401,420,409,425,423,404,402,0.98,0.53,0.82*18
$GNGLL,3722.37540,N,12640.25578,E,030547.00,A,D*7A
$GNVTG,217.67,T,,M,47.352,N,87.695,K,D*21
$GNGGA,030548.00,3722.36497,N,12640.24568,E,2,12,0.57,8.2,M,17.9,M,,0000*48
$GNGSA,A,3,02,13,41,193,15,05,29,30,21,195,20,24,1.00,0.57,0.83*19
$GNGSA,A,3,413,406,416,430,403,401,420,409,425,423,404,402,1.00,0.57,0.83*1D
$GNVTG,217.69,T,,M,46.602,N,86.307,K,D*21
$GNGGA,030549.00,3722.35468,N,12640.23570,E,2,12,0.53,8.1,M,17.9,M,,0000*43
$GNGSA,A,3,02,13,41,193,15,05,29,30,21,195,194,20,0.98,0.53,0.82*26
$GNGSA,A,3,413,406,416,430,403,401,420,409,425,423,404,402,0.98,0.53,0.82*18
$GNVTG,217.46,T,,M,45.219,N,83.746,K,D*25
$GNGGA,030550.00,3722.34464,N,12640.22600,E,2,12,0.53,8.0,M,17.9,M,,0000*42
$GNGSA,A,3,02,13,41,193,15,05,29,30,21,195,194,20,0.98,0.53,0.82*26
$GNGSA,A,3,413,406,416,430,403,401,420,409,425,423,404,402,0.98,0.53,0.82*18
$GNGLL,3722.34464,N,12640.22600,E,030550.00,A,D*73
$GNVTG,217.73,T,,M,42.305,N,78.348,K,D*26
$GNGGA,030551.00,3722.33515,N,12640.21678,E,2,12,0.53,8.1,M,17.9,M,,0000*4E
$GNGSA,A,3,02,13,41,193,15,05,29,30,21,195,194,20,0.98,0.53,0.82*26
$GNGSA,A,3,413,406,416,430,403,401,420,409,425,423,404,402,0.98,0.53,0.82*18
$GNVTG,217.64,T,,M,40.898,N,75.743,K,D*2F
$GNGGA,030552.00,3722.32606,N,12640.20799,E,2,12,0.53,7.9,M,17.9,M,,0000*45
$GNGSA,A,3,02,13,41,193,15,05,29,30,21,195,194,20,0.98,0.53,0.82*26
$GNGSA,A,3,413,406,416,430,403,401,420,409,425,423,404,402,0.98,0.53,0.82*18
$GNVTG,217.53,T,,M,38.052,N,70.471,K,D*2D
$GNGGA,030553.00,3722.31751,N,12640.19971,E,2,12,0.53,7.9,M,17.9,M,,0000*46
$GNGSA,A,3,02,13,41,193,15,05,29,30,21,195,194,20,0.98,0.53,0.82*26
$GNGSA,A,3,413,406,416,430,403,401,420,409,425,423,404,402,0.98,0.53,0.82*18
$GNVTG,217.68,T,,M,34.457,N,63.814,K,D*25
$GNGGA,030554.00,3722.30969,N,12640.19215,E,2,12,0.53,7.9,M,17.9,M,,0000*4C
$GNGSA,A,3,02,13,41,193,15,05,29,30,21,195,194,20,0.98,0.53,0.82*26
$GNGSA,A,3,413,406,416,430,403,401,420,409,425,423,404,402,0.98,0.53,0.82*18
$GNVTG,217.76,T,,M,30.280,N,56.079,K,D*27
$GNGGA,030555.00,3722.30277,N,12640.18541,E,2,12,0.53,7.9,M,17.9,M,,0000*4E
$GNGSA,A,3,02,13,41,193,15,05,29,30,21,195,194,20,0.98,0.53,0.82*26
$GNGSA,A,3,413,406,416,430,403,401,420,409,425,423,404,402,0.98,0.53,0.82*18
$GNVTG,217.61,T,,M,29.517,N,54.666,K,D*2A
$GNGGA,030556.00,3722.29621,N,12640.17908,E,2,12,0.53,7.8,M,17.9,M,,0000*4D
$GNGSA,A,3,02,13,41,193,15,05,29,30,21,195,194,20,0.98,0.53,0.82*26
$GNGSA,A,3,413,406,416,430,403,401,420,409,425,423,404,402,0.98,0.53,0.82*18
$GNVTG,217.67,T,,M,30.165,N,55.865,K,D*29
$GNGGA,030557.00,3722.28964,N,12640.17269,E,2,12,0.53,7.6,M,17.9,M,,0000*41
$GNGSA,A,3,02,13,41,193,15,05,29,30,21,195,194,20,0.98,0.53,0.82*26
$GNGSA,A,3,413,406,416,430,403,401,420,409,425,423,404,402,0.98,0.53,0.82*18
$GNGLL,3722.28964,N,12640.17269,E,030557.00,A,D*79
$GNVTG,217.54,T,,M,33.257,N,61.591,K,D*29
$GNGGA,030558.00,3722.28251,N,12640.16580,E,2,12,0.53,7.6,M,17.9,M,,0000*42
$GNGSA,A,3,02,13,41,193,15,05,29,30,21,195,194,20,0.98,0.53,0.82*26
$GNGSA,A,3,413,406,416,430,403,401,420,409,425,423,404,402,0.98,0.53,0.82*18
$GNVTG,217.37,T,,M,37.249,N,68.986,K,D*24
$GNGGA,030559.00,3722.27455,N,12640.15816,E,2,12,0.55,7.5,M,17.9,M,,0000*4A
$GNGSA,A,3,02,13,41,193,15,05,29,30,21,195,194,20,0.99,0.55,0.82*21
$GNGSA,A,3,413,406,416,430,403,401,420,409,425,423,402,429,0.99,0.55,0.82*10
$GNVTG,217.81,T,,M,41.101,N,76.119,K,D*26
$GNGGA,030600.00,3722.26575,N,12640.14964,E,2,12,0.55,7.5,M,17.9,M,,0000*42
$GNGSA,A,3,02,13,41,193,15,05,29,30,21,195,194,20,0.99,0.55,0.82*21
$GNGSA,A,3,413,406,416,430,403,401,420,409,425,423,402,429,0.99,0.55,0.82*10
$GNVTG,218.02,T,,M,46.015,N,85.220,K,D*24
$GNGGA,030601.00,3722.25599,N,12640.14008,E,2,12,0.55,7.5,M,17.9,M,,0000*41
$GNGSA,A,3,02,13,41,193,15,05,29,30,21,195,194,20,0.99,0.55,0.82*21
$GNGSA,A,3,413,406,416,430,403,401,420,409,425,423,402,429,0.99,0.55,0.82*10
$GNVTG,217.73,T,,M,50.563,N,93.642,K,D*29
$GNGGA,030602.00,3722.24517,N,12640.12957,E,2,12,0.55,7.4,M,17.9,M,,0000*41
$GNGSA,A,3,02,13,41,193,15,05,29,30,21,195,194,20,0.99,0.55,0.82*21
$GNGSA,A,3,413,406,416,430,403,401,420,409,425,423,402,429,0.99,0.55,0.82*10
$GNGLL,3722.24517,N,12640.12957,E,030602.00,A,D*7D
$GNZDA,030602.00,23,11,2019,00,00*74
$GNVTG,217.53,T,,M,54.568,N,101.059,K,D*12
$GNGGA,030603.00,3722.23343,N,12640.11822,E,2,12,0.55,7.3,M,17.9,M,,0000*47
$GNGSA,A,3,02,13,41,193,15,05,29,30,21,195,194,20,0.99,0.55,0.82*21
$GNGSA,A,3,413,406,416,430,403,401,420,409,425,423,402,429,0.99,0.55,0.82*10
$GNVTG,217.87,T,,M,56.135,N,103.962,K,D*16
$GNGGA,030604.00,3722.22118,N,12640.10633,E,2,12,0.55,7.5,M,17.9,M,,0000*44
$GNGSA,A,3,02,13,41,193,15,05,29,30,21,195,194,20,0.99,0.55,0.82*21
$GNGSA,A,3,413,406,416,430,403,401,420,409,425,423,402,429,0.99,0.55,0.82*10
$GNGLL,3722.22118,N,12640.10633,E,030604.00,A,D*79
$GNVTG,217.74,T,,M,54.850,N,101.582,K,D*12
$GNGGA,030605.00,3722.20906,N,12640.09454,E,2,12,0.55,7.4,M,17.9,M,,0000*4A
$GNGSA,A,3,02,13,41,15,05,29,30,21,195,194,20,24,0.99,0.55,0.83*1D
$GNGSA,A,3,408,413,406,416,430,403,401,420,409,425,423,402,0.99,0.55,0.83*12
$GNGLL,3722.20906,N,12640.09454,E,030605.00,A,D*76
$GNVTG,217.65,T,,M,50.923,N,94.309,K,D*2B
$GNGGA,030606.00,3722.19759,N,12640.08345,E,2,12,0.55,7.5,M,17.9,M,,0000*40
$GNGSA,A,3,02,13,41,15,05,29,30,21,195,194,20,24,0.99,0.55,0.83*1D
$GNGSA,A,3,408,413,406,416,430,403,401,420,409,425,423,402,0.99,0.55,0.83*12
$GNGLL,3722.19759,N,12640.08345,E,030606.00,A,D*7D
$GNVTG,217.99,T,,M,46.504,N,86.126,K,D*2A
$GNGGA,030607.00,3722.18710,N,12640.07322,E,2,12,0.53,7.5,M,17.9,M,,0000*45
$GNGSA,A,3,02,13,41,15,05,29,30,21,195,194,20,24,0.99,0.53,0.83*1B
$GNGSA,A,3,408,413,406,416,430,403,401,420,409,425,423,404,0.99,0.53,0.83*12
$GNGLL,3722.18710,N,12640.07322,E,030607.00,A,D*7E
$GNVTG,217.82,T,,M,44.496,N,82.406,K,D*2B
$GNGGA,030608.00,3722.17720,N,12640.06357,E,2,12,0.53,7.4,M,17.9,M,,0000*44
$GNGSA,A,3,02,13,41,193,15,05,29,30,21,195,194,20,0.95,0.53,0.79*2F
$GNGSA,A,3,408,413,406,416,430,403,401,420,409,425,423,404,0.95,0.53,0.79*1B
$GNGLL,3722.17720,N,12640.06357,E,030608.00,A,D*7E
$GNVTG,217.78,T,,M,43.032,N,79.695,K,D*2F
$GNGGA,030609.00,3722.16765,N,12640.05428,E,2,12,0.53,7.4,M,17.9,M,,0000*49
$GNGSA,A,3,02,13,41,193,15,05,29,30,21,195,194,20,0.95,0.53,0.79*2F
$GNGSA,A,3,408,413,406,416,430,403,401,420,409,425,423,404,0.95,0.53,0.79*1B
$GNGLL,3722.16765,N,12640.05428,E,030609.00,A,D*73
$GNZDA,030609.00,23,11,2019,00,00*7F
$GNVTG,218.05,T,,M,43.423,N,80.420,K,D*24
$GNGGA,030610.00,3722.15815,N,12640.04499,E,2,12,0.53,7.4,M,17.9,M,,0000*41
$GNGSA,A,3,02,13,41,193,15,05,29,30,21,195,194,20,0.95,0.53,0.79*2F
$GNGSA,A,3,408,413,406,416,430,403,401,420,409,425,423,404,0.95,0.53,0.79*1B
$GNGLL,3722.15815,N,12640.04499,E,030610.00,A,D*7B
$GNVTG,217.65,T,,M,44.001,N,81.490,K,D*24
$GNGGA,030611.00,3722.14850,N,12640.03564,E,2,12,0.53,7.5,M,17.9,M,,0000*45
$GNGSA,A,3,02,13,41,193,15,05,29,30,21,195,194,20,0.95,0.53,0.79*2F
$GNGSA,A,3,408,413,406,416,430,403,401,420,409,425,423,404,0.95,0.53,0.79*1B
$GNGLL,3722.14850,N,12640.03564,E,030611.00,A,D*7E
$GNVTG,217.89,T,,M,44.168,N,81.799,K,D*22
$GNGGA,030612.00,3722.13882,N,12640.02622,E,2,12,0.53,7.4,M,17.9,M,,0000*4F
$GNGSA,A,3,02,13,41,193,15,05,29,30,21,195,194,20,0.95,0.53,0.79*2F
$GNGSA,A,3,408,413,406,416,430,403,401,420,409,425,423,404,0.95,0.53,0.79*1B
$GNGLL,3722.13882,N,12640.02622,E,030612.00,A,D*75
$GNVTG,217.67,T,,M,44.179,N,81.819,K,D*25
$GNGGA,030613.00,3722.12911,N,12640.01680,E,2,12,0.53,7.4,M,17.9,M,,0000*4F
$GNGSA,A,3,02,13,41,193,15,05,29,30,21,195,194,20,0.95,0.53,0.79*2F
$GNGSA,A,3,408,413,406,416,430,403,401,420,409,425,423,404,0.95,0.53,0.79*1B
$GNGLL,3722.12911,N,12640.01680,E,030613.00,A,D*75
$GNVTG,217.89,T,,M,43.791,N,81.101,K,D*22
$GNGGA,030614.00,3722.11946,N,12640.00741,E,2,12,0.54,7.4,M,17.9,M,,0000*43
$GNGSA,A,3,02,13,41,193,15,05,29,30,21,195,194,20,0.96,0.54,0.79*2B
$GNGSA,A,3,408,413,406,416,430,403,401,420,409,425,423,402,0.96,0.54,0.79*19
$GNGLL,3722.11946,N,12640.00741,E,030614.00,A,D*7E
$GNVTG,217.29,T,,M,44.855,N,83.072,K,D*2F
$GNGGA,030615.00,3722.10964,N,12639.99797,E,2,12,0.54,7.3,M,17.9,M,,0000*41
$GNGSA,A,3,02,13,41,193,15,05,29,30,21,195,194,20,0.96,0.54,0.79*2B
$GNGSA,A,3,408,413,406,416,430,403,401,420,409,425,423,402,0.96,0.54,0.79*19
$GNGLL,3722.10964,N,12639.99797,E,030615.00,A,D*7B
$GNVTG,217.49,T,,M,46.348,N,85.837,K,D*23
$GNGGA,030616.00,3722.09951,N,12639.98827,E,2,12,0.54,7.3,M,17.9,M,,0000*49
$GNGSA,A,3,02,13,41,193,15,05,29,30,21,195,194,20,0.96,0.54,0.79*2B
$GNGSA,A,3,408,413,406,416,430,403,401,420,409,425,423,402,0.96,0.54,0.79*19
$GNGLL,3722.09951,N,12639.98827,E,030616.00,A,D*73
$GNVTG,217.04,T,,M,47.079,N,87.190,K,D*2C
$GNGGA,030617.00,3722.08912,N,12639.97840,E,2,12,0.54,7.3,M,17.9,M,,0000*40
$GNGSA,A,3,02,13,41,193,15,05,29,30,21,195,194,20,0.96,0.54,0.79*2B
$GNGSA,A,3,408,413,406,416,430,403,401,420,409,425,423,402,0.96,0.54,0.79*19
$GNGLL,3722.08912,N,12639.97840,E,030617.00,A,D*7A
$GNVTG,217.14,T,,M,47.348,N,87.689,K,D*23
$GNGGA,030618.00,3722.07863,N,12639.96845,E,2,12,0.54,7.2,M,17.9,M,,0000*42
$GNGSA,A,3,02,13,41,193,15,05,29,30,21,195,194,20,0.96,0.54,0.79*2B
$GNGSA,A,3,408,413,406,416,430,403,401,420,409,425,423,404,0.96,0.54,0.79*1F
$GNGLL,3722.07863,N,12639.96845,E,030618.00,A,D*79
$GNVTG,217.52,T,,M,47.460,N,87.896,K,D*2C
$GNGGA,030619.00,3722.06813,N,12639.95841,E,2,12,0.54,7.2,M,17.9,M,,0000*42
$GNGSA,A,3,02,13,41,193,15,05,29,30,21,195,194,20,0.96,0.54,0.79*2B
$GNGSA,A,3,408,413,406,416,430,403,401,420,409,425,423,402,0.96,0.54,0.79*19
$GNVTG,217.78,T,,M,47.493,N,87.958,K,D*2B
$GNGGA,030620.00,3722.05767,N,12639.94828,E,2,12,0.54,7.3,M,17.9,M,,0000*48
$GNGSA,A,3,02,13,41,193,15,05,29,30,21,195,194,20,0.96,0.54,0.79*2B
$GNGSA,A,3,408,413,406,416,430,403,401,420,409,425,423,402,0.96,0.54,0.79*19
$GNVTG,217.99,T,,M,47.470,N,87.914,K,D*21
$GNGGA,030621.00,3722.04724,N,12639.93810,E,2,12,0.54,7.3,M,17.9,M,,0000*43
$GNGSA,A,3,02,13,41,193,15,05,29,30,21,195,194,20,0.96,0.54,0.79*2B
$GNGSA,A,3,408,413,406,416,430,403,401,420,409,425,423,402,0.96,0.54,0.79*19
$GNVTG,217.92,T,,M,47.502,N,87.974,K,D*28
$GNGGA,030622.00,3722.03682,N,12639.92791,E,2,12,0.54,7.3,M,17.9,M,,0000*4D
$GNGSA,A,3,02,13,41,193,15,05,29,30,21,195,194,20,0.96,0.54,0.79*2B
$GNGSA,A,3,408,413,406,416,430,403,401,420,409,425,423,402,0.96,0.54,0.79*19
$GNVTG,217.40,T,,M,47.625,N,88.201,K,D*27
$GNGGA,030623.00,3722.02633,N,12639.91779,E,2,12,0.54,7.3,M,17.9,M,,0000*42
$GNGSA,A,3,02,13,41,193,15,05,29,30,21,195,194,20,0.96,0.54,0.79*2B
$GNGSA,A,3,408,413,406,416,430,403,401,420,409,425,423,402,0.96,0.54,0.79*19
$GNVTG,217.49,T,,M,47.623,N,88.198,K,D*2B
$GNGGA,030624.00,3722.01582,N,12639.90769,E,2,12,0.54,7.3,M,17.9,M,,0000*4F
$GNGSA,A,3,02,13,41,193,15,05,29,30,21,195,194,20,0.96,0.54,0.79*2B
$GNGSA,A,3,408,413,406,416,430,403,401,420,409,425,423,402,0.96,0.54,0.79*19
$GNVTG,217.38,T,,M,47.582,N,88.122,K,D*24
$GNGGA,030625.00,3722.00530,N,12639.89761,E,2,12,0.53,7.3,M,17.9,M,,0000*41
$GNGSA,A,3,02,13,41,193,15,05,29,30,21,195,194,20,0.95,0.53,0.79*2F
$GNGSA,A,3,408,413,406,416,430,403,401,420,409,425,423,404,0.95,0.53,0.79*1B
$GNVTG,217.82,T,,M,47.579,N,88.116,K,D*26
$GNGGA,030626.00,3721.99483,N,12639.88746,E,2,12,0.53,7.3,M,17.9,M,,0000*4C
$GNGSA,A,3,02,13,41,193,15,05,29,30,21,195,194,20,0.95,0.53,0.79*2F
$GNGSA,A,3,408,413,406,416,430,403,401,420,409,425,423,404,0.95,0.53,0.79*1B
$GNVTG,217.77,T,,M,47.658,N,88.262,K,D*2C
$GNGGA,030627.00,3721.98437,N,12639.87727,E,2,12,0.57,7.4,M,17.9,M,,0000*48
$GNGSA,A,3,02,13,41,193,15,05,29,30,21,195,194,24,1.06,0.57,0.89*2B
$GNGSA,A,3,408,413,406,416,430,403,401,420,409,425,423,404,1.06,0.57,0.89*1B
$GNVTG,217.81,T,,M,47.637,N,88.224,K,D*2E
$GNGGA,030628.00,3721.97391,N,12639.86708,E,2,12,0.57,7.4,M,17.9,M,,0000*4F
$GNGSA,A,3,02,13,41,193,15,05,29,30,21,195,194,24,1.06,0.57,0.89*2B
$GNGSA,A,3,408,413,406,416,430,403,401,420,409,425,423,404,1.06,0.57,0.89*1B
$GNGLL,3721.97391,N,12639.86708,E,030628.00,A,D*71
$GNVTG,217.68,T,,M,47.647,N,88.242,K,D*2E
$GNGGA,030629.00,3721.96343,N,12639.85691,E,2,12,0.56,7.4,M,17.9,M,,0000*43
$GNGSA,A,3,02,13,41,193,15,05,29,30,21,195,194,24,1.03,0.56,0.87*21
$GNGSA,A,3,408,413,406,416,430,403,401,420,409,425,423,404,1.03,0.56,0.87*11
$GNVTG,217.47,T,,M,47.670,N,88.285,K,D*2C
$GNGGA,030630.00,3721.95292,N,12639.84677,E,2,12,0.57,7.5,M,17.9,M,,0000*4C
$GNGSA,A,3,02,13,41,193,15,05,29,30,21,195,194,24,1.06,0.57,0.89*2B
$GNGSA,A,3,408,413,406,416,430,403,401,420,409,425,423,404,1.06,0.57,0.89*1B
$GNVTG,217.64,T,,M,47.582,N,88.122,K,D*2D
$GNGGA,030631.00,3721.94243,N,12639.83664,E,2,12,0.59,7.5,M,17.9,M,,0000*4B
$GNGSA,A,3,02,13,41,193,15,05,29,30,21,195,194,24,1.07,0.59,0.89*24
$GNGSA,A,3,408,413,406,416,430,403,401,420,409,425,423,404,1.07,0.59,0.89*14
$GNVTG,217.58,T,,M,47.707,N,88.353,K,D*29
$GNGGA,030632.00,3721.93194,N,12639.82648,E,2,12,0.59,7.5,M,17.9,M,,0000*49
$GNGSA,A,3,02,13,41,193,15,05,29,30,21,195,194,24,1.07,0.59,0.89*24
$GNGSA,A,3,408,413,406,416,430,403,401,420,409,425,423,402,1.07,0.59,0.89*12
$GNVTG,218.06,T,,M,47.581,N,88.121,K,D*26
$GNGGA,030633.00,3721.92149,N,12639.81628,E,2,12,0.61,7.5,M,17.9,M,,0000*47
$GNGSA,A,3,02,13,41,193,15,05,29,30,21,195,194,24,1.11,0.61,0.93*23
$GNGSA,A,3,408,413,406,416,430,403,401,420,409,425,423,402,1.11,0.61,0.93*15
$GNVTG,218.29,T,,M,47.576,N,88.110,K,D*21
$GNGGA,030634.00,3721.91111,N,12639.80599,E,2,12,0.61,7.5,M,17.9,M,,0000*46
$GNGSA,A,3,02,13,41,193,15,05,29,30,21,195,194,24,1.11,0.61,0.93*23
$GNGSA,A,3,408,413,406,416,430,403,401,420,409,425,423,402,1.11,0.61,0.93*15
$GNVTG,218.08,T,,M,47.484,N,87.940,K,D*2C
$GNGGA,030635.00,3721.90075,N,12639.79574,E,2,12,0.59,7.5,M,17.9,M,,0000*4B
$GNGSA,A,3,02,13,41,193,15,05,29,30,21,195,194,24,1.07,0.59,0.89*24
$GNGSA,A,3,408,413,406,416,430,403,401,420,409,425,423,404,1.07,0.59,0.89*14
$GNGLL,3721.90075,N,12639.79574,E,030635.00,A,D*7A
$GNVTG,217.95,T,,M,47.353,N,87.697,K,D*2F
$GNGGA,030636.00,3721.89036,N,12639.78556,E,2,12,0.59,7.6,M,17.9,M,,0000*45
$GNGSA,A,3,02,13,41,193,15,05,29,30,21,195,194,24,1.07,0.59,0.89*24
$GNGSA,A,3,408,413,406,416,430,403,401,420,409,425,423,404,1.07,0.59,0.89*14
$GNVTG,217.70,T,,M,46.972,N,86.992,K,D*27
$GNGGA,030637.00,3721.88000,N,12639.77551,E,2,12,0.59,7.6,M,17.9,M,,0000*48
$GNGSA,A,3,02,13,41,193,15,05,29,30,21,195,194,24,1.07,0.59,0.89*24
$GNGSA,A,3,408,413,406,416,430,403,401,420,409,425,423,404,1.07,0.59,0.89*14
$GNVTG,217.24,T,,M,46.428,N,85.984,K,D*20
$GNGGA,030638.00,3721.86969,N,12639.76567,E,2,12,0.57,7.7,M,17.9,M,,0000*44
$GNGSA,A,3,02,13,41,193,15,05,29,30,21,195,194,24,1.06,0.57,0.89*2B
$GNGSA,A,3,408,413,406,416,430,403,401,420,409,425,423,404,1.06,0.57,0.89*1B
$GNVTG,216.45,T,,M,44.821,N,83.009,K,D*2B
$GNGGA,030639.00,3721.85960,N,12639.75625,E,2,12,0.54,7.6,M,17.9,M,,0000*4B
$GNGSA,A,3,02,13,41,193,15,05,29,30,21,195,194,20,0.96,0.54,0.79*2B
$GNGSA,A,3,408,413,406,416,430,403,401,420,409,425,423,404,0.96,0.54,0.79*1F
$GNVTG,215.22,T,,M,40.073,N,74.216,K,D*26
$GNGGA,030640.00,3721.85021,N,12639.74782,E,2,12,0.53,7.7,M,17.9,M,,0000*42
$GNGSA,A,3,02,13,41,193,15,05,29,30,21,195,194,20,0.95,0.53,0.79*2F
$GNGSA,A,3,408,413,406,416,430,403,401,420,409,425,423,404,0.95,0.53,0.79*1B
$GNVTG,213.41,T,,M,34.219,N,63.374,K,D*2B
$GNGGA,030641.00,3721.84185,N,12639.74081,E,2,12,0.53,7.8,M,17.9,M,,0000*46
$GNGSA,A,3,02,13,41,193,15,05,29,30,21,195,194,20,0.95,0.53,0.79*2F
$GNGSA,A,3,408,413,406,416,430,403,401,420,409,425,423,404,0.95,0.53,0.79*1B
$GNVTG,215.09,T,,M,27.924,N,51.714,K,D*25
$GNGGA,030642.00,3721.83500,N,12639.73490,E,2,12,0.53,7.9,M,17.9,M,,0000*49
$GNGSA,A,3,02,13,41,193,15,05,29,30,21,195,194,20,0.95,0.53,0.79*2F
$GNGSA,A,3,408,413,406,416,430,403,401,420,409,425,423,404,0.95,0.53,0.79*1B
$GNGLL,3721.83500,N,12639.73490,E,030642.00,A,D*7E
$GNVTG,216.58,T,,M,22.826,N,42.273,K,D*22
$GNGGA,030643.00,3721.82952,N,12639.72989,E,2,12,0.53,7.9,M,17.9,M,,0000*46
$GNGSA,A,3,02,13,41,193,15,05,29,30,21,195,194,20,0.95,0.53,0.79*2F
$GNGSA,A,3,408,413,406,416,430,403,401,420,409,425,423,404,0.95,0.53,0.79*1B
$GNVTG,218.18,T,,M,19.643,N,36.378,K,D*24
$GNGGA,030644.00,3721.82498,N,12639.72551,E,2,12,0.53,7.9,M,17.9,M,,0000*43
$GNGSA,A,3,02,13,41,193,15,05,29,30,21,195,194,20,0.95,0.53,0.79*2F
$GNGSA,A,3,408,413,406,416,430,403,401,420,409,425,423,404,0.95,0.53,0.79*1B
$GNVTG,218.04,T,,M,16.542,N,30.637,K,D*2C
$GNGGA,030645.00,3721.82115,N,12639.72176,E,2,12,0.53,7.9,M,17.9,M,,0000*43
$GNGSA,A,3,02,13,41,193,15,05,29,30,21,195,194,20,0.95,0.53,0.79*2F
$GNGSA,A,3,408,413,406,416,430,403,401,420,409,425,423,404,0.95,0.53,0.79*1B
$GNVTG,218.03,T,,M,13.171,N,24.392,K,D*25
$GNGGA,030646.00,3721.81805,N,12639.71871,E,2,12,0.53,7.9,M,17.9,M,,0000*46
$GNGSA,A,3,02,13,41,193,15,05,29,30,21,195,194,20,0.95,0.53,0.79*2F
$GNGSA,A,3,408,413,406,416,430,403,401,420,409,425,423,404,0.95,0.53,0.79*1B
$GNVTG,217.53,T,,M,9.606,N,17.791,K,D*14
$GNGGA,030647.00,3721.81571,N,12639.71643,E,2,12,0.53,7.9,M,17.9,M,,0000*46
$GNGSA,A,3,02,13,41,193,15,05,29,30,21,195,194,20,0.95,0.53,0.79*2F
$GNGSA,A,3,408,413,406,416,430,403,401,420,409,425,423,404,0.95,0.53,0.79*1B
$GNVTG,217.90,T,,M,6.190,N,11.465,K,D*12
$GNGGA,030648.00,3721.81413,N,12639.71489,E,2,12,0.53,7.9,M,17.9,M,,0000*48
$GNGSA,A,3,02,13,41,193,15,05,29,30,21,195,194,20,0.95,0.53,0.79*2F
$GNGSA,A,3,408,413,406,416,430,403,401,420,409,425,423,404,0.95,0.53,0.79*1B
$GNGLL,3721.81413,N,12639.71489,E,030648.00,A,D*7F
