$GNVTG,,T,,M,0.072,N,0.134,K,D*3B
$GNGGA,025855.00,3722.86314,N,12640.71359,E,2,12,0.57,7.6,M,17.9,M,,0000*45
$GNGSA,A,3,02,13,41,193,15,05,29,30,21,195,194,24,1.05,0.57,0.89*28
$GNGSA,A,3,413,406,416,430,401,427,420,409,425,423,404,402,1.05,0.57,0.89*14
$GNGLL,3722.86314,N,12640.71359,E,025855.00,A,D*79
$GNVTG,,T,,M,0.047,N,0.088,K,D*3B
$GNGGA,025856.00,3722.86310,N,12640.71360,E,2,12,0.56,7.6,M,17.9,M,,0000*49
$GNGSA,A,3,02,13,41,193,15,05,29,30,21,195,194,24,1.04,0.56,0.87*26
$GNGSA,A,3,413,406,416,430,403,401,427,420,409,425,423,404,1.04,0.56,0.87*1B
$GNVTG,,T,,M,0.137,N,0.253,K,D*39
$GNGGA,025857.00,3722.86303,N,12640.71361,E,2,12,0.56,7.7,M,17.9,M,,0000*4A
$GNGSA,A,3,02,13,41,193,15,05,29,30,21,195,194,24,1.08,0.56,0.92*2E
$GNGSA,A,3,413,406,416,430,403,401,427,420,409,425,423,404,1.08,0.56,0.92*13
$GNVTG,,T,,M,0.009,N,0.017,K,D*37
$GNGGA,025858.00,3722.86298,N,12640.71360,E,2,12,0.56,7.7,M,17.9,M,,0000*47
$GNGSA,A,3,02,13,41,193,15,05,29,30,21,195,194,24,1.04,0.56,0.87*26
$GNGSA,A,3,413,406,416,430,403,401,427,420,409,425,423,404,1.04,0.56,0.87*1B
$GNVTG,,T,,M,0.008,N,0.014,K,D*35
$GNGGA,025859.00,3722.86294,N,12640.71359,E,2,12,0.56,7.8,M,17.9,M,,0000*4F
$GNGSA,A,3,02,13,41,193,15,05,29,30,21,195,194,24,1.08,0.56,0.92*2E
$GNGSA,A,3,413,406,416,430,403,401,427,420,409,425,423,404,1.08,0.56,0.92*13
$GNVTG,,T,,M,0.029,N,0.055,K,D*33
$GNGGA,025900.00,3722.86292,N,12640.71359,E,2,12,0.56,7.8,M,17.9,M,,0000*44
$GNGSA,A,3,02,13,41,193,15,05,29,30,21,195,194,24,1.08,0.56,0.92*2E
$GNGSA,A,3,413,406,416,430,403,401,427,420,409,425,423,404,1.08,0.56,0.92*13
$GNGLL,3722.86292,N,12640.71359,E,025900.00,A,D*77
$GNVTG,,T,,M,0.007,N,0.012,K,D*3C
$GNGGA,025901.00,3722.86290,N,12640.71358,E,2,12,0.56,7.8,M,17.9,M,,0000*46
$GNGSA,A,3,02,13,41,193,15,05,29,30,21,195,194,24,1.04,0.56,0.87*26
$GNGSA,A,3,413,406,416,430,403,401,427,420,409,425,423,404,1.04,0.56,0.87*1B
$GNVTG,,T,,M,0.014,N,0.025,K,D*3A
$GNGGA,025902.00,3722.86288,N,12640.71357,E,2,12,0.56,7.8,M,17.9,M,,0000*43
$GNGSA,A,3,02,13,41,193,15,05,29,30,21,195,194,24,1.08,0.56,0.92*2E
$GNGSA,A,3,413,406,416,430,403,401,427,420,409,425,423,404,1.08,0.56,0.92*13
$GNVTG,,T,,M,0.020,N,0.038,K,D*31
$GNGGA,025903.00,3722.86287,N,12640.71356,E,2,12,0.56,7.7,M,17.9,M,,0000*43
$GNGSA,A,3,02,13,41,193,15,05,29,30,21,195,194,24,1.04,0.56,0.87*26
$GNGSA,A,3,413,406,416,430,403,401,427,420,409,425,423,404,1.04,0.56,0.87*1B
$GNGLL,3722.86287,N,12640.71356,E,025903.00,A,D*7F
$GNVTG,,T,,M,0.035,N,0.064,K,D*3C
$GNGGA,025904.00,3722.86284,N,12640.71354,E,2,12,0.56,7.8,M,17.9,M,,0000*4A
$GNGSA,A,3,02,13,41,193,15,05,29,30,21,195,194,24,1.04,0.56,0.87*26
$GNGSA,A,3,413,406,416,430,403,401,427,420,409,425,423,404,1.04,0.56,0.87*1B
$GNVTG,,T,,M,0.003,N,0.006,K,D*3D
$GNGGA,025905.00,3722.86281,N,12640.71353,E,2,12,0.56,7.9,M,17.9,M,,0000*48
$GNGSA,A,3,02,13,41,193,15,05,29,30,21,195,194,24,1.04,0.56,0.87*26
$GNGSA,A,3,413,406,416,430,403,401,427,420,409,425,423,404,1.04,0.56,0.87*1B
$GNGLL,3722.86281,N,12640.71353,E,025905.00,A,D*7A
$GNVTG,,T,,M,0.124,N,0.230,K,D*3E
$GNGGA,025906.00,3722.86277,N,12640.71354,E,2,12,0.56,8.0,M,17.9,M,,0000*43
$GNGSA,A,3,02,13,41,193,15,05,29,30,21,195,194,24,1.00,0.56,0.83*26
$GNGSA,A,3,408,413,406,416,430,403,401,427,420,409,425,423,1.00,0.56,0.83*17
$GNVTG,,T,,M,0.005,N,0.009,K,D*34
$GNGGA,025907.00,3722.86274,N,12640.71353,E,2,12,0.56,8.0,M,17.9,M,,0000*46
$GNGSA,A,3,02,13,41,193,15,05,29,30,21,195,194,24,1.00,0.56,0.83*26
$GNGSA,A,3,408,413,406,416,430,403,401,427,420,409,425,423,1.00,0.56,0.83*17
$GNGLL,3722.86274,N,12640.71353,E,025907.00,A,D*72
$GNVTG,,T,,M,0.037,N,0.069,K,D*33
$GNGGA,025908.00,3722.86271,N,12640.71352,E,2,12,0.56,8.1,M,17.9,M,,0000*4C
$GNGSA,A,3,02,13,41,193,15,05,29,30,21,195,194,24,1.00,0.56,0.83*26
$GNGSA,A,3,408,413,406,416,430,403,401,427,420,409,425,423,1.00,0.56,0.83*17
$GNVTG,,T,,M,0.029,N,0.053,K,D*35
$GNGGA,025909.00,3722.86269,N,12640.71349,E,2,12,0.56,8.1,M,17.9,M,,0000*4E
$GNGSA,A,3,02,13,41,193,15,05,29,30,21,195,194,24,1.00,0.56,0.83*26
$GNGSA,A,3,408,413,406,416,430,403,401,427,420,409,425,423,1.00,0.56,0.83*17
$GNGLL,3722.86269,N,12640.71349,E,025909.00,A,D*7B
$GNVTG,,T,,M,0.036,N,0.066,K,D*3D
$GNGGA,025910.00,3722.86268,N,12640.71349,E,2,12,0.56,8.1,M,17.9,M,,0000*47
$GNGSA,A,3,02,13,41,193,15,05,29,30,21,195,194,24,1.00,0.56,0.83*26
$GNGSA,A,3,408,413,406,416,430,403,401,427,420,409,425,423,1.00,0.56,0.83*17
$GNGLL,3722.86268,N,12640.71349,E,025910.00,A,D*72
$GNVTG,,T,,M,0.014,N,0.026,K,D*39
$GNGGA,025911.00,3722.86266,N,12640.71349,E,2,12,0.57,8.2,M,17.9,M,,0000*4A
$GNGSA,A,3,02,13,41,193,15,05,29,30,21,195,194,24,1.01,0.57,0.84*21
$GNGSA,A,3,408,413,406,416,430,403,401,427,420,409,425,423,1.01,0.57,0.84*10
$GNGLL,3722.86266,N,12640.71349,E,025911.00,A,D*7D
$GNZDA,025911.00,23,11,2019,00,00*7D
$GNVTG,,T,,M,0.006,N,0.011,K,D*3E
$GNGGA,025912.00,3722.86265,N,12640.71348,E,2,12,0.57,8.1,M,17.9,M,,0000*48
$GNGSA,A,3,02,13,41,193,15,05,29,30,21,195,194,24,1.01,0.57,0.84*21
$GNGSA,A,3,408,413,406,416,430,403,401,427,420,409,425,423,1.01,0.57,0.84*10
$GNGLL,3722.86265,N,12640.71348,E,025912.00,A,D*7C
$GNVTG,,T,,M,0.029,N,0.053,K,D*35
$GNGGA,025913.00,3722.86264,N,12640.71347,E,2,12,0.57,8.1,M,17.9,M,,0000*47
$GNGSA,A,3,02,13,41,193,15,05,29,30,21,195,194,24,1.01,0.57,0.84*21
$GNGSA,A,3,408,413,406,416,430,403,401,427,420,409,425,423,1.01,0.57,0.84*10
$GNGLL,3722.86264,N,12640.71347,E,025913.00,A,D*73
$GNVTG,,T,,M,0.248,N,0.458,K,D*3F
$GNGGA,025914.00,3722.86257,N,12640.71343,E,2,12,0.57,8.1,M,17.9,M,,0000*44
$GNGSA,A,3,02,13,41,193,15,05,29,30,21,195,194,24,1.01,0.57,0.84*21
$GNGSA,A,3,408,413,406,416,430,403,401,427,420,409,425,423,1.01,0.57,0.84*10
$GNGLL,3722.86257,N,12640.71343,E,025914.00,A,D*70
$GNZDA,025914.00,23,11,2019,00,00*78
$GNVTG,215.66,T,,M,2.672,N,4.948,K,D*20
$GNGGA,025915.00,3722.86212,N,12640.71304,E,2,12,0.56,8.0,M,17.9,M,,0000*47
$GNGSA,A,3,02,13,41,193,15,05,29,30,21,195,194,24,1.00,0.56,0.83*26
$GNGSA,A,3,408,413,406,416,430,403,401,427,420,409,425,423,1.00,0.56,0.83*17
$GNGLL,3722.86212,N,12640.71304,E,025915.00,A,D*73
$GNZDA,025915.00,23,11,2019,00,00*79
$GNVTG,217.50,T,,M,3.399,N,6.295,K,D*2F
$GNGGA,025916.00,3722.86141,N,12640.71236,E,2,12,0.57,8.0,M,17.9,M,,0000*40
$GNGSA,A,3,02,13,41,193,15,05,29,30,21,195,194,24,1.01,0.57,0.84*21
$GNGSA,A,3,408,413,406,416,430,403,401,427,420,409,425,423,1.01,0.57,0.84*10
$GNGLL,3722.86141,N,12640.71236,E,025916.00,A,D*75
$GNZDA,025916.00,23,11,2019,00,00*7A
$GNVTG,215.67,T,,M,8.895,N,16.473,K,D*1A
$GNGGA,025917.00,3722.85977,N,12640.71087,E,2,12,0.57,7.9,M,17.9,M,,0000*41
$GNGSA,A,3,02,13,41,193,15,05,29,30,21,195,194,24,1.01,0.57,0.84*21
$GNGSA,A,3,408,413,406,416,430,403,401,427,420,409,425,423,1.01,0.57,0.84*10
$GNGLL,3722.85977,N,12640.71087,E,025917.00,A,D*72
$GNVTG,210.53,T,,M,16.935,N,31.363,K,D*2F
$GNGGA,025918.00,3722.85630,N,12640.70823,E,2,12,0.59,8.0,M,17.9,M,,0000*4D
$GNGSA,A,3,02,13,41,193,15,05,29,30,21,195,24,,1.02,0.59,0.84*10
$GNGSA,A,3,408,413,406,416,430,403,401,427,420,409,425,423,1.02,0.59,0.84*1D
$GNGLL,3722.85630,N,12640.70823,E,025918.00,A,D*76
$GNVTG,210.94,T,,M,23.857,N,44.183,K,D*29
$GNGGA,025919.00,3722.85109,N,12640.70433,E,2,12,0.59,7.9,M,17.9,M,,0000*4A
$GNGSA,A,3,02,13,41,193,15,05,29,30,21,195,24,,1.02,0.59,0.84*10
$GNGSA,A,3,408,413,406,416,430,403,401,427,420,409,425,423,1.02,0.59,0.84*1D
$GNGLL,3722.85109,N,12640.70433,E,025919.00,A,D*77
$GNVTG,211.79,T,,M,29.568,N,54.759,K,D*20
$GNGGA,025920.00,3722.84447,N,12640.69926,E,2,12,0.59,8.0,M,17.9,M,,0000*49
$GNGSA,A,3,02,13,41,193,15,05,29,30,21,195,24,,1.02,0.59,0.84*10
$GNGSA,A,3,408,413,406,416,430,403,401,427,420,409,425,423,1.02,0.59,0.84*1D
$GNGLL,3722.84447,N,12640.69926,E,025920.00,A,D*72
$GNVTG,212.92,T,,M,34.616,N,64.108,K,D*21
$GNGGA,025921.00,3722.83669,N,12640.69301,E,2,12,0.57,8.0,M,17.9,M,,0000*40
$GNGSA,A,3,02,13,41,193,15,05,29,30,21,195,194,24,1.02,0.57,0.84*22
$GNGSA,A,3,408,413,406,416,430,403,427,420,409,425,423,404,1.02,0.57,0.84*16
$GNGLL,3722.83669,N,12640.69301,E,025921.00,A,D*75
$GNZDA,025921.00,23,11,2019,00,00*7E
$GNVTG,215.67,T,,M,36.466,N,67.535,K,D*22
$GNGGA,025922.00,3722.82849,N,12640.68585,E,2,12,0.57,8.0,M,17.9,M,,0000*45
$GNGSA,A,3,02,13,41,193,15,05,29,30,21,195,194,24,1.01,0.57,0.83*26
$GNGSA,A,3,408,413,406,416,430,403,401,427,420,409,425,423,1.01,0.57,0.83*17
$GNGLL,3722.82849,N,12640.68585,E,025922.00,A,D*70
$GNVTG,217.15,T,,M,36.973,N,68.475,K,D*26
$GNGGA,025923.00,3722.82028,N,12640.67816,E,2,12,0.57,8.0,M,17.9,M,,0000*43
$GNGSA,A,3,02,13,41,15,05,29,30,21,195,194,24,,1.05,0.57,0.88*12
$GNGSA,A,3,408,413,406,416,430,403,401,427,420,409,425,423,1.05,0.57,0.88*18
$GNGLL,3722.82028,N,12640.67816,E,025923.00,A,D*76
$GNVTG,217.82,T,,M,36.842,N,68.231,K,D*2D
$GNGGA,025924.00,3722.81215,N,12640.67029,E,2,12,0.56,8.0,M,17.9,M,,0000*4E
$GNGSA,A,3,02,13,41,15,05,29,30,21,195,194,24,,1.04,0.56,0.87*1D
$GNGSA,A,3,408,413,406,416,430,403,401,427,420,409,425,423,1.04,0.56,0.87*17
$GNVTG,217.53,T,,M,36.700,N,67.968,K,D*20
$GNGGA,025925.00,3722.80405,N,12640.66246,E,2,12,0.56,8.0,M,17.9,M,,0000*43
$GNGSA,A,3,02,13,41,15,05,29,30,21,195,194,24,,1.04,0.56,0.87*1D
$GNGSA,A,3,408,413,406,416,430,403,401,427,420,409,425,423,1.04,0.56,0.87*17
$GNGLL,3722.80405,N,12640.66246,E,025925.00,A,D*77
$GNVTG,217.20,T,,M,36.740,N,68.043,K,D*2F
$GNGGA,025926.00,3722.79592,N,12640.65468,E,2,12,0.56,8.0,M,17.9,M,,0000*40
$GNGSA,A,3,02,13,41,15,05,29,30,21,195,194,24,,1.04,0.56,0.87*1D
$GNGSA,A,3,408,413,406,416,430,403,401,427,420,409,425,423,1.04,0.56,0.87*17
$GNGLL,3722.79592,N,12640.65468,E,025926.00,A,D*74
$GNVTG,215.66,T,,M,36.779,N,68.115,K,D*27
$GNGGA,025927.00,3722.78765,N,12640.64710,E,2,12,0.56,8.2,M,17.9,M,,0000*45
$GNGSA,A,3,02,13,41,193,15,05,29,30,21,195,194,24,1.01,0.56,0.84*20
$GNGSA,A,3,408,413,406,416,430,403,401,427,420,409,425,423,1.01,0.56,0.84*11
$GNGLL,3722.78765,N,12640.64710,E,025927.00,A,D*73
$GNVTG,215.14,T,,M,36.773,N,68.104,K,D*28
$GNGGA,025928.00,3722.77928,N,12640.63968,E,2,12,0.57,8.2,M,17.9,M,,0000*45
$GNGSA,A,3,02,13,41,193,15,05,29,30,21,195,194,24,1.01,0.57,0.83*26
$GNGSA,A,3,408,413,406,416,430,403,401,427,420,409,425,423,1.01,0.57,0.83*17
$GNGLL,3722.77928,N,12640.63968,E,025928.00,A,D*72
$GNVTG,215.84,T,,M,36.798,N,68.151,K,D*24
$GNGGA,025929.00,3722.77095,N,12640.63220,E,2,12,0.57,8.2,M,17.9,M,,0000*4C
$GNGSA,A,3,02,13,41,193,15,05,29,30,21,195,194,24,1.01,0.57,0.83*26
$GNGSA,A,3,408,413,406,416,430,403,401,427,420,409,425,423,1.01,0.57,0.83*17
$GNGLL,3722.77095,N,12640.63220,E,025929.00,A,D*7B
$GNVTG,216.50,T,,M,36.864,N,68.272,K,D*20
$GNGGA,025930.00,3722.76268,N,12640.62458,E,2,12,0.56,8.3,M,17.9,M,,0000*4D
$GNGSA,A,3,02,13,41,193,15,05,29,30,21,195,194,24,1.00,0.56,0.83*26
$GNGSA,A,3,408,413,406,416,430,403,401,427,420,409,425,423,1.00,0.56,0.83*17
$GNGLL,3722.76268,N,12640.62458,E,025930.00,A,D*7A
$GNVTG,216.86,T,,M,36.833,N,68.215,K,D*28
$GNGGA,025931.00,3722.75447,N,12640.61688,E,2,12,0.56,8.3,M,17.9,M,,0000*48
$GNGSA,A,3,02,13,41,193,15,05,29,30,21,195,194,24,1.00,0.56,0.83*26
$GNGSA,A,3,408,413,406,416,430,403,401,427,420,409,425,423,1.00,0.56,0.83*17
$GNGLL,3722.75447,N,12640.61688,E,025931.00,A,D*7F
$GNVTG,217.27,T,,M,36.862,N,68.269,K,D*2D
$GNGGA,025932.00,3722.74629,N,12640.60910,E,2,12,0.56,8.3,M,17.9,M,,0000*4F
$GNGSA,A,3,02,13,41,193,15,05,29,30,21,195,194,24,1.00,0.56,0.83*26
$GNGSA,A,3,408,413,406,416,430,403,401,427,420,409,425,423,1.00,0.56,0.83*17
$GNGLL,3722.74629,N,12640.60910,E,025932.00,A,D*78
$GNVTG,216.74,T,,M,36.814,N,68.180,K,D*2F
$GNGGA,025933.00,3722.73810,N,12640.60137,E,2,12,0.56,8.4,M,17.9,M,,0000*47
$GNGSA,A,3,02,13,41,193,15,05,29,30,21,195,194,24,1.00,0.56,0.83*26
$GNGSA,A,3,408,413,406,416,430,403,401,427,420,409,425,423,1.00,0.56,0.83*17
$GNVTG,215.81,T,,M,36.833,N,68.215,K,D*2C
$GNGGA,025934.00,3722.72981,N,12640.59379,E,2,12,0.56,8.4,M,17.9,M,,0000*4A
$GNGSA,A,3,02,13,41,193,15,05,29,30,21,195,194,24,1.00,0.56,0.83*26
$GNGSA,A,3,408,413,406,416,430,403,401,427,420,409,425,423,1.00,0.56,0.83*17
$GNGLL,3722.72981,N,12640.59379,E,025934.00,A,D*7A
$GNVTG,214.77,T,,M,36.852,N,68.250,K,D*22
$GNGGA,025935.00,3722.72143,N,12640.58640,E,2,12,0.57,8.4,M,17.9,M,,0000*42
$GNGSA,A,3,02,13,41,193,15,05,29,30,21,195,194,24,1.01,0.57,0.83*26
$GNGSA,A,3,408,413,406,416,430,403,401,427,420,409,425,423,1.01,0.57,0.83*17
$GNGLL,3722.72143,N,12640.58640,E,025935.00,A,D*73
$GNVTG,215.31,T,,M,36.851,N,68.249,K,D*2A
$GNGGA,025936.00,3722.71304,N,12640.57899,E,2,12,0.57,8.4,M,17.9,M,,0000*46
$GNGSA,A,3,02,13,41,193,15,05,29,30,21,195,194,24,1.01,0.57,0.83*26
$GNGSA,A,3,408,413,406,416,430,403,401,427,420,409,425,423,1.01,0.57,0.83*17
$GNVTG,215.81,T,,M,36.858,N,68.262,K,D*21
$GNGGA,025937.00,3722.70470,N,12640.57148,E,2,12,0.58,8.5,M,17.9,M,,0000*49
$GNGSA,A,3,13,41,193,15,05,29,30,21,195,194,24,,1.02,0.58,0.84*2F
$GNGSA,A,3,408,413,406,416,430,403,401,427,420,409,425,423,1.02,0.58,0.84*1C
$GNVTG,216.59,T,,M,36.874,N,68.291,K,D*25
$GNGGA,025938.00,3722.69644,N,12640.56386,E,2,12,0.58,8.5,M,17.9,M,,0000*4A
$GNGSA,A,3,13,41,193,15,05,29,30,21,195,194,24,,1.02,0.58,0.84*2F
$GNGSA,A,3,408,413,406,416,430,403,401,427,420,409,425,423,1.02,0.58,0.84*1C
$GNVTG,217.19,T,,M,36.945,N,68.422,K,D*2D
$GNGGA,025939.00,3722.68825,N,12640.55611,E,2,12,0.57,8.4,M,17.9,M,,0000*45
$GNGSA,A,3,02,13,41,193,15,05,29,30,21,195,194,24,1.01,0.57,0.83*26
$GNGSA,A,3,408,413,406,416,430,403,401,427,420,409,425,423,1.01,0.57,0.83*17
$GNVTG,217.77,T,,M,36.899,N,68.337,K,D*26
$GNGGA,025940.00,3722.68010,N,12640.54825,E,2,12,0.57,8.4,M,17.9,M,,0000*4D
$GNGSA,A,3,02,13,41,193,15,05,29,30,21,195,194,24,1.01,0.57,0.83*26
$GNGSA,A,3,408,413,406,416,430,403,401,427,420,409,425,423,1.01,0.57,0.83*17
$GNGLL,3722.68010,N,12640.54825,E,025940.00,A,D*7C
$GNVTG,217.89,T,,M,36.835,N,68.219,K,D*2C
$GNGGA,025941.00,3722.67200,N,12640.54035,E,2,12,0.56,8.4,M,17.9,M,,0000*48
$GNGSA,A,3,02,13,41,15,05,29,30,21,195,194,24,,1.04,0.56,0.87*1D
$GNGSA,A,3,408,413,406,416,430,403,401,427,420,409,425,423,1.04,0.56,0.87*17
$GNGLL,3722.67200,N,12640.54035,E,025941.00,A,D*78
$GNRMC,025942.00,A,3722.66391,N,12640.53243,E,36.901,217.94,231119,,,D*4D
$GNVTG,217.94,T,,M,36.901,N,68.340,K,D*2B
$GNGGA,025942.00,3722.66391,N,12640.53243,E,2,12,0.56,8.4,M,17.9,M,,0000*47
$GNGSA,A,3,02,13,41,15,05,29,30,21,195,194,24,,1.04,0.56,0.87*1D
$GNGSA,A,3,408,413,406,416,430,403,401,427,420,409,425,423,1.04,0.56,0.87*17
$GNGLL,3722.66391,N,12640.53243,E,025942.00,A,D*77
$GNVTG,217.77,T,,M,36.820,N,68.191,K,D*2A
$GNGGA,025943.00,3722.65581,N,12640.52454,E,2,12,0.56,8.5,M,17.9,M,,0000*42
$GNGSA,A,3,02,13,41,193,15,05,29,30,21,195,194,24,1.00,0.56,0.83*26
$GNGSA,A,3,408,413,406,416,430,403,401,427,420,409,425,423,1.00,0.56,0.83*17
$GNGLL,3722.65581,N,12640.52454,E,025943.00,A,D*73
$GNVTG,217.56,T,,M,36.825,N,68.199,K,D*24
$GNGGA,025944.00,3722.64770,N,12640.51669,E,2,12,0.56,8.5,M,17.9,M,,0000*47
$GNGSA,A,3,02,13,41,193,15,05,29,30,21,195,194,24,1.00,0.56,0.83*26
$GNGSA,A,3,408,413,406,416,430,403,401,427,420,409,425,423,1.00,0.56,0.83*17
$GNGLL,3722.64770,N,12640.51669,E,025944.00,A,D*76
$GNVTG,217.42,T,,M,36.785,N,68.126,K,D*20
$GNGGA,025945.00,3722.63957,N,12640.50886,E,2,12,0.56,8.5,M,17.9,M,,0000*44
$GNGSA,A,3,02,13,41,193,15,05,29,30,21,195,194,24,1.00,0.56,0.83*26
$GNGSA,A,3,408,413,406,416,430,403,401,427,420,409,425,423,1.00,0.56,0.83*17
$GNGLL,3722.63957,N,12640.50886,E,025945.00,A,D*75
$GNVTG,217.61,T,,M,36.868,N,68.279,K,D*24
$GNGGA,025946.00,3722.63145,N,12640.50102,E,2,12,0.56,8.4,M,17.9,M,,0000*48
$GNGSA,A,3,02,13,41,193,15,05,29,30,21,195,194,24,1.00,0.56,0.83*26
$GNGSA,A,3,408,413,406,416,430,403,401,427,420,409,425,423,1.00,0.56,0.83*17
$GNVTG,217.58,T,,M,36.896,N,68.331,K,D*22
$GNGGA,025947.00,3722.62330,N,12640.49318,E,2,12,0.56,8.3,M,17.9,M,,0000*4E
$GNGSA,A,3,02,13,41,193,15,05,29,30,21,195,194,24,1.00,0.56,0.83*26
$GNGSA,A,3,408,413,406,416,430,403,401,427,420,409,425,423,1.00,0.56,0.83*17
$GNGLL,3722.62330,N,12640.49318,E,025947.00,A,D*79
$GNZDA,025947.00,23,11,2019,00,00*7E
$GNVTG,217.50,T,,M,36.942,N,68.417,K,D*21
$GNGGA,025948.00,3722.61514,N,12640.48533,E,2,12,0.56,8.4,M,17.9,M,,0000*4B
$GNGSA,A,3,02,13,41,193,15,05,29,30,21,195,194,24,1.00,0.56,0.83*26
$GNGSA,A,3,408,413,406,416,430,403,401,427,420,409,425,423,1.00,0.56,0.83*17
$GNGLL,3722.61514,N,12640.48533,E,025948.00,A,D*7B
$GNVTG,217.39,T,,M,36.933,N,68.399,K,D*29
$GNGGA,025949.00,3722.60697,N,12640.47747,E,2,12,0.56,8.5,M,17.9,M,,0000*4C
$GNGSA,A,3,02,13,41,193,15,05,29,30,21,195,194,24,1.00,0.56,0.83*26
$GNGSA,A,3,408,413,406,416,430,403,401,427,420,409,425,423,1.00,0.56,0.83*17
$GNVTG,217.41,T,,M,36.915,N,68.367,K,D*23
$GNGGA,025950.00,3722.59881,N,12640.46964,E,2,12,0.56,8.5,M,17.9,M,,0000*49
$GNGSA,A,3,02,13,41,193,15,05,29,30,21,195,194,24,1.00,0.56,0.83*26
$GNGSA,A,3,408,413,406,416,430,403,401,427,420,409,425,423,1.00,0.56,0.83*17
$GNGLL,3722.59881,N,12640.46964,E,025950.00,A,D*78
$GNVTG,217.41,T,,M,36.909,N,68.355,K,D*2F
$GNGGA,025951.00,3722.59065,N,12640.46181,E,2,12,0.56,8.5,M,17.9,M,,0000*49
$GNGSA,A,3,02,13,41,15,05,29,30,21,195,194,24,,1.04,0.56,0.87*1D
$GNGSA,A,3,408,413,406,416,430,403,401,427,420,409,425,423,1.04,0.56,0.87*17
$GNGLL,3722.59065,N,12640.46181,E,025951.00,A,D*78
$GNVTG,217.23,T,,M,36.888,N,68.316,K,D*24
$GNGGA,025952.00,3722.58250,N,12640.45401,E,2,12,0.56,8.5,M,17.9,M,,0000*41
$GNGSA,A,3,02,13,41,15,05,29,30,21,195,194,24,,1.04,0.56,0.87*1D
$GNGSA,A,3,408,413,406,416,430,403,401,427,420,409,425,423,1.04,0.56,0.87*17
$GNGLL,3722.58250,N,12640.45401,E,025952.00,A,D*70
$GNVTG,217.60,T,,M,36.843,N,68.234,K,D*25
$GNGGA,025953.00,3722.57436,N,12640.44617,E,2,12,0.56,8.6,M,17.9,M,,0000*4E
$GNGSA,A,3,02,13,41,15,05,29,30,21,195,194,24,,1.04,0.56,0.87*1D
$GNGSA,A,3,408,413,406,416,430,403,401,427,420,409,425,423,1.04,0.56,0.87*17
$GNVTG,217.89,T,,M,36.884,N,68.309,K,D*26
$GNGGA,025954.00,3722.56626,N,12640.43828,E,2,12,0.56,8.5,M,17.9,M,,0000*4D
$GNGSA,A,3,02,13,41,15,05,29,30,21,195,194,24,,1.04,0.56,0.87*1D
$GNGSA,A,3,408,413,406,416,430,403,401,427,420,409,425,423,1.04,0.56,0.87*17
$GNGLL,3722.56626,N,12640.43828,E,025954.00,A,D*7C
$GNVTG,217.75,T,,M,36.941,N,68.415,K,D*27
$GNGGA,025955.00,3722.55815,N,12640.43038,E,2,12,0.56,8.6,M,17.9,M,,0000*4B
$GNGSA,A,3,02,13,41,15,05,29,30,21,195,194,24,,1.04,0.56,0.87*1D
$GNGSA,A,3,408,413,406,416,430,403,401,427,420,409,425,423,1.04,0.56,0.87*17
$GNVTG,217.75,T,,M,36.961,N,68.451,K,D*25
$GNGGA,025956.00,3722.55002,N,12640.42248,E,2,12,0.56,8.7,M,17.9,M,,0000*43
$GNGSA,A,3,02,13,41,193,15,05,29,30,21,195,194,24,1.00,0.56,0.83*26
$GNGSA,A,3,408,413,406,416,430,403,401,427,420,409,425,423,1.00,0.56,0.83*17
$GNGLL,3722.55002,N,12640.42248,E,025956.00,A,D*70
$GNRMC,025957.00,A,3722.54189,N,12640.41464,E,36.838,217.40,231119,,,D*41
$GNVTG,217.40,T,,M,36.838,N,68.225,K,D*2B
$GNGGA,025957.00,3722.54189,N,12640.41464,E,2,12,0.56,8.7,M,17.9,M,,0000*4A
$GNGSA,A,3,02,13,41,193,15,05,29,30,21,195,194,24,1.00,0.56,0.83*26
$GNGSA,A,3,408,413,406,416,430,403,401,427,420,409,425,423,1.00,0.56,0.83*17
$GNVTG,217.52,T,,M,36.828,N,68.205,K,D*2B
$GNGGA,025958.00,3722.53375,N,12640.40684,E,2,12,0.56,8.8,M,17.9,M,,0000*41
$GNGSA,A,3,02,13,41,193,15,05,29,30,21,195,194,24,1.00,0.56,0.83*26
$GNGSA,A,3,408,413,406,416,430,403,401,427,420,409,425,423,1.00,0.56,0.83*17
$GNGLL,3722.53375,N,12640.40684,E,025958.00,A,D*7D
$GNVTG,217.78,T,,M,36.853,N,68.251,K,D*2E
$GNGGA,025959.00,3722.52562,N,12640.39899,E,2,12,0.56,8.8,M,17.9,M,,0000*4D
$GNGSA,A,3,02,13,41,193,15,05,29,30,21,195,194,24,1.00,0.56,0.83*26
$GNGSA,A,3,408,413,406,416,430,403,401,427,420,409,425,423,1.00,0.56,0.83*17
$GNGLL,3722.52562,N,12640.39899,E,025959.00,A,D*71
$GNVTG,217.86,T,,M,36.920,N,68.375,K,D*2D
$GNGGA,030000.00,3722.51751,N,12640.39110,E,2,12,0.56,8.9,M,17.9,M,,0000*44
$GNGSA,A,3,02,13,41,193,15,05,29,30,21,195,194,24,1.00,0.56,0.83*26
$GNGSA,A,3,408,413,406,416,430,403,401,427,420,409,425,423,1.00,0.56,0.83*17
$GNGLL,3722.51751,N,12640.39110,E,030000.00,A,D*79
$GNVTG,217.93,T,,M,36.905,N,68.349,K,D*21
$GNGGA,030001.00,3722.50940,N,12640.38320,E,2,12,0.56,9.0,M,17.9,M,,0000*42
$GNGSA,A,3,02,13,41,193,15,05,29,30,21,195,194,24,1.00,0.56,0.83*26
$GNGSA,A,3,408,413,406,416,430,403,401,427,420,409,425,423,1.00,0.56,0.83*17
$GNVTG,217.94,T,,M,36.963,N,68.456,K,D*2F
$GNGGA,030002.00,3722.50129,N,12640.37529,E,2,12,0.56,9.0,M,17.9,M,,0000*46
$GNGSA,A,3,02,13,41,193,15,05,29,30,21,195,194,24,1.00,0.56,0.83*26
$GNGSA,A,3,408,413,406,416,430,403,401,427,420,409,425,423,1.00,0.56,0.83*17
$GNGLL,3722.50129,N,12640.37529,E,030002.00,A,D*73
$GNVTG,217.80,T,,M,36.868,N,68.279,K,D*2B
$GNGGA,030003.00,3722.49318,N,12640.36740,E,2,12,0.56,9.1,M,17.9,M,,0000*42
$GNGSA,A,3,02,13,41,193,15,05,29,30,21,195,194,24,1.00,0.56,0.83*26
$GNGSA,A,3,408,413,406,416,430,403,401,427,420,409,425,423,1.00,0.56,0.83*17
$GNVTG,217.73,T,,M,36.775,N,68.108,K,D*21
$GNGGA,030004.00,3722.48508,N,12640.35954,E,2,12,0.56,9.1,M,17.9,M,,0000*4B
$GNGSA,A,3,02,13,41,193,15,05,29,30,21,195,194,24,1.00,0.56,0.83*26
$GNGSA,A,3,408,413,406,416,430,403,401,427,420,409,425,423,1.00,0.56,0.83*17
$GNGLL,3722.48508,N,12640.35954,E,030004.00,A,D*7F
$GNVTG,217.69,T,,M,36.725,N,68.015,K,D*22
$GNGGA,030005.00,3722.47699,N,12640.35172,E,2,12,0.56,9.1,M,17.9,M,,0000*42
$GNGSA,A,3,02,13,41,193,15,05,29,30,21,195,194,24,1.00,0.56,0.83*26
$GNGSA,A,3,408,413,406,416,430,403,401,427,420,409,425,423,1.00,0.56,0.83*17
$GNGLL,3722.47699,N,12640.35172,E,030005.00,A,D*76
$GNVTG,217.91,T,,M,36.864,N,68.272,K,D*2C
$GNGGA,030006.00,3722.46891,N,12640.34385,E,2,12,0.56,9.0,M,17.9,M,,0000*4C
$GNGSA,A,3,02,13,41,193,15,05,29,30,21,195,194,24,1.00,0.56,0.83*26
$GNGSA,A,3,408,413,406,416,430,403,401,427,420,409,425,423,1.00,0.56,0.83*17
$GNGLL,3722.46891,N,12640.34385,E,030006.00,A,D*79
$GNVTG,217.65,T,,M,36.817,N,68.185,K,D*28
$GNGGA,030007.00,3722.46080,N,12640.33600,E,2,12,0.57,9.0,M,17.9,M,,0000*4B
$GNGSA,A,3,02,13,41,193,15,05,29,30,21,195,194,24,1.01,0.57,0.83*26
$GNGSA,A,3,408,413,406,416,430,403,401,427,420,409,425,423,1.01,0.57,0.83*17
$GNGLL,3722.46080,N,12640.33600,E,030007.00,A,D*7F
$GNVTG,217.74,T,,M,36.626,N,67.832,K,D*2E
$GNGGA,030008.00,3722.45273,N,12640.32818,E,2,12,0.56,9.1,M,17.9,M,,0000*4F
$GNGSA,A,3,02,13,41,193,15,05,29,30,21,195,194,24,1.00,0.56,0.83*26
$GNGSA,A,3,408,413,406,416,430,403,401,427,420,409,425,423,1.00,0.56,0.83*17
$GNGLL,3722.45273,N,12640.32818,E,030008.00,A,D*7B
$GNVTG,217.73,T,,M,36.727,N,68.019,K,D*27
$GNGGA,030009.00,3722.44465,N,12640.32036,E,2,12,0.57,9.0,M,17.9,M,,0000*4A
$GNGSA,A,3,02,13,41,193,15,05,29,30,21,195,194,24,1.01,0.57,0.83*26
$GNGSA,A,3,408,413,406,416,430,403,401,427,420,409,425,423,1.01,0.57,0.83*17
$GNVTG,217.81,T,,M,36.776,N,68.109,K,D*2E
$GNGGA,030010.00,3722.43658,N,12640.31251,E,2,12,0.58,9.0,M,17.9,M,,0000*46
$GNGSA,A,3,13,41,193,15,05,29,30,21,195,194,24,,1.02,0.58,0.84*2F
$GNGSA,A,3,408,413,406,416,430,403,401,427,420,409,425,423,1.02,0.58,0.84*1C
$GNGLL,3722.43658,N,12640.31251,E,030010.00,A,D*7D
$GNVTG,217.85,T,,M,36.774,N,68.106,K,D*27
$GNGGA,030011.00,3722.42850,N,12640.30465,E,2,12,0.57,9.1,M,17.9,M,,0000*4E
$GNGSA,A,3,02,13,41,193,15,05,29,30,21,195,194,24,1.01,0.57,0.83*26
$GNGSA,A,3,408,413,406,416,430,403,401,427,420,409,425,423,1.01,0.57,0.83*17
$GNGLL,3722.42850,N,12640.30465,E,030011.00,A,D*7B
$GNVTG,217.80,T,,M,36.925,N,68.386,K,D*22
$GNGGA,030012.00,3722.42038,N,12640.29676,E,2,12,0.56,9.2,M,17.9,M,,0000*41
$GNGSA,A,3,02,13,41,193,15,05,29,30,21,195,194,24,1.00,0.56,0.83*26
$GNGSA,A,3,408,413,406,416,430,403,401,427,420,409,425,423,1.00,0.56,0.83*17
$GNVTG,217.56,T,,M,36.937,N,68.407,K,D*24
$GNGGA,030013.00,3722.41224,N,12640.28890,E,2,12,0.57,9.3,M,17.9,M,,0000*4B
$GNGSA,A,3,13,41,193,15,05,29,30,21,195,194,24,,1.01,0.57,0.84*23
$GNGSA,A,3,408,413,406,416,430,403,401,427,420,409,425,423,1.01,0.57,0.84*10
$GNGLL,3722.41224,N,12640.28890,E,030013.00,A,D*7C
$GNVTG,218.02,T,,M,36.905,N,68.348,K,D*27
$GNGGA,030014.00,3722.40413,N,12640.28100,E,2,12,0.57,9.3,M,17.9,M,,0000*4F
$GNGSA,A,3,13,41,193,15,05,29,30,21,195,194,24,,1.01,0.57,0.84*23
$GNGSA,A,3,408,413,406,416,430,403,401,427,420,409,425,423,1.01,0.57,0.84*10
$GNGLL,3722.40413,N,12640.28100,E,030014.00,A,D*78
$GNVTG,217.81,T,,M,36.868,N,68.280,K,D*2C
$GNGGA,030015.00,3722.39604,N,12640.27313,E,2,12,0.58,9.3,M,17.9,M,,0000*44
$GNGSA,A,3,13,41,193,15,05,29,30,21,195,194,24,,1.02,0.58,0.84*2F
$GNGSA,A,3,408,413,406,416,430,403,401,427,420,409,425,423,1.02,0.58,0.84*1C
$GNGLL,3722.39604,N,12640.27313,E,030015.00,A,D*7C
$GNZDA,030015.00,23,11,2019,00,00*74
$GNVTG,217.73,T,,M,36.816,N,68.183,K,D*28
$GNGGA,030016.00,3722.38793,N,12640.26528,E,2,12,0.58,9.2,M,17.9,M,,0000*47
$GNGSA,A,3,13,41,193,15,05,29,30,21,195,194,24,,1.02,0.58,0.84*2F
$GNGSA,A,3,408,413,406,416,430,403,401,427,420,409,425,423,1.02,0.58,0.84*1C
$GNGLL,3722.38793,N,12640.26528,E,030016.00,A,D*7E
$GNVTG,217.72,T,,M,36.802,N,68.157,K,D*25
$GNGGA,030017.00,3722.37983,N,12640.25744,E,2,12,0.58,9.2,M,17.9,M,,0000*4D
$GNGSA,A,3,02,13,41,193,15,05,29,30,21,195,194,24,1.05,0.58,0.87*29
$GNGSA,A,3,413,406,416,430,403,401,427,420,409,425,423,402,1.05,0.58,0.87*12
$GNGLL,3722.37983,N,12640.25744,E,030017.00,A,D*74
$GNVTG,217.57,T,,M,36.836,N,68.220,K,D*26
$GNGGA,030018.00,3722.37171,N,12640.24961,E,2,12,0.58,9.3,M,17.9,M,,0000*4E
$GNGSA,A,3,02,13,41,193,15,05,29,30,21,195,194,24,1.05,0.58,0.87*29
$GNGSA,A,3,413,406,416,430,403,401,427,420,409,425,423,402,1.05,0.58,0.87*12
$GNVTG,217.73,T,,M,36.792,N,68.139,K,D*2A
$GNGGA,030019.00,3722.36360,N,12640.24177,E,2,12,0.58,9.3,M,17.9,M,,0000*43
$GNGSA,A,3,02,13,41,193,15,05,29,30,21,195,194,24,1.05,0.58,0.87*29
$GNGSA,A,3,413,406,416,430,403,401,427,420,409,425,423,402,1.05,0.58,0.87*12
$GNGLL,3722.36360,N,12640.24177,E,030019.00,A,D*7B
$GNVTG,217.57,T,,M,36.826,N,68.202,K,D*27
$GNGGA,030020.00,3722.35548,N,12640.23395,E,2,12,0.58,9.3,M,17.9,M,,0000*4F
$GNGSA,A,3,02,13,41,193,15,05,29,30,21,195,194,24,1.05,0.58,0.87*29
$GNGSA,A,3,413,406,416,430,403,401,427,420,409,425,423,402,1.05,0.58,0.87*12
$GNVTG,217.52,T,,M,36.242,N,67.120,K,D*26
$GNGGA,030021.00,3722.34745,N,12640.22623,E,2,12,0.58,9.3,M,17.9,M,,0000*49
$GNGSA,A,3,02,13,41,193,15,05,29,30,21,195,194,24,1.05,0.58,0.87*29
$GNGSA,A,3,413,406,416,430,403,401,427,420,409,425,423,402,1.05,0.58,0.87*12
$GNGLL,3722.34745,N,12640.22623,E,030021.00,A,D*71
$GNVTG,217.32,T,,M,34.316,N,63.553,K,D*26
$GNGGA,030022.00,3722.33974,N,12640.21886,E,2,12,0.58,9.4,M,17.9,M,,0000*44
$GNGSA,A,3,02,13,41,193,15,05,29,30,21,195,194,24,1.05,0.58,0.87*29
$GNGSA,A,3,413,406,416,430,403,401,427,420,409,425,423,402,1.05,0.58,0.87*12
$GNGLL,3722.33974,N,12640.21886,E,030022.00,A,D*7B
$GNVTG,217.35,T,,M,31.652,N,58.619,K,D*24
$GNGGA,030023.00,3722.33256,N,12640.21201,E,2,12,0.58,9.4,M,17.9,M,,0000*4B
$GNGSA,A,3,02,13,41,193,15,05,29,30,21,195,194,24,1.05,0.58,0.87*29
$GNGSA,A,3,413,406,416,430,403,401,427,420,409,425,423,404,1.05,0.58,0.87*14
$GNGLL,3722.33256,N,12640.21201,E,030023.00,A,D*74
$GNVTG,217.47,T,,M,30.074,N,55.697,K,D*29
$GNGGA,030024.00,3722.32581,N,12640.20554,E,2,12,0.58,9.4,M,17.9,M,,0000*46
$GNGSA,A,3,02,13,41,193,15,05,29,30,21,195,194,24,1.05,0.58,0.87*29
$GNGSA,A,3,413,406,416,430,403,401,427,420,409,425,423,402,1.05,0.58,0.87*12
$GNGLL,3722.32581,N,12640.20554,E,030024.00,A,D*79
$GNZDA,030024.00,23,11,2019,00,00*76
$GNVTG,217.66,T,,M,29.460,N,54.560,K,D*29
$GNGGA,030025.00,3722.31928,N,12640.19924,E,2,12,0.58,9.4,M,17.9,M,,0000*4A
$GNGSA,A,3,02,13,41,193,15,05,29,30,21,195,194,24,1.05,0.58,0.87*29
$GNGSA,A,3,413,406,416,430,403,401,427,420,409,425,423,402,1.05,0.58,0.87*12
$GNGLL,3722.31928,N,12640.19924,E,030025.00,A,D*75
$GNVTG,217.99,T,,M,28.881,N,53.488,K,D*2B
$GNGGA,030026.00,3722.31290,N,12640.19301,E,2,12,0.56,9.5,M,17.9,M,,0000*43
$GNGSA,A,3,02,13,41,193,15,05,29,30,21,195,194,24,1.04,0.56,0.87*26
$GNGSA,A,3,413,406,416,430,403,401,427,420,409,425,423,404,1.04,0.56,0.87*1B
$GNGLL,3722.31290,N,12640.19301,E,030026.00,A,D*73
$GNVTG,218.02,T,,M,28.196,N,52.219,K,D*26
$GNGGA,030027.00,3722.30668,N,12640.18691,E,2,12,0.56,9.4,M,17.9,M,,0000*4C
$GNGSA,A,3,02,13,41,193,15,05,29,30,21,195,194,24,1.04,0.56,0.87*26
$GNGSA,A,3,413,406,416,430,403,401,427,420,409,425,423,404,1.04,0.56,0.87*1B
$GNVTG,218.08,T,,M,28.662,N,53.082,K,D*21
$GNGGA,030028.00,3722.30043,N,12640.18078,E,2,12,0.56,9.4,M,17.9,M,,0000*4D
$GNGSA,A,3,02,13,41,193,15,05,29,30,21,195,194,24,1.04,0.56,0.87*26
$GNGSA,A,3,413,406,416,430,403,401,427,420,409,425,423,404,1.04,0.56,0.87*1B
$GNGLL,3722.30043,N,12640.18078,E,030028.00,A,D*7C
$GNVTG,217.51,T,,M,29.694,N,54.994,K,D*23
$GNGGA,030029.00,3722.29396,N,12640.17453,E,2,12,0.56,9.4,M,17.9,M,,0000*4D
$GNGSA,A,3,02,13,41,193,15,05,29,30,21,195,194,24,1.04,0.56,0.87*26
$GNGSA,A,3,413,406,416,430,403,401,427,420,409,425,423,404,1.04,0.56,0.87*1B
$GNGLL,3722.29396,N,12640.17453,E,030029.00,A,D*7C
$GNVTG,217.62,T,,M,30.598,N,56.668,K,D*2A
$GNGGA,030030.00,3722.28727,N,12640.16809,E,2,12,0.56,9.5,M,17.9,M,,0000*49
$GNGSA,A,3,02,13,41,193,15,05,29,30,21,195,194,24,1.04,0.56,0.87*26
$GNGSA,A,3,413,406,416,430,403,401,427,420,409,425,423,404,1.04,0.56,0.87*1B
$GNGLL,3722.28727,N,12640.16809,E,030030.00,A,D*79
$GNZDA,030030.00,23,11,2019,00,00*73
$GNVTG,217.48,T,,M,32.051,N,59.359,K,D*28
$GNGGA,030031.00,3722.28030,N,12640.16139,E,2,12,0.56,9.5,M,17.9,M,,0000*43
$GNGSA,A,3,02,13,41,193,15,05,29,30,21,195,194,24,1.04,0.56,0.87*26
$GNGSA,A,3,413,406,416,430,403,401,427,420,409,425,423,404,1.04,0.56,0.87*1B
$GNGLL,3722.28030,N,12640.16139,E,030031.00,A,D*73
$GNVTG,217.37,T,,M,34.840,N,64.524,K,D*2C
$GNGGA,030032.00,3722.27278,N,12640.15419,E,2,12,0.56,9.5,M,17.9,M,,0000*45
$GNGSA,A,3,02,13,41,193,15,05,29,30,21,195,194,24,1.04,0.56,0.87*26
$GNGSA,A,3,413,406,416,430,403,401,427,420,409,425,423,404,1.04,0.56,0.87*1B
$GNGLL,3722.27278,N,12640.15419,E,030032.00,A,D*75
$GNVTG,217.02,T,,M,36.107,N,66.870,K,D*2C
$GNGGA,030033.00,3722.26486,N,12640.14669,E,2,12,0.56,9.5,M,17.9,M,,0000*46
$GNGSA,A,3,02,13,41,193,15,05,29,30,21,195,194,24,1.04,0.56,0.87*26
$GNGSA,A,3,413,406,416,430,403,401,427,420,409,425,423,404,1.04,0.56,0.87*1B
$GNVTG,215.81,T,,M,36.591,N,67.767,K,D*26
$GNGGA,030034.00,3722.25669,N,12640.13920,E,2,12,0.56,9.5,M,17.9,M,,0000*44
$GNGSA,A,3,02,13,41,193,15,05,29,30,21,195,194,24,1.04,0.56,0.87*26
$GNGSA,A,3,413,406,416,430,403,401,427,420,409,425,423,404,1.04,0.56,0.87*1B
$GNVTG,215.70,T,,M,36.640,N,67.857,K,D*2B
$GNGGA,030035.00,3722.24843,N,12640.13175,E,2,12,0.58,9.4,M,17.9,M,,0000*45
$GNGSA,A,3,02,13,41,193,15,05,29,30,21,195,194,24,1.05,0.58,0.87*29
$GNGSA,A,3,413,406,416,430,403,401,427,420,409,425,423,402,1.05,0.58,0.87*12
$GNGLL,3722.24843,N,12640.13175,E,030035.00,A,D*7A
$GNVTG,216.37,T,,M,36.637,N,67.852,K,D*2E
$GNGGA,030036.00,3722.24020,N,12640.12421,E,2,12,0.58,9.4,M,17.9,M,,0000*4E
$GNGSA,A,3,02,13,41,193,15,05,29,30,21,195,194,24,1.05,0.58,0.87*29
$GNGSA,A,3,413,406,416,430,403,401,427,420,409,425,423,402,1.05,0.58,0.87*12
$GNGLL,3722.24020,N,12640.12421,E,030036.00,A,D*71
$GNVTG,216.90,T,,M,36.693,N,67.955,K,D*2B
$GNGGA,030037.00,3722.23201,N,12640.11656,E,2,12,0.58,9.4,M,17.9,M,,0000*48
$GNGSA,A,3,02,13,41,193,15,05,29,30,21,195,194,24,1.05,0.58,0.87*29
$GNGSA,A,3,413,406,416,430,403,401,427,420,409,425,423,402,1.05,0.58,0.87*12
$GNGLL,3722.23201,N,12640.11656,E,030037.00,A,D*77
$GNVTG,216.98,T,,M,36.805,N,68.162,K,D*21
$GNGGA,030038.00,3722.22383,N,12640.10885,E,2,12,0.58,9.5,M,17.9,M,,0000*4D
$GNGSA,A,3,02,13,41,193,15,05,29,30,21,195,194,24,1.05,0.58,0.87*29
$GNGSA,A,3,413,406,416,430,403,401,427,420,409,425,423,402,1.05,0.58,0.87*12
$GNGLL,3722.22383,N,12640.10885,E,030038.00,A,D*73
$GNVTG,217.15,T,,M,36.868,N,68.279,K,D*27
$GNGGA,030039.00,3722.21567,N,12640.10111,E,2,12,0.58,9.4,M,17.9,M,,0000*46
$GNGSA,A,3,02,13,41,193,15,05,29,30,21,195,194,24,1.05,0.58,0.87*29
$GNGSA,A,3,413,406,416,430,403,401,427,420,409,425,423,402,1.05,0.58,0.87*12
$GNGLL,3722.21567,N,12640.10111,E,030039.00,A,D*79
$GNVTG,217.75,T,,M,36.861,N,68.266,K,D*26
$GNGGA,030040.00,3722.20755,N,12640.09327,E,2,12,0.56,9.4,M,17.9,M,,0000*4B
$GNGSA,A,3,02,13,41,193,15,05,29,30,21,195,194,24,1.04,0.56,0.87*26
$GNGSA,A,3,413,406,416,430,403,401,427,420,409,425,423,404,1.04,0.56,0.87*1B
$GNZDA,030040.00,23,11,2019,00,00*74
$GNVTG,217.77,T,,M,36.872,N,68.288,K,D*26
$GNGGA,030041.00,3722.19945,N,12640.08540,E,2,12,0.56,9.4,M,17.9,M,,0000*49
$GNGSA,A,3,02,13,41,193,15,05,29,30,21,195,194,24,1.00,0.56,0.83*26
$GNGSA,A,3,408,413,406,416,430,403,401,427,420,409,425,423,1.00,0.56,0.83*17
$GNVTG,217.34,T,,M,36.861,N,68.266,K,D*23
$GNGGA,030042.00,3722.19132,N,12640.07758,E,2,12,0.56,9.3,M,17.9,M,,0000*41
$GNGSA,A,3,02,13,41,193,15,05,29,30,21,194,24,,1.01,0.56,0.84*1D
$GNGSA,A,3,408,413,406,416,430,403,401,427,420,409,425,423,1.01,0.56,0.84*11
$GNVTG,217.24,T,,M,36.810,N,68.171,K,D*21
$GNGGA,030043.00,3722.18317,N,12640.06980,E,2,12,0.58,9.3,M,17.9,M,,0000*40
$GNGSA,A,3,02,13,41,193,15,05,29,30,21,194,24,,1.02,0.58,0.84*10
$GNGSA,A,3,408,413,406,416,430,403,401,427,420,409,425,423,1.02,0.58,0.84*1C
$GNGLL,3722.18317,N,12640.06980,E,030043.00,A,D*78
$GNVTG,217.33,T,,M,36.903,N,68.344,K,D*20
$GNGGA,030044.00,3722.17502,N,12640.06201,E,2,12,0.57,9.2,M,17.9,M,,0000*46
$GNGSA,A,3,02,13,41,193,15,05,29,30,21,195,194,24,1.01,0.57,0.83*26
$GNGSA,A,3,408,413,406,416,430,403,401,427,420,409,425,423,1.01,0.57,0.83*17
$GNGLL,3722.17502,N,12640.06201,E,030044.00,A,D*70
$GNVTG,217.87,T,,M,36.809,N,68.170,K,D*21
$GNGGA,030045.00,3722.16691,N,12640.05414,E,2,12,0.57,9.3,M,17.9,M,,0000*4F
$GNGSA,A,3,02,13,41,193,15,05,29,30,21,195,194,24,1.01,0.57,0.83*26
$GNGSA,A,3,408,413,406,416,430,403,401,427,420,409,425,423,1.01,0.57,0.83*17
$GNGLL,3722.16691,N,12640.05414,E,030045.00,A,D*78
$GNZDA,030045.00,23,11,2019,00,00*71
$GNVTG,218.31,T,,M,36.795,N,68.145,K,D*2F
$GNGGA,030046.00,3722.15886,N,12640.04620,E,2,12,0.57,9.3,M,17.9,M,,0000*43
$GNGSA,A,3,02,13,41,193,15,05,29,30,21,195,194,24,1.01,0.57,0.83*26
$GNGSA,A,3,408,413,406,416,430,403,401,427,420,409,425,423,1.01,0.57,0.83*17
$GNVTG,218.30,T,,M,36.949,N,68.429,K,D*2E
$GNGGA,030047.00,3722.15081,N,12640.03822,E,2,12,0.57,9.2,M,17.9,M,,0000*47
$GNGSA,A,3,02,13,41,193,15,05,29,30,21,195,194,24,1.01,0.57,0.83*26
$GNGSA,A,3,408,413,406,416,430,403,401,427,420,409,425,423,1.01,0.57,0.83*17
$GNGLL,3722.15081,N,12640.03822,E,030047.00,A,D*71
$GNVTG,217.97,T,,M,36.915,N,68.366,K,D*29
$GNGGA,030048.00,3722.14273,N,12640.03027,E,2,12,0.57,9.3,M,17.9,M,,0000*4A
$GNGSA,A,3,02,13,41,193,15,05,29,30,21,195,194,24,1.01,0.57,0.83*26
$GNGSA,A,3,408,413,406,416,430,403,401,427,420,409,425,423,1.01,0.57,0.83*17
$GNGLL,3722.14273,N,12640.03027,E,030048.00,A,D*7D
$GNVTG,217.66,T,,M,36.898,N,68.335,K,D*25
$GNGGA,030049.00,3722.13461,N,12640.02238,E,2,12,0.57,9.3,M,17.9,M,,0000*44
$GNGSA,A,3,02,13,41,193,15,05,29,30,21,195,194,24,1.01,0.57,0.83*26
$GNGSA,A,3,408,413,406,416,430,403,401,427,420,409,425,423,1.01,0.57,0.83*17
$GNVTG,216.92,T,,M,36.866,N,68.276,K,D*28
$GNGGA,030050.00,3722.12643,N,12640.01462,E,2,12,0.53,9.3,M,17.9,M,,0000*41
$GNGSA,A,3,02,13,41,193,15,05,29,30,21,195,194,20,0.92,0.53,0.75*24
$GNGSA,A,3,408,413,406,416,430,403,401,427,420,409,425,423,0.92,0.53,0.75*11
$GNGLL,3722.12643,N,12640.01462,E,030050.00,A,D*72
$GNVTG,217.54,T,,M,36.847,N,68.240,K,D*25
$GNGGA,030051.00,3722.11828,N,12640.00682,E,2,12,0.53,9.4,M,17.9,M,,0000*4A
$GNGSA,A,3,02,13,41,193,15,05,29,30,21,195,194,20,0.92,0.53,0.75*24
$GNGSA,A,3,408,413,406,416,430,403,401,427,420,409,425,423,0.92,0.53,0.75*11
$GNGLL,3722.11828,N,12640.00682,E,030051.00,A,D*7E
$GNVTG,217.51,T,,M,36.881,N,68.304,K,D*2B
$GNGGA,030052.00,3722.11016,N,12639.99899,E,2,12,0.53,9.3,M,17.9,M,,0000*41
$GNGSA,A,3,02,13,41,193,15,05,29,30,21,195,194,20,0.92,0.53,0.75*24
$GNGSA,A,3,408,413,406,416,430,403,401,427,420,409,425,423,0.92,0.53,0.75*11
$GNGLL,3722.11016,N,12639.99899,E,030052.00,A,D*72
$GNVTG,217.58,T,,M,36.849,N,68.245,K,D*22
$GNGGA,030053.00,3722.10204,N,12639.99115,E,2,12,0.53,9.4,M,17.9,M,,0000*4A
$GNGSA,A,3,02,13,41,193,15,05,29,30,21,195,194,20,0.92,0.53,0.75*24
$GNGSA,A,3,408,413,406,416,430,403,401,427,420,409,425,423,0.92,0.53,0.75*11
$GNGLL,3722.10204,N,12639.99115,E,030053.00,A,D*7E
$GNVTG,217.43,T,,M,36.888,N,68.316,K,D*22
$GNGGA,030054.00,3722.09389,N,12639.98333,E,2,12,0.53,9.4,M,17.9,M,,0000*46
$GNGSA,A,3,02,13,41,193,15,05,29,30,21,195,194,20,0.92,0.53,0.75*24
$GNGSA,A,3,408,413,406,416,430,403,401,427,420,409,425,423,0.92,0.53,0.75*11
$GNVTG,217.80,T,,M,36.885,N,68.311,K,D*27
$GNGGA,030055.00,3722.08578,N,12639.97547,E,2,12,0.53,9.5,M,17.9,M,,0000*45
$GNGSA,A,3,02,13,41,193,15,05,29,30,21,195,194,20,0.92,0.53,0.75*24
$GNGSA,A,3,408,413,406,416,430,403,401,427,420,409,425,423,0.92,0.53,0.75*11
$GNGLL,3722.08578,N,12639.97547,E,030055.00,A,D*70
$GNVTG,217.76,T,,M,36.911,N,68.360,K,D*24
$GNGGA,030056.00,3722.07767,N,12639.96758,E,2,12,0.52,9.4,M,17.9,M,,0000*48
$GNGSA,A,3,02,13,41,193,15,05,29,30,21,195,194,20,0.92,0.52,0.75*25
$GNGSA,A,3,408,413,406,416,430,403,401,427,420,409,425,423,0.92,0.52,0.75*10
$GNGLL,3722.07767,N,12639.96758,E,030056.00,A,D*7D
$GNVTG,217.42,T,,M,36.868,N,68.280,K,D*23
$GNGGA,030057.00,3722.06953,N,12639.95975,E,2,12,0.52,9.4,M,17.9,M,,0000*43
$GNGSA,A,3,02,13,41,193,15,05,29,30,21,195,194,20,0.92,0.52,0.75*25
$GNGSA,A,3,408,413,406,416,430,403,401,427,420,409,425,423,0.92,0.52,0.75*10
$GNGLL,3722.06953,N,12639.95975,E,030057.00,A,D*76
$GNZDA,030057.00,23,11,2019,00,00*72
$GNVTG,217.46,T,,M,36.880,N,68.301,K,D*29
$GNGGA,030058.00,3722.06139,N,12639.95194,E,2,12,0.52,9.4,M,17.9,M,,0000*4F
$GNGSA,A,3,02,13,41,193,15,05,29,30,21,195,194,20,0.92,0.52,0.75*25
$GNGSA,A,3,408,413,406,416,430,403,401,427,420,409,425,423,0.92,0.52,0.75*10
$GNVTG,217.69,T,,M,36.861,N,68.266,K,D*2B
$GNGGA,030059.00,3722.05327,N,12639.94409,E,2,12,0.52,9.4,M,17.9,M,,0000*40
$GNGSA,A,3,02,13,41,193,15,05,29,30,21,195,194,20,0.92,0.52,0.75*25
$GNGSA,A,3,408,413,406,416,430,403,401,427,420,409,425,423,0.92,0.52,0.75*10
$GNGLL,3722.05327,N,12639.94409,E,030059.00,A,D*75
$GNVTG,217.96,T,,M,36.806,N,68.165,K,D*2A
$GNGGA,030100.00,3722.04520,N,12639.93621,E,2,12,0.52,9.2,M,17.9,M,,0000*44
$GNGSA,A,3,02,13,41,193,15,05,29,30,21,195,194,20,0.92,0.52,0.75*25
$GNGSA,A,3,408,413,406,416,430,403,401,427,420,409,425,423,0.92,0.52,0.75*10
$GNGLL,3722.04520,N,12639.93621,E,030100.00,A,D*77
$GNZDA,030100.00,23,11,2019,00,00*71
$GNVTG,217.87,T,,M,36.887,N,68.314,K,D*27
$GNGGA,030101.00,3722.03711,N,12639.92831,E,2,12,0.52,9.2,M,17.9,M,,0000*4C
$GNGSA,A,3,02,13,41,193,15,05,29,30,21,195,194,20,0.92,0.52,0.75*25
$GNGSA,A,3,408,413,406,416,430,403,401,427,420,409,425,423,0.92,0.52,0.75*10
$GNGLL,3722.03711,N,12639.92831,E,030101.00,A,D*7F
$GNVTG,217.68,T,,M,36.842,N,68.231,K,D*29
$GNGGA,030102.00,3722.02901,N,12639.92044,E,2,12,0.52,9.2,M,17.9,M,,0000*4B
$GNGSA,A,3,02,13,41,193,15,05,29,30,21,195,194,20,0.92,0.52,0.75*25
$GNGSA,A,3,408,413,406,416,430,403,401,427,420,409,425,423,0.92,0.52,0.75*10
$GNVTG,217.86,T,,M,36.904,N,68.346,K,D*2B
$GNGGA,030103.00,3722.02091,N,12639.91255,E,2,12,0.52,9.2,M,17.9,M,,0000*4B
$GNGSA,A,3,02,13,41,193,15,05,29,30,21,195,194,20,0.92,0.52,0.75*25
$GNGSA,A,3,408,413,406,416,430,403,401,427,420,409,425,423,0.92,0.52,0.75*10
$GNGLL,3722.02091,N,12639.91255,E,030103.00,A,D*78
$GNVTG,217.91,T,,M,36.887,N,68.315,K,D*21
$GNGGA,030104.00,3722.01281,N,12639.90466,E,2,12,0.52,9.2,M,17.9,M,,0000*4B
$GNGSA,A,3,02,13,41,193,15,05,29,30,21,195,194,20,0.92,0.52,0.75*25
$GNGSA,A,3,408,413,406,416,430,403,401,427,420,409,425,423,0.92,0.52,0.75*10
$GNVTG,217.66,T,,M,36.878,N,68.299,K,D*2C
$GNGGA,030105.00,3722.00470,N,12639.89678,E,2,12,0.52,9.2,M,17.9,M,,0000*46
$GNGSA,A,3,02,13,41,193,15,05,29,30,21,195,194,20,0.92,0.52,0.75*25
$GNGSA,A,3,408,413,406,416,430,403,401,427,420,409,425,423,0.92,0.52,0.75*10
$GNGLL,3722.00470,N,12639.89678,E,030105.00,A,D*75
$GNVTG,217.69,T,,M,36.877,N,68.296,K,D*23
$GNGGA,030106.00,3721.99660,N,12639.88890,E,2,12,0.52,9.3,M,17.9,M,,0000*4D
$GNGSA,A,3,02,13,41,193,15,05,29,30,21,195,194,20,0.92,0.52,0.75*25
$GNGSA,A,3,408,413,406,416,430,403,401,427,420,409,425,423,0.92,0.52,0.75*10
$GNGLL,3721.99660,N,12639.88890,E,030106.00,A,D*7F
$GNVTG,217.49,T,,M,36.894,N,68.327,K,D*27
$GNGGA,030107.00,3721.98849,N,12639.88104,E,2,12,0.52,9.4,M,17.9,M,,0000*4B
$GNGSA,A,3,02,13,41,193,15,05,29,30,21,195,194,20,0.92,0.52,0.75*25
$GNGSA,A,3,408,413,406,416,430,403,401,427,420,409,425,423,0.92,0.52,0.75*10
$GNGLL,3721.98849,N,12639.88104,E,030107.00,A,D*7E
$GNVTG,217.67,T,,M,36.845,N,68.236,K,D*26
$GNGGA,030108.00,3721.98036,N,12639.87319,E,2,12,0.53,9.4,M,17.9,M,,0000*44
$GNGSA,A,3,02,13,41,193,15,05,29,30,21,195,194,20,0.93,0.53,0.76*26
$GNGSA,A,3,408,413,406,416,430,403,401,427,420,409,425,423,0.93,0.53,0.76*13
$GNGLL,3721.98036,N,12639.87319,E,030108.00,A,D*70
$GNVTG,217.43,T,,M,36.843,N,68.234,K,D*24
$GNGGA,030109.00,3721.97223,N,12639.86536,E,2,12,0.55,9.4,M,17.9,M,,0000*40
$GNGSA,A,3,02,13,41,193,15,05,29,30,21,195,194,20,0.98,0.55,0.81*23
$GNGSA,A,3,408,413,406,416,430,403,401,427,420,409,425,423,0.98,0.55,0.81*16
$GNGLL,3721.97223,N,12639.86536,E,030109.00,A,D*72
$GNVTG,217.77,T,,M,36.867,N,68.278,K,D*2D
$GNGGA,030110.00,3721.96411,N,12639.85750,E,2,12,0.57,9.4,M,17.9,M,,0000*4D
$GNGSA,A,3,02,13,41,193,15,05,29,30,21,195,194,24,1.01,0.57,0.84*21
$GNGSA,A,3,408,413,406,416,430,403,401,427,420,409,425,423,1.01,0.57,0.84*10
$GNGLL,3721.96411,N,12639.85750,E,030110.00,A,D*7D
$GNRMC,030111.00,A,3721.95601,N,12639.84962,E,36.881,217.69,231119,,,D*43
$GNVTG,217.69,T,,M,36.881,N,68.303,K,D*27
$GNGGA,030111.00,3721.95601,N,12639.84962,E,2,12,0.57,9.4,M,17.9,M,,0000*42
$GNGSA,A,3,02,13,41,193,15,05,29,30,21,195,194,24,1.01,0.57,0.83*26
$GNGSA,A,3,408,413,406,416,430,403,401,427,420,409,425,423,1.01,0.57,0.83*17
$GNGLL,3721.95601,N,12639.84962,E,030111.00,A,D*72
$GNVTG,218.81,T,,M,36.582,N,67.749,K,D*25
$GNGGA,030112.00,3721.94802,N,12639.84165,E,2,12,0.58,9.6,M,17.9,M,,0000*4F
$GNGSA,A,3,02,13,41,193,15,05,29,30,21,195,194,24,1.02,0.58,0.84*2D
$GNGSA,A,3,408,413,406,416,430,403,401,427,420,409,425,423,1.02,0.58,0.84*1C
$GNVTG,217.50,T,,M,36.852,N,68.249,K,D*2C
$GNGGA,030113.00,3721.93997,N,12639.83379,E,2,12,0.58,9.6,M,17.9,M,,0000*4C
$GNGSA,A,3,02,13,41,193,15,05,29,30,21,195,194,24,1.02,0.58,0.84*2D
$GNGSA,A,3,408,413,406,416,430,403,401,427,420,409,425,423,1.02,0.58,0.84*1C
$GNVTG,217.52,T,,M,36.931,N,68.396,K,D*29
$GNGGA,030114.00,3721.93184,N,12639.82595,E,2,12,0.58,9.4,M,17.9,M,,0000*46
$GNGSA,A,3,02,13,41,193,15,05,29,30,21,195,194,24,1.02,0.58,0.84*2D
$GNGSA,A,3,408,413,406,416,430,403,401,427,420,409,425,423,1.02,0.58,0.84*1C
$GNVTG,217.70,T,,M,36.825,N,68.200,K,D*23
$GNGGA,030115.00,3721.92374,N,12639.81808,E,2,12,0.58,9.5,M,17.9,M,,0000*40
$GNGSA,A,3,02,13,41,193,15,05,29,30,21,195,194,24,1.02,0.58,0.84*2D
$GNGSA,A,3,408,413,406,416,430,403,401,427,420,409,425,423,1.02,0.58,0.84*1C
$GNVTG,217.52,T,,M,36.862,N,68.268,K,D*2E
$GNGGA,030116.00,3721.91562,N,12639.81024,E,2,12,0.66,9.5,M,17.9,M,,0000*4A
$GNGSA,A,3,02,13,41,193,15,05,29,30,21,195,194,24,1.16,0.66,0.95*25
$GNGSA,A,3,408,413,406,416,430,403,401,427,420,409,425,423,1.16,0.66,0.95*14
$GNVTG,217.49,T,,M,36.905,N,68.348,K,D*27
$GNGGA,030117.00,3721.90749,N,12639.80240,E,2,12,0.57,9.5,M,17.9,M,,0000*42
$GNGSA,A,3,02,13,41,193,15,05,29,30,21,195,194,24,1.01,0.57,0.83*26
$GNGSA,A,3,408,413,406,416,430,403,401,427,420,409,425,423,1.01,0.57,0.83*17
$GNVTG,217.94,T,,M,36.878,N,68.298,K,D*20
$GNGGA,030118.00,3721.89938,N,12639.79452,E,2,12,0.57,9.5,M,17.9,M,,0000*4E
$GNGSA,A,3,02,13,41,193,15,05,29,30,21,195,194,24,1.01,0.57,0.83*26
$GNGSA,A,3,408,413,406,416,430,403,401,427,420,409,425,423,1.01,0.57,0.83*17
$GNVTG,218.14,T,,M,36.830,N,68.209,K,D*23
$GNGGA,030119.00,3721.89132,N,12639.78658,E,2,12,0.57,9.5,M,17.9,M,,0000*44
$GNGSA,A,3,02,13,41,193,15,05,29,30,21,195,194,24,1.01,0.57,0.83*26
$GNGSA,A,3,408,413,406,416,430,403,401,427,420,409,425,423,1.01,0.57,0.83*17
$GNVTG,217.75,T,,M,36.946,N,68.424,K,D*22
$GNGGA,030120.00,3721.88323,N,12639.77869,E,2,12,0.57,9.3,M,17.9,M,,0000*48
$GNGSA,A,3,02,13,41,193,15,05,29,30,21,195,194,24,1.01,0.57,0.83*26
$GNGSA,A,3,408,413,406,416,430,403,401,427,420,409,425,423,1.01,0.57,0.83*17
$GNGLL,3721.88323,N,12639.77869,E,030120.00,A,D*7F
$GNVTG,217.83,T,,M,36.882,N,68.306,K,D*25
$GNGGA,030121.00,3721.87513,N,12639.77082,E,2,12,0.58,9.3,M,17.9,M,,0000*41
$GNGSA,A,3,02,13,41,193,15,05,29,30,21,195,194,24,1.02,0.58,0.84*2D
$GNGSA,A,3,408,413,406,416,430,403,401,427,420,409,425,423,1.02,0.58,0.84*1C
$GNGLL,3721.87513,N,12639.77082,E,030121.00,A,D*79
$GNVTG,217.58,T,,M,36.873,N,68.289,K,D*2B
$GNGGA,030122.00,3721.86701,N,12639.76296,E,2,12,0.56,9.3,M,17.9,M,,0000*4A
$GNGSA,A,3,02,13,41,193,15,05,29,30,21,195,194,24,1.00,0.56,0.83*26
$GNGSA,A,3,408,413,406,416,430,403,401,427,420,409,425,423,1.00,0.56,0.83*17
$GNGLL,3721.86701,N,12639.76296,E,030122.00,A,D*7C
$GNVTG,216.98,T,,M,36.758,N,68.076,K,D*22
$GNGGA,030123.00,3721.85888,N,12639.75522,E,2,12,0.52,9.3,M,17.9,M,,0000*49
$GNGSA,A,3,02,13,41,193,15,05,29,30,21,195,194,20,0.92,0.52,0.75*25
$GNGSA,A,3,408,413,406,416,430,403,401,427,420,409,425,423,0.92,0.52,0.75*10
$GNGLL,3721.85888,N,12639.75522,E,030123.00,A,D*7B
$GNVTG,215.35,T,,M,34.577,N,64.036,K,D*23
$GNGGA,030124.00,3721.85092,N,12639.74803,E,2,12,0.53,9.3,M,17.9,M,,0000*43
$GNGSA,A,3,02,13,41,193,15,05,29,30,21,195,194,20,0.92,0.53,0.75*24
$GNGSA,A,3,408,413,406,416,430,403,401,427,420,409,425,423,0.92,0.53,0.75*11
$GNGLL,3721.85092,N,12639.74803,E,030124.00,A,D*70
$GNZDA,030124.00,23,11,2019,00,00*77
$GNVTG,214.23,T,,M,30.868,N,57.168,K,D*28
$GNGGA,030125.00,3721.84355,N,12639.74172,E,2,12,0.53,9.3,M,17.9,M,,0000*44
$GNGSA,A,3,02,13,41,193,15,05,29,30,21,195,194,20,0.92,0.53,0.75*24
$GNGSA,A,3,408,413,406,416,430,403,401,427,420,409,425,423,0.92,0.53,0.75*11
$GNGLL,3721.84355,N,12639.74172,E,030125.00,A,D*77
$GNVTG,213.81,T,,M,27.609,N,51.131,K,D*22
$GNGGA,030126.00,3721.83695,N,12639.73613,E,2,12,0.53,9.2,M,17.9,M,,0000*4F
$GNGSA,A,3,02,13,41,193,15,05,29,30,21,195,194,20,0.92,0.53,0.75*24
$GNGSA,A,3,408,413,406,416,430,403,401,427,420,409,425,423,0.92,0.53,0.75*11
$GNVTG,215.42,T,,M,24.117,N,44.664,K,D*23
$GNGGA,030127.00,3721.83119,N,12639.73112,E,2,12,0.53,9.2,M,17.9,M,,0000*4B
$GNGSA,A,3,02,13,41,193,15,05,29,30,21,195,194,20,0.92,0.53,0.75*24
$GNGSA,A,3,408,413,406,416,430,403,401,427,420,409,425,423,0.92,0.53,0.75*11
$GNGLL,3721.83119,N,12639.73112,E,030127.00,A,D*79
$GNVTG,217.12,T,,M,21.358,N,39.555,K,D*23
$GNGGA,030128.00,3721.82624,N,12639.72652,E,2,12,0.55,9.0,M,17.9,M,,0000*4A
$GNGSA,A,3,13,41,193,15,05,29,30,21,195,194,20,24,0.94,0.55,0.76*23
$GNGSA,A,3,408,413,406,416,430,403,401,427,420,409,425,423,0.94,0.55,0.76*12
$GNVTG,218.06,T,,M,18.483,N,34.230,K,D*2B
$GNGGA,030129.00,3721.82199,N,12639.72241,E,2,12,0.53,9.0,M,17.9,M,,0000*4A
$GNGSA,A,3,02,13,41,193,15,05,29,30,21,195,194,20,0.92,0.53,0.75*24
$GNGSA,A,3,408,413,406,416,430,403,401,427,420,409,425,423,0.92,0.53,0.75*11
$GNGLL,3721.82199,N,12639.72241,E,030129.00,A,D*7A
$GNVTG,217.78,T,,M,14.584,N,27.010,K,D*25
$GNGGA,030130.00,3721.81852,N,12639.71904,E,2,12,0.53,9.0,M,17.9,M,,0000*46
$GNGSA,A,3,02,13,41,193,15,05,29,30,21,195,194,20,0.92,0.53,0.75*24
$GNGSA,A,3,408,413,406,416,430,403,401,427,420,409,425,423,0.92,0.53,0.75*11
$GNVTG,212.80,T,,M,10.084,N,18.675,K,D*2F
$GNGGA,030131.00,3721.81591,N,12639.71682,E,2,12,0.55,8.9,M,17.9,M,,0000*4A
$GNGSA,A,3,02,13,41,193,15,05,29,30,21,195,194,20,0.94,0.55,0.76*27
$GNGSA,A,3,408,413,406,416,430,403,401,427,420,409,425,423,0.94,0.55,0.76*12
$GNGLL,3721.81591,N,12639.71682,E,030131.00,A,D*74
$GNZDA,030131.00,23,11,2019,00,00*73
$GNVTG,192.32,T,,M,7.648,N,14.165,K,D*17
$GNGGA,030132.00,3721.81375,N,12639.71592,E,2,12,0.52,8.8,M,17.9,M,,0000*41
$GNGSA,A,3,02,13,41,193,15,05,29,30,21,195,194,20,0.92,0.52,0.75*25
$GNGSA,A,3,408,413,406,416,430,403,401,427,420,409,425,423,0.92,0.52,0.75*10
$GNVTG,157.08,T,,M,6.762,N,12.524,K,D*18
$GNGGA,030133.00,3721.81195,N,12639.71657,E,2,12,0.54,8.8,M,17.9,M,,0000*40
$GNGSA,A,3,02,13,41,193,15,05,29,30,195,194,20,24,0.93,0.54,0.76*24
$GNGSA,A,3,408,413,406,416,430,403,401,427,420,409,425,423,0.93,0.54,0.76*14
$GNGLL,3721.81195,N,12639.71657,E,030133.00,A,D*7E
$GNVTG,116.95,T,,M,6.174,N,11.435,K,D*1A
$GNGGA,030134.00,3721.81111,N,12639.71841,E,2,12,0.53,8.9,M,17.9,M,,0000*44
$GNGSA,A,3,02,13,41,193,15,05,29,30,21,195,194,20,0.93,0.53,0.76*26
$GNGSA,A,3,408,413,406,416,430,403,427,420,409,425,423,404,0.93,0.53,0.76*16
$GNGLL,3721.81111,N,12639.71841,E,030134.00,A,D*7C
$GNVTG,72.26,T,,M,7.978,N,14.775,K,D*26
$GNGGA,030135.00,3721.81163,N,12639.72083,E,2,12,0.53,8.8,M,17.9,M,,0000*44
$GNGSA,A,3,02,13,41,193,15,05,29,30,21,195,194,20,0.95,0.53,0.79*2F
$GNGSA,A,3,408,406,416,430,403,427,420,409,425,423,404,402,0.95,0.53,0.79*1F
$GNGLL,3721.81163,N,12639.72083,E,030135.00,A,D*7D
$GNZDA,030135.00,23,11,2019,00,00*77
