$GNVTG,,T,,M,0.030,N,0.055,K,D*3B
$GNGGA,025023.00,3722.86419,N,12640.71333,E,2,12,0.56,12.7,M,17.9,M,,0000*7E
$GNGSA,A,3,02,13,41,193,15,05,29,30,21,195,194,24,1.05,0.56,0.88*28
$GNGSA,A,3,413,406,416,430,403,401,427,420,409,425,423,404,1.05,0.56,0.88*15
$GNVTG,,T,,M,0.012,N,0.023,K,D*3A
$GNGGA,025024.00,3722.86417,N,12640.71334,E,2,12,0.56,12.7,M,17.9,M,,0000*70
$GNGSA,A,3,02,13,41,193,15,05,29,30,21,195,194,24,1.05,0.56,0.88*28
$GNGSA,A,3,413,406,416,430,403,401,427,420,409,425,423,404,1.05,0.56,0.88*15
$GNVTG,,T,,M,0.055,N,0.102,K,D*3B
$GNGGA,025025.00,3722.86413,N,12640.71330,E,2,12,0.56,12.7,M,17.9,M,,0000*71
$GNGSA,A,3,02,13,41,193,15,05,29,30,21,195,194,24,1.05,0.56,0.88*28
$GNGSA,A,3,413,406,416,430,403,401,427,420,409,425,423,404,1.05,0.56,0.88*15
$GNVTG,,T,,M,0.073,N,0.135,K,D*3B
$GNGGA,025026.00,3722.86411,N,12640.71326,E,2,12,0.56,12.6,M,17.9,M,,0000*76
$GNGSA,A,3,02,13,41,193,15,05,29,30,21,195,194,24,1.05,0.56,0.88*28
$GNGSA,A,3,413,406,416,430,403,401,427,420,409,425,423,404,1.05,0.56,0.88*15
$GNGGA,025027.00,3722.86407,N,12640.71323,E,2,12,0.56,12.6,M,17.9,M,,0000*75
$GNGSA,A,3,02,13,41,193,15,05,29,30,21,195,194,24,1.05,0.56,0.88*28
$GNGSA,A,3,413,406,416,430,403,401,427,420,409,425,423,404,1.05,0.56,0.88*15
$GNVTG,,T,,M,0.014,N,0.025,K,D*3A
$GNGGA,025028.00,3722.86404,N,12640.71321,E,2,12,0.56,12.5,M,17.9,M,,0000*78
$GNGSA,A,3,02,13,41,193,15,05,29,30,21,195,194,24,1.05,0.56,0.88*28
$GNGSA,A,3,413,406,416,430,403,401,427,420,409,425,423,404,1.05,0.56,0.88*15
$GNVTG,,T,,M,0.038,N,0.071,K,D*35
$GNGGA,025029.00,3722.86402,N,12640.71319,E,2,12,0.56,12.5,M,17.9,M,,0000*74
$GNGSA,A,3,02,13,41,193,15,05,29,30,21,195,194,24,1.05,0.56,0.88*28
$GNGSA,A,3,413,406,416,430,403,401,427,420,409,425,423,404,1.05,0.56,0.88*15
$GNVTG,,T,,M,0.004,N,0.007,K,D*3B
$GNGGA,025030.00,3722.86398,N,12640.71318,E,2,12,0.56,12.5,M,17.9,M,,0000*79
$GNGSA,A,3,02,13,41,193,15,05,29,30,21,195,194,24,1.05,0.56,0.88*28
$GNGSA,A,3,413,406,416,430,403,401,427,420,409,425,423,404,1.05,0.56,0.88*15
$GNVTG,,T,,M,0.044,N,0.082,K,D*32
$GNGGA,025031.00,3722.86393,N,12640.71316,E,2,12,0.56,12.6,M,17.9,M,,0000*7E
$GNGSA,A,3,02,13,41,193,15,05,29,30,21,195,194,24,1.05,0.56,0.88*28
$GNGSA,A,3,413,406,416,430,403,401,427,420,409,425,423,404,1.05,0.56,0.88*15
$GNVTG,,T,,M,0.004,N,0.007,K,D*3B
$GNGGA,025032.00,3722.86387,N,12640.71314,E,2,12,0.56,12.6,M,17.9,M,,0000*7A
$GNGSA,A,3,02,13,41,193,15,05,29,30,21,195,194,24,1.05,0.56,0.88*28
$GNGSA,A,3,413,406,416,430,403,401,427,420,409,425,423,404,1.05,0.56,0.88*15
$GNGGA,025033.00,3722.86383,N,12640.71311,E,2,12,0.56,12.6,M,17.9,M,,0000*7A
$GNGSA,A,3,02,13,41,193,15,05,29,30,21,195,194,24,1.05,0.56,0.88*28
$GNGSA,A,3,413,406,416,430,403,401,427,420,409,425,423,404,1.05,0.56,0.88*15
$GNVTG,,T,,M,0.029,N,0.053,K,D*35
$GNGGA,025034.00,3722.86380,N,12640.71309,E,2,12,0.56,12.5,M,17.9,M,,0000*74
$GNGSA,A,3,02,13,41,193,15,05,29,30,21,195,194,24,1.05,0.56,0.88*28
$GNGSA,A,3,413,406,416,430,403,401,427,420,409,425,423,404,1.05,0.56,0.88*15
$GNVTG,,T,,M,0.059,N,0.109,K,D*3C
$GNGGA,025035.00,3722.86378,N,12640.71306,E,2,12,0.56,12.5,M,17.9,M,,0000*7D
$GNGSA,A,3,02,13,41,193,15,05,29,30,21,195,194,24,1.05,0.56,0.88*28
$GNGSA,A,3,413,406,416,430,403,401,427,420,409,425,423,404,1.05,0.56,0.88*15
$GNVTG,,T,,M,0.017,N,0.031,K,D*3C
$GNGGA,025036.00,3722.86376,N,12640.71303,E,2,12,0.56,12.5,M,17.9,M,,0000*75
$GNGSA,A,3,02,13,41,193,15,05,29,30,21,195,194,24,1.05,0.56,0.88*28
$GNGSA,A,3,413,406,416,430,403,401,427,420,409,425,423,404,1.05,0.56,0.88*15
$GNGLL,3722.86376,N,12640.71303,E,025036.00,A,D*7F
$GNVTG,,T,,M,0.019,N,0.035,K,D*36
$GNGGA,025037.00,3722.86375,N,12640.71302,E,2,12,0.56,12.5,M,17.9,M,,0000*76
$GNGSA,A,3,02,13,41,193,15,05,29,30,21,195,194,24,1.05,0.56,0.88*28
$GNGSA,A,3,413,406,416,430,403,401,427,420,409,425,423,404,1.05,0.56,0.88*15
$GNVTG,,T,,M,0.024,N,0.045,K,D*3F
$GNGGA,025038.00,3722.86373,N,12640.71301,E,2,12,0.56,12.6,M,17.9,M,,0000*7F
$GNGSA,A,3,02,13,41,193,15,05,29,30,21,195,194,24,1.05,0.56,0.88*28
$GNGSA,A,3,413,406,416,430,403,401,427,420,409,425,423,404,1.05,0.56,0.88*15
$GNVTG,,T,,M,0.031,N,0.058,K,D*37
$GNGGA,025039.00,3722.86371,N,12640.71299,E,2,12,0.56,12.6,M,17.9,M,,0000*7C
$GNGSA,A,3,02,13,41,15,05,29,30,21,195,194,24,,1.09,0.56,0.93*15
$GNGSA,A,3,413,406,416,430,403,401,427,420,409,425,423,404,1.09,0.56,0.93*13
$GNGLL,3722.86371,N,12640.71299,E,025039.00,A,D*75
$GNVTG,,T,,M,0.033,N,0.062,K,D*3C
$GNGGA,025040.00,3722.86369,N,12640.71298,E,2,12,0.56,12.7,M,17.9,M,,0000*7B
$GNGSA,A,3,02,13,41,15,05,29,30,21,195,194,24,,1.09,0.56,0.93*15
$GNGSA,A,3,413,406,416,430,403,401,427,420,409,425,423,404,1.09,0.56,0.93*13
$GNGLL,3722.86369,N,12640.71298,E,025040.00,A,D*73
$GNVTG,,T,,M,0.027,N,0.051,K,D*39
$GNGGA,025041.00,3722.86367,N,12640.71297,E,2,12,0.56,12.7,M,17.9,M,,0000*7B
$GNGSA,A,3,02,13,41,15,05,29,30,21,195,194,24,,1.09,0.56,0.93*15
$GNGSA,A,3,413,406,416,430,403,401,427,420,409,425,423,404,1.09,0.56,0.93*13
$GNVTG,,T,,M,0.021,N,0.039,K,D*31
$GNGGA,025042.00,3722.86365,N,12640.71297,E,2,12,0.56,12.7,M,17.9,M,,0000*7A
$GNGSA,A,3,02,13,41,193,15,05,29,30,21,195,194,24,1.05,0.56,0.88*28
$GNGSA,A,3,413,406,416,430,403,401,427,420,409,425,423,404,1.05,0.56,0.88*15
$GNGLL,3722.86365,N,12640.71297,E,025042.00,A,D*72
$GNVTG,219.13,T,,M,1.115,N,2.065,K,D*2B
$GNGGA,025043.00,3722.86349,N,12640.71275,E,2,12,0.56,12.8,M,17.9,M,,0000*76
$GNGSA,A,3,02,13,41,193,15,05,29,30,21,195,194,24,1.05,0.56,0.88*28
$GNGSA,A,3,413,406,416,430,403,401,427,420,409,425,423,404,1.05,0.56,0.88*15
$GNGLL,3722.86349,N,12640.71275,E,025043.00,A,D*71
$GNVTG,214.77,T,,M,5.984,N,11.083,K,D*1A
$GNGGA,025044.00,3722.86248,N,12640.71180,E,2,12,0.56,12.7,M,17.9,M,,0000*77
$GNGSA,A,3,02,13,41,193,15,05,29,30,21,195,194,24,1.05,0.56,0.88*28
$GNGSA,A,3,413,406,416,430,403,401,427,420,409,425,423,404,1.05,0.56,0.88*15
$GNGLL,3722.86248,N,12640.71180,E,025044.00,A,D*7F
$GNVTG,208.32,T,,M,9.809,N,18.166,K,D*1D
$GNGGA,025045.00,3722.86036,N,12640.71030,E,2,12,0.56,12.7,M,17.9,M,,0000*77
$GNGSA,A,3,02,13,41,193,15,05,29,30,21,195,194,24,1.05,0.56,0.88*28
$GNGSA,A,3,413,406,416,430,403,401,427,420,409,425,423,404,1.05,0.56,0.88*15
$GNVTG,209.01,T,,M,13.190,N,24.427,K,D*21
$GNGGA,025046.00,3722.85735,N,12640.70818,E,2,12,0.56,12.8,M,17.9,M,,0000*7F
$GNGSA,A,3,02,13,41,193,15,05,29,30,21,195,194,24,1.05,0.56,0.88*28
$GNGSA,A,3,413,406,416,430,403,401,427,420,409,425,423,404,1.05,0.56,0.88*15
$GNGLL,3722.85735,N,12640.70818,E,025046.00,A,D*78
$GNVTG,210.37,T,,M,16.311,N,30.207,K,D*23
$GNGGA,025047.00,3722.85365,N,12640.70550,E,2,12,0.56,12.9,M,17.9,M,,0000*7F
$GNGSA,A,3,02,13,41,193,15,05,29,30,21,195,194,24,1.05,0.56,0.88*28
$GNGSA,A,3,413,406,416,430,403,401,427,420,409,425,423,404,1.05,0.56,0.88*15
$GNVTG,211.71,T,,M,19.309,N,35.760,K,D*27
$GNGGA,025048.00,3722.84927,N,12640.70215,E,2,12,0.56,12.9,M,17.9,M,,0000*7B
$GNGSA,A,3,02,13,41,193,15,05,29,30,21,195,194,24,1.05,0.56,0.88*28
$GNGSA,A,3,413,406,416,430,403,401,427,420,409,425,423,404,1.05,0.56,0.88*15
$GNGLL,3722.84927,N,12640.70215,E,025048.00,A,D*7D
$GNVTG,212.96,T,,M,22.223,N,41.157,K,D*2D
$GNGGA,025049.00,3722.84425,N,12640.69814,E,2,12,0.59,12.9,M,17.9,M,,0000*79
$GNGSA,A,3,13,41,193,15,05,29,30,21,195,194,24,,1.08,0.59,0.90*21
$GNGSA,A,3,413,406,416,430,403,427,420,409,425,423,404,402,1.08,0.59,0.90*1D
$GNGLL,3722.84425,N,12640.69814,E,025049.00,A,D*70
$GNVTG,215.54,T,,M,24.751,N,45.839,K,D*27
$GNGGA,025050.00,3722.83879,N,12640.69338,E,2,12,0.59,12.9,M,17.9,M,,0000*76
$GNGSA,A,3,13,41,193,15,05,29,30,21,195,194,24,,1.07,0.59,0.89*26
$GNGSA,A,3,413,406,416,430,403,401,427,420,409,425,423,402,1.07,0.59,0.89*1F
$GNVTG,216.41,T,,M,25.837,N,47.850,K,D*23
$GNGGA,025051.00,3722.83308,N,12640.68813,E,2,12,0.59,12.9,M,17.9,M,,0000*79
$GNGSA,A,3,13,41,193,15,05,29,30,21,195,194,24,,1.07,0.59,0.89*26
$GNGSA,A,3,413,406,416,430,403,401,427,420,409,425,423,402,1.07,0.59,0.89*1F
$GNGLL,3722.83308,N,12640.68813,E,025051.00,A,D*70
$GNVTG,217.11,T,,M,26.182,N,48.489,K,D*24
$GNGGA,025052.00,3722.82728,N,12640.68267,E,2,12,0.58,12.9,M,17.9,M,,0000*75
$GNGSA,A,3,02,13,41,193,15,05,29,30,21,195,194,24,1.06,0.58,0.89*24
$GNGSA,A,3,413,406,416,430,403,401,427,420,409,425,423,402,1.06,0.58,0.89*1F
$GNVTG,217.62,T,,M,26.120,N,48.374,K,D*2D
$GNGGA,025053.00,3722.82148,N,12640.67713,E,2,12,0.58,13.0,M,17.9,M,,0000*75
$GNGSA,A,3,02,13,41,193,15,05,29,30,21,195,194,24,1.06,0.58,0.89*24
$GNGSA,A,3,413,406,416,430,403,401,427,420,409,425,423,402,1.06,0.58,0.89*1F
$GNVTG,217.35,T,,M,26.158,N,48.444,K,D*24
$GNGGA,025054.00,3722.81568,N,12640.67159,E,2,12,0.57,13.0,M,17.9,M,,0000*70
$GNGSA,A,3,02,13,41,193,15,05,29,30,21,195,194,24,1.02,0.57,0.84*22
$GNGSA,A,3,408,413,406,416,430,403,401,427,420,409,425,423,1.02,0.57,0.84*13
$GNGLL,3722.81568,N,12640.67159,E,025054.00,A,D*7F
$GNZDA,025054.00,23,11,2019,00,00*75
$GNVTG,217.27,T,,M,26.202,N,48.526,K,D*2E
$GNGGA,025055.00,3722.80986,N,12640.66606,E,2,12,0.57,13.1,M,17.9,M,,0000*71
$GNGSA,A,3,02,13,41,193,15,05,29,30,21,195,194,24,1.02,0.57,0.84*22
$GNGSA,A,3,408,413,406,416,430,403,401,427,420,409,425,423,1.02,0.57,0.84*13
$GNGLL,3722.80986,N,12640.66606,E,025055.00,A,D*7F
$GNVTG,217.18,T,,M,26.184,N,48.494,K,D*27
$GNGGA,025056.00,3722.80403,N,12640.66053,E,2,12,0.57,13.1,M,17.9,M,,0000*74
$GNGSA,A,3,02,13,41,193,15,05,29,30,21,195,194,24,1.02,0.57,0.84*22
$GNGSA,A,3,408,413,406,416,430,403,401,427,420,409,425,423,1.02,0.57,0.84*13
$GNGLL,3722.80403,N,12640.66053,E,025056.00,A,D*7A
$GNZDA,025056.00,23,11,2019,00,00*77
$GNVTG,217.45,T,,M,26.193,N,48.509,K,D*2C
$GNGGA,025057.00,3722.79824,N,12640.65499,E,2,12,0.57,13.1,M,17.9,M,,0000*7B
$GNGSA,A,3,02,13,41,193,15,05,29,30,21,195,194,24,1.02,0.57,0.84*22
$GNGSA,A,3,408,413,406,416,430,403,401,427,420,409,425,423,1.02,0.57,0.84*13
$GNGLL,3722.79824,N,12640.65499,E,025057.00,A,D*75
$GNVTG,217.67,T,,M,26.131,N,48.395,K,D*27
$GNGGA,025058.00,3722.79247,N,12640.64944,E,2,12,0.57,13.1,M,17.9,M,,0000*77
$GNGSA,A,3,02,13,41,193,15,05,29,30,21,195,194,24,1.02,0.57,0.84*22
$GNGSA,A,3,408,413,406,416,430,403,401,427,420,409,425,423,1.02,0.57,0.84*13
$GNVTG,217.62,T,,M,26.079,N,48.299,K,D*22
$GNGGA,025059.00,3722.78670,N,12640.64390,E,2,12,0.57,13.1,M,17.9,M,,0000*74
$GNGSA,A,3,02,13,41,193,15,05,29,30,21,195,194,24,1.02,0.57,0.84*22
$GNGSA,A,3,408,413,406,416,430,403,401,427,420,409,425,423,1.02,0.57,0.84*13
$GNGLL,3722.78670,N,12640.64390,E,025059.00,A,D*7A
$GNVTG,217.49,T,,M,26.034,N,48.214,K,D*27
$GNGGA,025100.00,3722.78094,N,12640.63837,E,2,12,0.57,13.1,M,17.9,M,,0000*74
$GNGSA,A,3,02,13,41,193,15,05,29,30,21,195,194,24,1.02,0.57,0.84*22
$GNGSA,A,3,408,413,406,416,430,403,401,427,420,409,425,423,1.02,0.57,0.84*13
$GNVTG,217.55,T,,M,26.117,N,48.369,K,D*21
$GNGGA,025101.00,3722.77517,N,12640.63283,E,2,12,0.57,13.1,M,17.9,M,,0000*71
$GNGSA,A,3,02,13,41,193,15,05,29,30,21,195,194,24,1.02,0.57,0.84*22
$GNGSA,A,3,408,413,406,416,430,403,401,427,420,409,425,423,1.02,0.57,0.84*13
$GNVTG,217.47,T,,M,26.182,N,48.490,K,D*2F
$GNGGA,025102.00,3722.76937,N,12640.62728,E,2,12,0.57,13.2,M,17.9,M,,0000*7B
$GNGSA,A,3,02,13,41,193,15,05,29,30,21,195,194,24,1.02,0.57,0.84*22
$GNGSA,A,3,408,413,406,416,430,403,401,427,420,409,425,423,1.02,0.57,0.84*13
$GNVTG,217.36,T,,M,26.222,N,48.563,K,D*2D
$GNGGA,025103.00,3722.76356,N,12640.62174,E,2,12,0.57,13.2,M,17.9,M,,0000*78
$GNGSA,A,3,02,13,41,193,15,05,29,30,21,195,194,24,1.02,0.57,0.84*22
$GNGSA,A,3,408,413,406,416,430,403,401,427,420,409,425,423,1.02,0.57,0.84*13
$GNVTG,217.52,T,,M,26.231,N,48.580,K,D*20
$GNGGA,025104.00,3722.75775,N,12640.61619,E,2,12,0.57,13.3,M,17.9,M,,0000*77
$GNGSA,A,3,02,13,41,193,15,05,29,30,21,195,194,24,1.02,0.57,0.84*22
$GNGSA,A,3,408,413,406,416,430,403,401,427,420,409,425,423,1.02,0.57,0.84*13
$GNVTG,217.59,T,,M,26.242,N,48.599,K,D*27
$GNGGA,025105.00,3722.75196,N,12640.61062,E,2,12,0.57,13.4,M,17.9,M,,0000*70
$GNGSA,A,3,02,13,41,193,15,05,29,30,21,195,194,24,1.02,0.57,0.84*22
$GNGSA,A,3,408,413,406,416,430,403,401,427,420,409,425,423,1.02,0.57,0.84*13
$GNVTG,217.66,T,,M,26.217,N,48.554,K,D*2A
$GNGGA,025106.00,3722.74617,N,12640.60504,E,2,12,0.57,13.4,M,17.9,M,,0000*78
$GNGSA,A,3,02,13,41,193,15,05,29,30,21,195,194,24,1.02,0.57,0.84*22
$GNGSA,A,3,408,413,406,416,430,403,401,427,420,409,425,423,1.02,0.57,0.84*13
$GNGLL,3722.74617,N,12640.60504,E,025106.00,A,D*73
$GNVTG,217.61,T,,M,26.169,N,48.464,K,D*25
$GNGGA,025107.00,3722.74038,N,12640.59947,E,2,12,0.57,13.5,M,17.9,M,,0000*72
$GNGSA,A,3,02,13,41,193,15,05,29,30,21,195,194,24,1.02,0.57,0.84*22
$GNGSA,A,3,408,413,406,416,430,403,401,427,420,409,425,423,1.02,0.57,0.84*13
$GNVTG,217.80,T,,M,26.151,N,48.432,K,D*22
$GNGGA,025108.00,3722.73463,N,12640.59388,E,2,12,0.57,13.5,M,17.9,M,,0000*79
$GNGSA,A,3,02,13,41,193,15,05,29,30,21,195,194,24,1.02,0.57,0.84*22
$GNGSA,A,3,408,413,406,416,430,403,401,427,420,409,425,423,1.02,0.57,0.84*13
$GNVTG,218.11,T,,M,26.176,N,48.478,K,D*2E
$GNGGA,025109.00,3722.72888,N,12640.58826,E,2,12,0.57,13.6,M,17.9,M,,0000*7D
$GNGSA,A,3,02,13,41,193,15,05,29,30,21,195,194,24,1.02,0.57,0.84*22
$GNGSA,A,3,408,413,406,416,430,403,401,427,420,409,425,423,1.02,0.57,0.84*13
$GNVTG,217.96,T,,M,26.102,N,48.340,K,D*21
$GNGGA,025110.00,3722.72313,N,12640.58265,E,2,12,0.57,13.6,M,17.9,M,,0000*71
$GNGSA,A,3,02,13,41,193,15,05,29,30,21,195,194,24,1.02,0.57,0.84*22
$GNGSA,A,3,408,413,406,416,430,403,401,427,420,409,425,423,1.02,0.57,0.84*13
$GNGLL,3722.72313,N,12640.58265,E,025110.00,A,D*78
$GNVTG,217.86,T,,M,26.068,N,48.278,K,D*27
$GNGGA,025111.00,3722.71739,N,12640.57705,E,2,12,0.57,13.7,M,17.9,M,,0000*72
$GNGSA,A,3,02,13,41,193,15,05,29,30,21,195,194,24,1.02,0.57,0.84*22
$GNGSA,A,3,408,413,406,416,430,403,401,427,420,409,425,423,1.02,0.57,0.84*13
$GNVTG,217.57,T,,M,26.084,N,48.307,K,D*20
$GNGGA,025112.00,3722.71164,N,12640.57150,E,2,12,0.57,13.7,M,17.9,M,,0000*79
$GNGSA,A,3,02,13,41,193,15,05,29,30,21,195,194,24,1.02,0.57,0.84*22
$GNGSA,A,3,408,413,406,416,430,403,401,427,420,409,425,423,1.02,0.57,0.84*13
$GNVTG,217.44,T,,M,26.069,N,48.280,K,D*2F
$GNGGA,025113.00,3722.70587,N,12640.56596,E,2,12,0.57,13.7,M,17.9,M,,0000*7F
$GNGSA,A,3,02,13,41,193,15,05,29,30,21,195,194,24,1.02,0.57,0.84*22
$GNGSA,A,3,408,413,406,416,430,403,401,427,420,409,425,423,1.02,0.57,0.84*13
$GNVTG,217.54,T,,M,26.149,N,48.427,K,D*26
$GNGGA,025114.00,3722.70010,N,12640.56041,E,2,12,0.57,13.7,M,17.9,M,,0000*7C
$GNGSA,A,3,02,13,41,193,15,05,29,30,21,195,194,24,1.02,0.57,0.84*22
$GNGSA,A,3,408,413,406,416,430,403,401,427,420,409,425,423,1.02,0.57,0.84*13
$GNGLL,3722.70010,N,12640.56041,E,025114.00,A,D*74
$GNVTG,217.48,T,,M,26.188,N,48.501,K,D*23
$GNGGA,025115.00,3722.69431,N,12640.55485,E,2,12,0.57,13.8,M,17.9,M,,0000*72
$GNGSA,A,3,02,13,41,193,15,05,29,30,21,195,194,24,1.02,0.57,0.84*22
$GNGSA,A,3,408,413,406,416,430,403,401,427,420,409,425,423,1.02,0.57,0.84*13
$GNVTG,217.34,T,,M,26.266,N,48.644,K,D*29
$GNGGA,025116.00,3722.68850,N,12640.54929,E,2,12,0.57,13.8,M,17.9,M,,0000*71
$GNGSA,A,3,02,13,41,193,15,05,29,30,21,195,194,24,1.02,0.57,0.84*22
$GNGSA,A,3,408,413,406,416,430,403,401,427,420,409,425,423,1.02,0.57,0.84*13
$GNVTG,217.63,T,,M,26.235,N,48.588,K,D*2E
$GNGGA,025117.00,3722.68271,N,12640.54372,E,2,12,0.57,13.8,M,17.9,M,,0000*7D
$GNGSA,A,3,02,13,41,193,15,05,29,30,21,195,194,24,1.02,0.57,0.84*22
$GNGSA,A,3,408,413,406,416,430,403,401,427,420,409,425,423,1.02,0.57,0.84*13
$GNVTG,217.81,T,,M,26.248,N,48.612,K,D*28
$GNGGA,025118.00,3722.67691,N,12640.53810,E,2,12,0.57,13.9,M,17.9,M,,0000*7E
$GNGSA,A,3,02,13,41,193,15,05,29,30,21,195,194,24,1.02,0.57,0.84*22
$GNGSA,A,3,408,413,406,416,430,403,401,427,420,409,425,423,1.02,0.57,0.84*13
$GNVTG,215.30,T,,M,26.140,N,48.412,K,D*29
$GNGGA,025119.00,3722.67102,N,12640.53273,E,2,12,0.58,13.9,M,17.9,M,,0000*72
$GNGSA,A,3,02,13,41,193,15,05,29,30,21,195,194,24,1.03,0.58,0.85*2D
$GNGSA,A,3,408,413,406,416,430,401,427,420,409,425,423,402,1.03,0.58,0.85*1D
$GNVTG,214.09,T,,M,26.084,N,48.307,K,D*28
$GNGGA,025120.00,3722.66502,N,12640.52758,E,2,12,0.58,14.0,M,17.9,M,,0000*7E
$GNGSA,A,3,02,13,41,193,15,05,29,30,21,195,194,24,1.03,0.58,0.85*2D
$GNGSA,A,3,408,413,406,416,430,401,427,420,409,425,423,402,1.03,0.58,0.85*1D
$GNGLL,3722.66502,N,12640.52758,E,025120.00,A,D*79
$GNVTG,214.71,T,,M,26.055,N,48.253,K,D*2B
$GNGGA,025121.00,3722.65906,N,12640.52244,E,2,12,0.58,13.9,M,17.9,M,,0000*72
$GNGSA,A,3,13,41,193,15,05,29,30,21,195,194,24,,1.03,0.58,0.85*2F
$GNGSA,A,3,408,413,406,416,430,403,401,427,420,409,425,423,1.03,0.58,0.85*1C
$GNVTG,215.57,T,,M,26.169,N,48.465,K,D*23
$GNGGA,025122.00,3722.65314,N,12640.51719,E,2,12,0.58,13.9,M,17.9,M,,0000*76
$GNGSA,A,3,13,41,193,15,05,29,30,21,195,194,24,,1.03,0.58,0.85*2F
$GNGSA,A,3,408,413,406,416,430,403,401,427,420,409,425,423,1.03,0.58,0.85*1C
$GNGLL,3722.65314,N,12640.51719,E,025122.00,A,D*7F
$GNVTG,216.65,T,,M,26.225,N,48.569,K,D*27
$GNGGA,025123.00,3722.64727,N,12640.51178,E,2,12,0.58,13.9,M,17.9,M,,0000*73
$GNGSA,A,3,13,41,193,15,05,29,30,21,195,194,24,,1.03,0.58,0.85*2F
$GNGSA,A,3,408,413,406,416,430,403,401,427,420,409,425,423,1.03,0.58,0.85*1C
$GNVTG,216.84,T,,M,26.168,N,48.463,K,D*29
$GNGGA,025124.00,3722.64142,N,12640.50631,E,2,12,0.58,14.0,M,17.9,M,,0000*74
$GNGSA,A,3,02,13,41,193,15,05,29,30,21,195,194,24,1.03,0.58,0.85*2D
$GNGSA,A,3,408,413,406,416,430,403,401,427,420,409,425,423,1.03,0.58,0.85*1C
$GNGLL,3722.64142,N,12640.50631,E,025124.00,A,D*73
$GNVTG,217.15,T,,M,26.128,N,48.390,K,D*2F
$GNGGA,025125.00,3722.63561,N,12640.50082,E,2,12,0.57,14.0,M,17.9,M,,0000*76
$GNGSA,A,3,02,13,41,193,15,05,29,30,21,195,194,24,1.02,0.57,0.84*22
$GNGSA,A,3,408,413,406,416,430,403,401,427,420,409,425,423,1.02,0.57,0.84*13
$GNVTG,217.24,T,,M,26.150,N,48.430,K,D*2F
$GNGGA,025126.00,3722.62981,N,12640.49530,E,2,12,0.57,14.1,M,17.9,M,,0000*73
$GNGSA,A,3,02,13,41,193,15,05,29,30,21,195,194,24,1.02,0.57,0.84*22
$GNGSA,A,3,408,413,406,416,430,403,401,427,420,409,425,423,1.02,0.57,0.84*13
$GNVTG,217.30,T,,M,26.135,N,48.403,K,D*29
$GNGGA,025127.00,3722.62401,N,12640.48978,E,2,12,0.57,14.1,M,17.9,M,,0000*76
$GNGSA,A,3,02,13,41,193,15,05,29,30,21,195,194,24,1.02,0.57,0.84*22
$GNGSA,A,3,408,413,406,416,430,403,401,427,420,409,425,423,1.02,0.57,0.84*13
$GNGLL,3722.62401,N,12640.48978,E,025127.00,A,D*7F
$GNVTG,217.48,T,,M,26.217,N,48.555,K,D*27
$GNGGA,025128.00,3722.61822,N,12640.48423,E,2,12,0.57,14.2,M,17.9,M,,0000*77
$GNGSA,A,3,02,13,41,193,15,05,29,30,21,195,194,24,1.02,0.57,0.84*22
$GNGSA,A,3,408,413,406,416,430,403,401,427,420,409,425,423,1.02,0.57,0.84*13
$GNVTG,217.78,T,,M,26.188,N,48.500,K,D*21
$GNGGA,025129.00,3722.61245,N,12640.47865,E,2,12,0.57,14.2,M,17.9,M,,0000*7C
$GNGSA,A,3,02,13,41,193,15,05,29,30,21,195,194,24,1.02,0.57,0.84*22
$GNGSA,A,3,408,413,406,416,430,403,401,427,420,409,425,423,1.02,0.57,0.84*13
$GNGLL,3722.61245,N,12640.47865,E,025129.00,A,D*76
$GNRMC,025130.00,A,3722.60669,N,12640.47307,E,26.115,217.68,231119,,,D*4F
$GNVTG,217.68,T,,M,26.115,N,48.364,K,D*20
$GNGGA,025130.00,3722.60669,N,12640.47307,E,2,12,0.56,14.3,M,17.9,M,,0000*70
$GNGSA,A,3,02,13,41,193,15,05,29,30,21,195,194,24,1.01,0.56,0.84*20
$GNGSA,A,3,408,413,406,416,430,403,401,427,420,409,425,423,1.01,0.56,0.84*11
$GNVTG,217.80,T,,M,26.196,N,48.514,K,D*2C
$GNGGA,025131.00,3722.60093,N,12640.46747,E,2,12,0.56,14.3,M,17.9,M,,0000*73
$GNGSA,A,3,02,13,41,193,15,05,29,30,21,195,194,24,1.01,0.56,0.84*20
$GNGSA,A,3,408,413,406,416,430,403,401,427,420,409,425,423,1.01,0.56,0.84*11
$GNVTG,217.54,T,,M,26.139,N,48.409,K,D*2D
$GNGGA,025132.00,3722.59516,N,12640.46190,E,2,12,0.56,14.3,M,17.9,M,,0000*7E
$GNGSA,A,3,02,13,41,193,15,05,29,30,21,195,194,24,1.01,0.56,0.84*20
$GNGSA,A,3,408,413,406,416,430,403,401,427,420,409,425,423,1.01,0.56,0.84*11
$GNVTG,217.44,T,,M,26.113,N,48.362,K,D*2E
$GNGGA,025133.00,3722.58940,N,12640.45635,E,2,12,0.56,14.3,M,17.9,M,,0000*7A
$GNGSA,A,3,02,13,41,193,15,05,29,30,21,195,194,24,1.01,0.56,0.84*20
$GNGSA,A,3,408,413,406,416,430,403,401,427,420,409,425,423,1.01,0.56,0.84*11
$GNVTG,217.75,T,,M,26.125,N,48.384,K,D*21
$GNGGA,025134.00,3722.58364,N,12640.45079,E,2,12,0.57,14.4,M,17.9,M,,0000*79
$GNGSA,A,3,02,13,41,193,15,05,29,30,21,195,194,24,1.02,0.57,0.84*22
$GNGSA,A,3,408,413,406,416,430,403,401,427,420,409,425,423,1.02,0.57,0.84*13
$GNVTG,217.92,T,,M,26.067,N,48.276,K,D*23
$GNGGA,025135.00,3722.57791,N,12640.44520,E,2,12,0.57,14.4,M,17.9,M,,0000*71
$GNGSA,A,3,02,13,41,193,15,05,29,30,21,195,194,24,1.02,0.57,0.84*22
$GNGSA,A,3,408,413,406,416,430,403,401,427,420,409,425,423,1.02,0.57,0.84*13
$GNGLL,3722.57791,N,12640.44520,E,025135.00,A,D*7D
$GNVTG,218.06,T,,M,26.186,N,48.496,K,D*27
$GNGGA,025136.00,3722.57218,N,12640.43959,E,2,12,0.57,14.4,M,17.9,M,,0000*73
$GNGSA,A,3,02,13,41,193,15,05,29,30,21,195,194,24,1.02,0.57,0.84*22
$GNGSA,A,3,408,413,406,416,430,403,401,427,420,409,425,423,1.02,0.57,0.84*13
$GNVTG,217.27,T,,M,26.179,N,48.484,K,D*28
$GNGGA,025137.00,3722.56641,N,12640.43404,E,2,12,0.56,14.4,M,17.9,M,,0000*7F
$GNGSA,A,3,02,13,41,193,15,05,29,30,21,195,194,24,1.01,0.56,0.84*20
$GNGSA,A,3,408,413,406,416,430,403,401,427,420,409,425,423,1.01,0.56,0.84*11
$GNGLL,3722.56641,N,12640.43404,E,025137.00,A,D*72
$GNVTG,217.69,T,,M,26.225,N,48.569,K,D*2A
$GNGGA,025138.00,3722.56063,N,12640.42846,E,2,12,0.56,14.5,M,17.9,M,,0000*7C
$GNGSA,A,3,02,13,41,193,15,05,29,30,21,195,194,24,1.01,0.56,0.84*20
$GNGSA,A,3,408,413,406,416,430,403,401,427,420,409,425,423,1.01,0.56,0.84*11
$GNVTG,217.74,T,,M,26.328,N,48.760,K,D*21
$GNGGA,025139.00,3722.55484,N,12640.42284,E,2,12,0.56,14.5,M,17.9,M,,0000*77
$GNGSA,A,3,02,13,41,193,15,05,29,30,21,195,194,24,1.01,0.56,0.84*20
$GNGSA,A,3,408,413,406,416,430,403,401,427,420,409,425,423,1.01,0.56,0.84*11
$GNGLL,3722.55484,N,12640.42284,E,025139.00,A,D*7B
$GNVTG,217.72,T,,M,26.208,N,48.536,K,D*25
$GNGGA,025140.00,3722.54906,N,12640.41723,E,2,12,0.56,14.5,M,17.9,M,,0000*74
$GNGSA,A,3,02,13,41,193,15,05,29,30,21,195,194,24,1.01,0.56,0.84*20
$GNGSA,A,3,408,413,406,416,430,403,401,427,420,409,425,423,1.01,0.56,0.84*11
$GNVTG,217.80,T,,M,26.227,N,48.572,K,D*25
$GNGGA,025141.00,3722.54330,N,12640.41163,E,2,12,0.56,14.5,M,17.9,M,,0000*78
$GNGSA,A,3,02,13,41,193,15,05,29,30,21,195,194,24,1.01,0.56,0.84*20
$GNGSA,A,3,408,413,406,416,430,403,401,427,420,409,425,423,1.01,0.56,0.84*11
$GNVTG,217.86,T,,M,26.223,N,48.565,K,D*21
$GNGGA,025142.00,3722.53755,N,12640.40601,E,2,12,0.56,14.5,M,17.9,M,,0000*79
$GNGSA,A,3,02,13,41,193,15,05,29,30,21,195,194,24,1.01,0.56,0.84*20
$GNGSA,A,3,408,413,406,416,430,403,401,427,420,409,425,423,1.01,0.56,0.84*11
$GNGLL,3722.53755,N,12640.40601,E,025142.00,A,D*75
$GNVTG,217.67,T,,M,26.183,N,48.491,K,D*2D
$GNGGA,025143.00,3722.53180,N,12640.40042,E,2,12,0.56,14.5,M,17.9,M,,0000*77
$GNGSA,A,3,02,13,41,193,15,05,29,30,21,195,194,24,1.01,0.56,0.84*20
$GNGSA,A,3,408,413,406,416,430,403,401,427,420,409,425,423,1.01,0.56,0.84*11
$GNVTG,217.40,T,,M,26.122,N,48.377,K,D*2C
$GNGGA,025144.00,3722.52603,N,12640.39486,E,2,12,0.56,14.5,M,17.9,M,,0000*7F
$GNGSA,A,3,02,13,41,193,15,05,29,30,21,195,194,24,1.01,0.56,0.84*20
$GNGSA,A,3,408,413,406,416,430,403,401,427,420,409,425,423,1.01,0.56,0.84*11
$GNGLL,3722.52603,N,12640.39486,E,025144.00,A,D*73
$GNVTG,217.24,T,,M,26.088,N,48.314,K,D*2A
$GNGGA,025145.00,3722.52025,N,12640.38933,E,2,12,0.56,14.5,M,17.9,M,,0000*7E
$GNGSA,A,3,02,13,41,193,15,05,29,30,21,195,194,24,1.01,0.56,0.84*20
$GNGSA,A,3,408,413,406,416,430,403,401,427,420,409,425,423,1.01,0.56,0.84*11
$GNVTG,217.33,T,,M,26.097,N,48.331,K,D*25
$GNGGA,025146.00,3722.51448,N,12640.38380,E,2,12,0.56,14.4,M,17.9,M,,0000*72
$GNGSA,A,3,02,13,41,15,05,29,30,21,195,194,24,,1.04,0.56,0.88*12
$GNGSA,A,3,408,413,406,416,430,403,401,427,420,409,425,423,1.04,0.56,0.88*18
$GNVTG,217.72,T,,M,26.167,N,48.461,K,D*2C
$GNGGA,025147.00,3722.50871,N,12640.37823,E,2,12,0.56,14.4,M,17.9,M,,0000*79
$GNGSA,A,3,02,13,41,15,05,29,30,21,195,194,24,,1.04,0.56,0.88*12
$GNGSA,A,3,408,413,406,416,430,403,401,427,420,409,425,423,1.04,0.56,0.88*18
$GNGLL,3722.50871,N,12640.37823,E,025147.00,A,D*74
$GNVTG,217.96,T,,M,26.117,N,48.369,K,D*2E
$GNGGA,025148.00,3722.50297,N,12640.37263,E,2,12,0.57,14.4,M,17.9,M,,0000*7B
$GNGSA,A,3,02,13,41,15,05,29,30,21,195,194,24,,1.05,0.57,0.88*12
$GNGSA,A,3,408,413,406,416,430,403,401,427,420,409,425,423,1.05,0.57,0.88*18
$GNVTG,217.65,T,,M,26.216,N,48.552,K,D*2E
$GNGGA,025149.00,3722.49721,N,12640.36705,E,2,12,0.57,14.3,M,17.9,M,,0000*79
$GNGSA,A,3,02,13,41,15,05,29,30,21,195,194,24,,1.05,0.57,0.88*12
$GNGSA,A,3,408,413,406,416,430,403,401,427,420,409,425,423,1.05,0.57,0.88*18
$GNVTG,217.94,T,,M,26.220,N,48.559,K,D*2E
$GNGGA,025150.00,3722.49146,N,12640.36144,E,2,12,0.57,14.4,M,17.9,M,,0000*72
$GNGSA,A,3,02,13,41,193,15,05,29,30,21,195,194,24,1.02,0.57,0.84*22
$GNGSA,A,3,408,413,406,416,430,403,401,427,420,409,425,423,1.02,0.57,0.84*13
$GNGLL,3722.49146,N,12640.36144,E,025150.00,A,D*7E
$GNVTG,218.66,T,,M,26.282,N,48.673,K,D*2F
$GNGGA,025151.00,3722.48573,N,12640.35575,E,2,12,0.56,14.4,M,17.9,M,,0000*74
$GNGSA,A,3,02,13,41,193,15,05,29,30,21,195,194,24,1.01,0.56,0.84*20
$GNGSA,A,3,408,413,406,416,430,403,401,427,420,409,425,423,1.01,0.56,0.84*11
$GNGLL,3722.48573,N,12640.35575,E,025151.00,A,D*79
$GNVTG,217.82,T,,M,26.267,N,48.646,K,D*27
$GNGGA,025152.00,3722.47999,N,12640.35011,E,2,12,0.56,14.4,M,17.9,M,,0000*77
$GNGSA,A,3,02,13,41,193,15,05,29,30,21,195,194,24,1.01,0.56,0.84*20
$GNGSA,A,3,408,413,406,416,430,403,401,427,420,409,425,423,1.01,0.56,0.84*11
$GNVTG,217.86,T,,M,26.225,N,48.569,K,D*2B
$GNGGA,025153.00,3722.47423,N,12640.34449,E,2,12,0.56,14.4,M,17.9,M,,0000*72
$GNGSA,A,3,02,13,41,193,15,05,29,30,21,195,194,24,1.01,0.56,0.84*20
$GNGSA,A,3,408,413,406,416,430,403,401,427,420,409,425,423,1.01,0.56,0.84*11
$GNVTG,217.72,T,,M,26.136,N,48.403,K,D*2C
$GNGGA,025154.00,3722.46847,N,12640.33890,E,2,12,0.57,14.4,M,17.9,M,,0000*74
$GNGSA,A,3,02,13,41,15,05,29,30,21,195,194,24,,1.05,0.57,0.88*12
$GNGSA,A,3,408,413,406,416,430,403,401,427,420,409,425,423,1.05,0.57,0.88*18
$GNGLL,3722.46847,N,12640.33890,E,025154.00,A,D*78
$GNVTG,217.64,T,,M,26.206,N,48.533,K,D*29
$GNGGA,025155.00,3722.46271,N,12640.33332,E,2,12,0.57,14.4,M,17.9,M,,0000*79
$GNGSA,A,3,02,13,41,15,05,29,30,21,195,194,24,,1.05,0.57,0.88*12
$GNGSA,A,3,408,413,406,416,430,403,401,427,420,409,425,423,1.05,0.57,0.88*18
$GNVTG,217.50,T,,M,26.202,N,48.526,K,D*2E
$GNGGA,025156.00,3722.45694,N,12640.32775,E,2,12,0.57,14.3,M,17.9,M,,0000*77
$GNGSA,A,3,02,13,41,15,05,29,30,21,195,194,24,,1.05,0.57,0.88*12
$GNGSA,A,3,408,413,406,416,430,403,401,427,420,409,425,423,1.05,0.57,0.88*18
$GNGLL,3722.45694,N,12640.32775,E,025156.00,A,D*7C
$GNVTG,217.42,T,,M,26.200,N,48.523,K,D*2A
$GNGGA,025157.00,3722.45116,N,12640.32220,E,2,12,0.57,14.4,M,17.9,M,,0000*79
$GNGSA,A,3,02,13,41,193,15,05,29,30,21,195,194,24,1.02,0.57,0.84*22
$GNGSA,A,3,408,413,406,416,430,403,401,427,420,409,425,423,1.02,0.57,0.84*13
$GNVTG,217.62,T,,M,26.156,N,48.441,K,D*2D
$GNGGA,025158.00,3722.44539,N,12640.31665,E,2,12,0.57,14.4,M,17.9,M,,0000*78
$GNGSA,A,3,02,13,41,193,15,05,29,30,21,195,194,24,1.02,0.57,0.84*22
$GNGSA,A,3,408,413,406,416,430,403,401,427,420,409,425,423,1.02,0.57,0.84*13
$GNVTG,217.63,T,,M,26.083,N,48.305,K,D*22
$GNGGA,025159.00,3722.43965,N,12640.31110,E,2,12,0.57,14.4,M,17.9,M,,0000*7E
$GNGSA,A,3,02,13,41,193,15,05,29,30,21,195,194,24,1.02,0.57,0.84*22
$GNGSA,A,3,408,413,406,416,430,403,401,427,420,409,425,423,1.02,0.57,0.84*13
$GNVTG,217.66,T,,M,26.126,N,48.385,K,D*21
$GNGGA,025200.00,3722.43389,N,12640.30554,E,2,12,0.57,14.4,M,17.9,M,,0000*7C
$GNGSA,A,3,02,13,41,193,15,05,29,30,21,195,194,24,1.02,0.57,0.84*22
$GNGSA,A,3,408,413,406,416,430,403,401,427,420,409,425,423,1.02,0.57,0.84*13
$GNGLL,3722.43389,N,12640.30554,E,025200.00,A,D*70
$GNVTG,217.70,T,,M,26.201,N,48.525,K,D*2C
$GNGGA,025201.00,3722.42813,N,12640.29996,E,2,12,0.57,14.4,M,17.9,M,,0000*7E
$GNGSA,A,3,02,13,41,193,15,05,29,30,21,195,194,24,1.02,0.57,0.84*22
$GNGSA,A,3,408,413,406,416,430,403,401,427,420,409,425,423,1.02,0.57,0.84*13
$GNVTG,217.33,T,,M,26.243,N,48.603,K,D*2A
$GNGGA,025202.00,3722.42233,N,12640.29440,E,2,12,0.57,14.4,M,17.9,M,,0000*73
$GNGSA,A,3,02,13,41,193,15,05,29,30,21,195,194,24,1.02,0.57,0.84*22
$GNGSA,A,3,408,413,406,416,430,403,401,427,420,409,425,423,1.02,0.57,0.84*13
$GNVTG,217.40,T,,M,26.212,N,48.544,K,D*2A
$GNGGA,025203.00,3722.41654,N,12640.28885,E,2,12,0.57,14.4,M,17.9,M,,0000*70
$GNGSA,A,3,02,13,41,193,15,05,29,30,21,195,194,24,1.02,0.57,0.84*22
$GNGSA,A,3,408,413,406,416,430,403,401,427,420,409,425,423,1.02,0.57,0.84*13
$GNGLL,3722.41654,N,12640.28885,E,025203.00,A,D*7C
$GNVTG,217.50,T,,M,26.225,N,48.568,K,D*21
$GNGGA,025204.00,3722.41075,N,12640.28329,E,2,12,0.57,14.4,M,17.9,M,,0000*7F
$GNGSA,A,3,02,13,41,193,15,05,29,30,21,195,194,24,1.02,0.57,0.84*22
$GNGSA,A,3,408,413,406,416,430,403,401,427,420,409,425,423,1.02,0.57,0.84*13
$GNVTG,217.39,T,,M,26.174,N,48.474,K,D*25
$GNGGA,025205.00,3722.40496,N,12640.27774,E,2,12,0.57,14.4,M,17.9,M,,0000*75
$GNGSA,A,3,02,13,41,193,15,05,29,30,21,195,194,24,1.02,0.57,0.84*22
$GNGSA,A,3,408,413,406,416,430,403,401,427,420,409,425,423,1.02,0.57,0.84*13
$GNGLL,3722.40496,N,12640.27774,E,025205.00,A,D*79
$GNVTG,217.50,T,,M,26.182,N,48.489,K,D*21
$GNGGA,025206.00,3722.39918,N,12640.27219,E,2,12,0.57,14.4,M,17.9,M,,0000*7D
$GNGSA,A,3,02,13,41,193,15,05,29,30,21,195,194,24,1.02,0.57,0.84*22
$GNGSA,A,3,408,413,406,416,430,403,401,427,420,409,425,423,1.02,0.57,0.84*13
$GNVTG,217.86,T,,M,26.156,N,48.440,K,D*26
$GNGGA,025207.00,3722.39341,N,12640.26660,E,2,12,0.57,14.4,M,17.9,M,,0000*71
$GNGSA,A,3,02,13,41,193,15,05,29,30,21,195,194,24,1.02,0.57,0.84*22
$GNGSA,A,3,408,413,406,416,430,403,401,427,420,409,425,423,1.02,0.57,0.84*13
$GNVTG,218.11,T,,M,26.089,N,48.317,K,D*21
$GNGGA,025208.00,3722.38769,N,12640.26098,E,2,12,0.57,14.4,M,17.9,M,,0000*70
$GNGSA,A,3,02,13,41,193,15,05,29,30,21,195,194,24,1.02,0.57,0.84*22
$GNGSA,A,3,408,413,406,416,430,403,401,427,420,409,425,423,1.02,0.57,0.84*13
$GNGLL,3722.38769,N,12640.26098,E,025208.00,A,D*7C
$GNVTG,218.09,T,,M,26.121,N,48.376,K,D*2C
$GNGGA,025209.00,3722.38196,N,12640.25535,E,2,12,0.57,14.4,M,17.9,M,,0000*76
$GNGSA,A,3,02,13,41,193,15,05,29,30,21,195,194,24,1.02,0.57,0.84*22
$GNGSA,A,3,408,413,406,416,430,403,401,427,420,409,425,423,1.02,0.57,0.84*13
$GNVTG,218.12,T,,M,26.161,N,48.450,K,D*21
$GNGGA,025210.00,3722.37623,N,12640.24974,E,2,12,0.57,14.4,M,17.9,M,,0000*70
$GNGSA,A,3,02,13,41,193,15,05,29,30,21,195,194,24,1.02,0.57,0.84*22
$GNGSA,A,3,408,413,406,416,430,403,401,427,420,409,425,423,1.02,0.57,0.84*13
$GNGLL,3722.37623,N,12640.24974,E,025210.00,A,D*7C
$GNVTG,217.85,T,,M,26.167,N,48.462,K,D*27
$GNGGA,025211.00,3722.37050,N,12640.24414,E,2,12,0.57,14.4,M,17.9,M,,0000*78
$GNGSA,A,3,02,13,41,193,15,05,29,30,21,195,194,24,1.02,0.57,0.84*22
$GNGSA,A,3,408,413,406,416,430,403,401,427,420,409,425,423,1.02,0.57,0.84*13
$GNVTG,217.72,T,,M,26.154,N,48.438,K,D*20
$GNGGA,025212.00,3722.36475,N,12640.23856,E,2,12,0.57,14.4,M,17.9,M,,0000*74
$GNGSA,A,3,02,13,41,193,15,05,29,30,21,195,194,24,1.02,0.57,0.84*22
$GNGSA,A,3,408,413,406,416,430,403,401,427,420,409,425,423,1.02,0.57,0.84*13
$GNVTG,217.62,T,,M,26.119,N,48.372,K,D*21
$GNGGA,025213.00,3722.35899,N,12640.23299,E,2,12,0.57,14.4,M,17.9,M,,0000*71
$GNGSA,A,3,02,13,41,193,15,05,29,30,21,195,194,24,1.02,0.57,0.84*22
$GNGSA,A,3,408,413,406,416,430,403,401,427,420,409,425,423,1.02,0.57,0.84*13
$GNVTG,217.49,T,,M,26.164,N,48.456,K,D*23
$GNGGA,025214.00,3722.35323,N,12640.22743,E,2,12,0.57,14.4,M,17.9,M,,0000*7F
$GNGSA,A,3,02,13,41,193,15,05,29,30,21,195,194,24,1.02,0.57,0.84*22
$GNGSA,A,3,408,413,406,416,430,403,401,427,420,409,425,423,1.02,0.57,0.84*13
$GNVTG,217.35,T,,M,26.147,N,48.425,K,D*2D
$GNGGA,025215.00,3722.34744,N,12640.22186,E,2,12,0.57,14.3,M,17.9,M,,0000*72
$GNGSA,A,3,02,13,41,193,15,05,29,30,21,195,194,24,1.02,0.57,0.84*22
$GNGSA,A,3,408,413,406,416,430,403,401,427,420,409,425,423,1.02,0.57,0.84*13
$GNVTG,217.16,T,,M,26.162,N,48.452,K,D*2B
$GNGGA,025216.00,3722.34163,N,12640.21633,E,2,12,0.57,14.3,M,17.9,M,,0000*78
$GNGSA,A,3,02,13,41,193,15,05,29,30,21,195,194,24,1.02,0.57,0.84*22
$GNGSA,A,3,408,413,406,416,430,403,401,427,420,409,425,423,1.02,0.57,0.84*13
$GNVTG,217.12,T,,M,26.195,N,48.513,K,D*23
$GNGGA,025217.00,3722.33582,N,12640.21082,E,2,12,0.57,14.3,M,17.9,M,,0000*79
$GNGSA,A,3,02,13,41,193,15,05,29,30,21,195,194,24,1.02,0.57,0.84*22
$GNGSA,A,3,408,413,406,416,430,403,401,427,420,409,425,423,1.02,0.57,0.84*13
$GNGLL,3722.33582,N,12640.21082,E,025217.00,A,D*72
$GNVTG,217.71,T,,M,26.222,N,48.563,K,D*2E
$GNGGA,025218.00,3722.33003,N,12640.20525,E,2,12,0.57,14.3,M,17.9,M,,0000*73
$GNGSA,A,3,02,13,41,193,15,05,29,30,21,195,194,24,1.02,0.57,0.84*22
$GNGSA,A,3,408,413,406,416,430,403,401,427,420,409,425,423,1.02,0.57,0.84*13
$GNVTG,218.07,T,,M,26.186,N,48.497,K,D*27
$GNGGA,025219.00,3722.32427,N,12640.19963,E,2,12,0.57,14.3,M,17.9,M,,0000*75
$GNGSA,A,3,02,13,41,193,15,05,29,30,21,195,194,24,1.02,0.57,0.84*22
$GNGSA,A,3,408,413,406,416,430,403,401,427,420,409,425,423,1.02,0.57,0.84*13
$GNVTG,218.25,T,,M,26.212,N,48.544,K,D*26
$GNGGA,025220.00,3722.31854,N,12640.19400,E,2,12,0.57,14.4,M,17.9,M,,0000*7B
$GNGSA,A,3,02,13,41,193,15,05,29,30,21,195,194,24,1.02,0.57,0.84*22
$GNGSA,A,3,408,413,406,416,430,403,401,427,420,409,425,423,1.02,0.57,0.84*13
$GNVTG,218.18,T,,M,26.195,N,48.513,K,D*26
$GNGGA,025221.00,3722.31280,N,12640.18836,E,2,12,0.57,14.4,M,17.9,M,,0000*71
$GNGSA,A,3,02,13,41,193,15,05,29,30,21,195,194,24,1.02,0.57,0.84*22
$GNGSA,A,3,408,413,406,416,430,403,401,427,420,409,425,423,1.02,0.57,0.84*13
$GNVTG,218.06,T,,M,26.190,N,48.503,K,D*2D
$GNGGA,025222.00,3722.30707,N,12640.18273,E,2,12,0.57,14.4,M,17.9,M,,0000*72
$GNGSA,A,3,02,13,41,193,15,05,29,30,21,195,194,24,1.02,0.57,0.84*22
$GNGSA,A,3,408,413,406,416,430,403,401,427,420,409,425,423,1.02,0.57,0.84*13
$GNGLL,3722.30707,N,12640.18273,E,025222.00,A,D*7E
$GNVTG,217.78,T,,M,26.213,N,48.547,K,D*23
$GNGGA,025223.00,3722.30132,N,12640.17714,E,2,12,0.57,14.4,M,17.9,M,,0000*78
$GNGSA,A,3,02,13,41,193,15,05,29,30,21,195,194,24,1.02,0.57,0.84*22
$GNGSA,A,3,408,413,406,416,430,403,401,427,420,409,425,423,1.02,0.57,0.84*13
$GNVTG,217.68,T,,M,26.163,N,48.453,K,D*22
$GNGGA,025224.00,3722.29555,N,12640.17156,E,2,12,0.57,14.5,M,17.9,M,,0000*73
$GNGSA,A,3,02,13,41,193,15,05,29,30,21,195,194,24,1.02,0.57,0.84*22
$GNGSA,A,3,408,413,406,416,430,403,401,427,420,409,425,423,1.02,0.57,0.84*13
$GNVTG,217.81,T,,M,26.082,N,48.304,K,D*2E
$GNGGA,025225.00,3722.28980,N,12640.16598,E,2,12,0.57,14.5,M,17.9,M,,0000*70
$GNGSA,A,3,02,13,41,193,15,05,29,30,21,195,194,24,1.02,0.57,0.84*22
$GNGSA,A,3,408,413,406,416,430,403,401,427,420,409,425,423,1.02,0.57,0.84*13
$GNVTG,217.71,T,,M,26.150,N,48.429,K,D*27
$GNGGA,025226.00,3722.28404,N,12640.16042,E,2,12,0.57,14.6,M,17.9,M,,0000*73
$GNGSA,A,3,02,13,41,193,15,05,29,30,21,195,194,24,1.02,0.57,0.84*22
$GNGSA,A,3,408,413,406,416,430,403,401,427,420,409,425,423,1.02,0.57,0.84*13
$GNVTG,217.51,T,,M,26.222,N,48.564,K,D*2B
$GNGGA,025227.00,3722.27826,N,12640.15485,E,2,12,0.57,14.7,M,17.9,M,,0000*7C
$GNGSA,A,3,02,13,41,193,15,05,29,30,21,195,194,24,1.02,0.57,0.84*22
$GNGSA,A,3,408,413,406,416,430,403,401,427,420,409,425,423,1.02,0.57,0.84*13
$GNGLL,3722.27826,N,12640.15485,E,025227.00,A,D*73
$GNVTG,217.63,T,,M,26.203,N,48.528,K,D*21
$GNGGA,025228.00,3722.27249,N,12640.14929,E,2,12,0.57,14.7,M,17.9,M,,0000*7A
$GNGSA,A,3,02,13,41,193,15,05,29,30,21,195,194,24,1.02,0.57,0.84*22
$GNGSA,A,3,408,413,406,416,430,403,401,427,420,409,425,423,1.02,0.57,0.84*13
$GNVTG,217.70,T,,M,26.175,N,48.476,K,D*2B
$GNGGA,025229.00,3722.26675,N,12640.14373,E,2,12,0.57,14.7,M,17.9,M,,0000*74
$GNGSA,A,3,02,13,41,193,15,05,29,30,21,195,194,24,1.02,0.57,0.84*22
$GNGSA,A,3,408,413,406,416,430,403,401,427,420,409,425,423,1.02,0.57,0.84*13
$GNVTG,217.71,T,,M,26.082,N,48.303,K,D*26
$GNGGA,025230.00,3722.26101,N,12640.13816,E,2,12,0.57,14.7,M,17.9,M,,0000*77
$GNGSA,A,3,02,13,41,193,15,05,29,30,21,195,194,24,1.02,0.57,0.84*22
$GNGSA,A,3,408,413,406,416,430,403,401,427,420,409,425,423,1.02,0.57,0.84*13
$GNGLL,3722.26101,N,12640.13816,E,025230.00,A,D*78
$GNVTG,217.72,T,,M,26.100,N,48.338,K,D*26
$GNGGA,025231.00,3722.25526,N,12640.13259,E,2,12,0.57,14.7,M,17.9,M,,0000*75
$GNGSA,A,3,02,13,41,193,15,05,29,30,21,195,194,24,1.02,0.57,0.84*22
$GNGSA,A,3,408,413,406,416,430,403,401,427,420,409,425,423,1.02,0.57,0.84*13
$GNVTG,217.63,T,,M,26.134,N,48.399,K,D*2A
$GNGGA,025232.00,3722.24949,N,12640.12704,E,2,12,0.57,14.8,M,17.9,M,,0000*71
$GNGSA,A,3,02,13,41,193,15,05,29,30,21,195,194,24,1.02,0.57,0.84*22
$GNGSA,A,3,408,413,406,416,430,403,401,427,420,409,425,423,1.02,0.57,0.84*13
$GNGLL,3722.24949,N,12640.12704,E,025232.00,A,D*71
$GNVTG,217.59,T,,M,26.256,N,48.625,K,D*26
$GNGGA,025233.00,3722.24371,N,12640.12148,E,2,12,0.57,14.8,M,17.9,M,,0000*7F
$GNGSA,A,3,02,13,41,193,15,05,29,30,21,195,194,24,1.02,0.57,0.84*22
$GNGSA,A,3,408,413,406,416,430,403,401,427,420,409,425,423,1.02,0.57,0.84*13
$GNVTG,217.68,T,,M,26.199,N,48.521,K,D*23
$GNGGA,025234.00,3722.23794,N,12640.11591,E,2,12,0.57,14.9,M,17.9,M,,0000*72
$GNGSA,A,3,02,13,41,193,15,05,29,30,21,195,194,24,1.02,0.57,0.84*22
$GNGSA,A,3,408,413,406,416,430,403,401,427,420,409,425,423,1.02,0.57,0.84*13
$GNVTG,217.97,T,,M,26.238,N,48.594,K,D*25
$GNGGA,025235.00,3722.23217,N,12640.11030,E,2,12,0.57,15.0,M,17.9,M,,0000*7B
$GNGSA,A,3,02,13,41,193,15,05,29,30,21,195,194,24,1.02,0.57,0.84*22
$GNGSA,A,3,408,413,406,416,430,403,401,427,420,409,425,423,1.02,0.57,0.84*13
$GNGLL,3722.23217,N,12640.11030,E,025235.00,A,D*72
$GNVTG,218.03,T,,M,26.122,N,48.377,K,D*24
$GNGGA,025236.00,3722.22643,N,12640.10469,E,2,12,0.57,14.9,M,17.9,M,,0000*7D
$GNGSA,A,3,02,13,41,193,15,05,29,30,21,195,194,24,1.02,0.57,0.84*22
$GNGSA,A,3,408,413,406,416,430,403,401,427,420,409,425,423,1.02,0.57,0.84*13
$GNVTG,217.57,T,,M,26.173,N,48.473,K,D*2D
$GNGGA,025237.00,3722.22067,N,12640.09912,E,2,12,0.58,14.9,M,17.9,M,,0000*7A
$GNGSA,A,3,02,13,41,193,15,05,29,30,21,195,194,24,1.03,0.58,0.85*2D
$GNGSA,A,3,408,413,406,416,430,403,401,427,420,409,425,423,1.03,0.58,0.85*1C
$GNVTG,217.45,T,,M,26.212,N,48.545,K,D*2E
$GNGGA,025238.00,3722.21489,N,12640.09356,E,2,12,0.58,15.0,M,17.9,M,,0000*70
$GNGSA,A,3,02,13,41,193,15,05,29,30,21,195,194,24,1.03,0.58,0.85*2D
$GNGSA,A,3,408,413,406,416,430,401,427,420,409,425,423,402,1.03,0.58,0.85*1D
$GNVTG,217.33,T,,M,26.248,N,48.612,K,D*21
$GNGGA,025239.00,3722.20911,N,12640.08802,E,2,12,0.58,14.9,M,17.9,M,,0000*7F
$GNGSA,A,3,02,13,41,193,15,05,29,30,21,195,194,24,1.03,0.58,0.85*2D
$GNGSA,A,3,408,413,406,416,430,401,427,420,409,425,423,404,1.03,0.58,0.85*1B
$GNGLL,3722.20911,N,12640.08802,E,025239.00,A,D*71
$GNVTG,217.35,T,,M,26.130,N,48.392,K,D*26
$GNGGA,025240.00,3722.20333,N,12640.08249,E,2,12,0.58,14.9,M,17.9,M,,0000*7E
$GNGSA,A,3,02,13,41,193,15,05,29,30,21,195,194,24,1.03,0.58,0.85*2D
$GNGSA,A,3,408,413,406,416,430,401,427,420,409,425,423,404,1.03,0.58,0.85*1B
$GNVTG,217.64,T,,M,26.102,N,48.340,K,D*2C
$GNGGA,025241.00,3722.19759,N,12640.07694,E,2,12,0.56,14.9,M,17.9,M,,0000*78
$GNGSA,A,3,02,13,41,193,15,05,29,30,21,195,194,24,1.02,0.56,0.85*22
$GNGSA,A,3,408,413,406,416,430,401,427,420,409,425,423,404,1.02,0.56,0.85*14
$GNVTG,217.90,T,,M,26.131,N,48.395,K,D*2F
$GNGGA,025242.00,3722.19184,N,12640.07135,E,2,12,0.56,15.0,M,17.9,M,,0000*79
$GNGSA,A,3,02,13,41,193,15,05,29,30,21,195,194,24,1.02,0.56,0.85*22
$GNGSA,A,3,408,413,406,416,430,401,427,420,409,425,423,404,1.02,0.56,0.85*14
$GNGLL,3722.19184,N,12640.07135,E,025242.00,A,D*71
$GNVTG,217.83,T,,M,26.125,N,48.384,K,D*28
$GNGGA,025243.00,3722.18610,N,12640.06577,E,2,12,0.56,15.0,M,17.9,M,,0000*70
$GNGSA,A,3,02,13,41,193,15,05,29,30,21,195,194,24,1.02,0.56,0.85*22
$GNGSA,A,3,408,413,406,416,430,401,427,420,409,425,423,404,1.02,0.56,0.85*14
$GNVTG,217.80,T,,M,26.174,N,48.474,K,D*27
$GNGGA,025244.00,3722.18036,N,12640.06019,E,2,12,0.56,14.9,M,17.9,M,,0000*70
$GNGSA,A,3,02,13,41,193,15,05,29,30,21,195,194,24,1.02,0.56,0.85*22
$GNGSA,A,3,408,413,406,416,430,401,427,420,409,425,423,404,1.02,0.56,0.85*14
$GNVTG,218.11,T,,M,26.208,N,48.537,K,D*2E
$GNGGA,025245.00,3722.17463,N,12640.05457,E,2,12,0.56,14.9,M,17.9,M,,0000*77
$GNGSA,A,3,02,13,41,193,15,05,29,30,21,195,194,24,1.02,0.56,0.85*22
$GNGSA,A,3,408,413,406,416,430,401,427,420,409,425,423,404,1.02,0.56,0.85*14
$GNVTG,217.84,T,,M,26.185,N,48.495,K,D*22
$GNGGA,025246.00,3722.16888,N,12640.04895,E,2,12,0.56,14.9,M,17.9,M,,0000*7F
$GNGSA,A,3,02,13,41,193,15,05,29,30,21,195,194,24,1.02,0.56,0.85*22
$GNGSA,A,3,408,413,406,416,430,401,427,420,409,425,423,404,1.02,0.56,0.85*14
$GNVTG,217.86,T,,M,26.195,N,48.514,K,D*29
$GNGGA,025247.00,3722.16313,N,12640.04335,E,2,12,0.56,14.9,M,17.9,M,,0000*76
$GNGSA,A,3,02,13,41,193,15,05,29,30,21,195,194,24,1.02,0.56,0.85*22
$GNGSA,A,3,408,413,406,416,430,401,427,420,409,425,423,404,1.02,0.56,0.85*14
$GNGLL,3722.16313,N,12640.04335,E,025247.00,A,D*76
$GNZDA,025247.00,23,11,2019,00,00*75
$GNVTG,217.86,T,,M,26.210,N,48.541,K,D*27
$GNGGA,025248.00,3722.15737,N,12640.03774,E,2,12,0.56,14.8,M,17.9,M,,0000*7F
$GNGSA,A,3,02,13,41,193,15,05,29,30,21,195,194,24,1.02,0.56,0.85*22
$GNGSA,A,3,408,413,406,416,430,401,427,420,409,425,423,404,1.02,0.56,0.85*14
$GNGLL,3722.15737,N,12640.03774,E,025248.00,A,D*7E
$GNVTG,217.59,T,,M,26.156,N,48.440,K,D*24
$GNGGA,025249.00,3722.15160,N,12640.03216,E,2,12,0.56,14.8,M,17.9,M,,0000*7B
$GNGSA,A,3,02,13,41,193,15,05,29,30,21,195,194,24,1.02,0.56,0.85*22
$GNGSA,A,3,408,413,406,416,430,401,427,420,409,425,423,404,1.02,0.56,0.85*14
$GNGLL,3722.15160,N,12640.03216,E,025249.00,A,D*7A
$GNZDA,025249.00,23,11,2019,00,00*7B
$GNVTG,217.81,T,,M,26.204,N,48.530,K,D*23
$GNGGA,025250.00,3722.14584,N,12640.02657,E,2,12,0.56,14.8,M,17.9,M,,0000*7C
$GNGSA,A,3,02,13,41,193,15,05,29,30,21,195,194,24,1.02,0.56,0.85*22
$GNGSA,A,3,408,413,406,416,430,401,427,420,409,425,423,404,1.02,0.56,0.85*14
$GNGLL,3722.14584,N,12640.02657,E,025250.00,A,D*7D
$GNVTG,217.59,T,,M,26.228,N,48.575,K,D*29
$GNGGA,025251.00,3722.14006,N,12640.02100,E,2,12,0.56,14.9,M,17.9,M,,0000*76
$GNGSA,A,3,02,13,41,193,15,05,29,30,21,195,194,24,1.01,0.56,0.84*20
$GNGSA,A,3,408,413,406,416,430,403,401,427,420,409,425,423,1.01,0.56,0.84*11
$GNGLL,3722.14006,N,12640.02100,E,025251.00,A,D*76
$GNVTG,217.44,T,,M,26.107,N,48.350,K,D*2A
$GNGGA,025252.00,3722.13430,N,12640.01545,E,2,12,0.56,14.8,M,17.9,M,,0000*74
$GNGSA,A,3,02,13,41,193,15,05,29,30,21,195,194,24,1.01,0.56,0.84*20
$GNGSA,A,3,408,413,406,416,430,403,401,427,420,409,425,423,1.01,0.56,0.84*11
$GNGLL,3722.13430,N,12640.01545,E,025252.00,A,D*75
$GNVTG,217.36,T,,M,26.179,N,48.484,K,D*28
$GNGGA,025253.00,3722.12852,N,12640.00992,E,2,12,0.56,14.8,M,17.9,M,,0000*7B
$GNGSA,A,3,02,13,41,193,15,05,29,30,21,195,194,24,1.01,0.56,0.84*20
$GNGSA,A,3,408,413,406,416,430,403,401,427,420,409,425,423,1.01,0.56,0.84*11
$GNGLL,3722.12852,N,12640.00992,E,025253.00,A,D*7A
$GNVTG,217.48,T,,M,26.196,N,48.515,K,D*29
$GNGGA,025254.00,3722.12274,N,12640.00436,E,2,12,0.56,14.7,M,17.9,M,,0000*7E
$GNGSA,A,3,02,13,41,193,15,05,29,30,21,195,194,24,1.01,0.56,0.84*20
$GNGSA,A,3,408,413,406,416,430,403,401,427,420,409,425,423,1.01,0.56,0.84*11
$GNGLL,3722.12274,N,12640.00436,E,025254.00,A,D*70
$GNZDA,025254.00,23,11,2019,00,00*77
$GNVTG,217.53,T,,M,26.084,N,48.307,K,D*24
$GNGGA,025255.00,3722.11697,N,12639.99879,E,2,12,0.56,14.8,M,17.9,M,,0000*73
$GNGSA,A,3,02,13,41,193,15,05,29,30,21,195,194,24,1.01,0.56,0.84*20
$GNGSA,A,3,408,413,406,416,430,403,401,427,420,409,425,423,1.01,0.56,0.84*11
$GNGLL,3722.11697,N,12639.99879,E,025255.00,A,D*72
$GNVTG,217.53,T,,M,25.796,N,47.773,K,D*2B
$GNGGA,025256.00,3722.11126,N,12639.99328,E,2,12,0.56,14.8,M,17.9,M,,0000*72
$GNGSA,A,3,02,13,41,193,15,05,29,30,21,195,194,24,1.01,0.56,0.84*20
$GNGSA,A,3,408,413,406,416,430,403,401,427,420,409,425,423,1.01,0.56,0.84*11
$GNGLL,3722.11126,N,12639.99328,E,025256.00,A,D*73
$GNVTG,217.78,T,,M,25.503,N,47.232,K,D*2C
$GNGGA,025257.00,3722.10563,N,12639.98780,E,2,12,0.55,14.7,M,17.9,M,,0000*7C
$GNGSA,A,3,02,13,15,05,29,30,21,195,194,50,42,24,1.03,0.55,0.87*1F
$GNGSA,A,3,408,413,406,416,430,403,401,427,420,409,425,423,1.03,0.55,0.87*13
$GNGLL,3722.10563,N,12639.98780,E,025257.00,A,D*71
$GNVTG,217.30,T,,M,25.140,N,46.559,K,D*28
$GNGGA,025258.00,3722.10004,N,12639.98244,E,2,12,0.55,14.7,M,17.9,M,,0000*7A
$GNGSA,A,3,02,13,15,05,29,30,21,195,194,50,42,24,1.03,0.55,0.87*1F
$GNGSA,A,3,408,413,406,416,430,403,401,427,420,409,425,423,1.03,0.55,0.87*13
$GNGLL,3722.10004,N,12639.98244,E,025258.00,A,D*77
$GNVTG,217.62,T,,M,24.977,N,46.258,K,D*24
$GNGGA,025259.00,3722.09451,N,12639.97710,E,2,12,0.55,14.7,M,17.9,M,,0000*7C
$GNGSA,A,3,02,13,193,15,05,29,30,21,195,194,50,42,1.00,0.55,0.83*25
$GNGSA,A,3,408,413,406,416,430,403,401,427,420,409,425,423,1.00,0.55,0.83*14
$GNVTG,218.01,T,,M,23.718,N,43.926,K,D*29
$GNGGA,025300.00,3722.08922,N,12639.97194,E,2,12,0.55,14.6,M,17.9,M,,0000*72
$GNGSA,A,3,02,13,193,15,05,29,30,21,195,194,50,42,1.00,0.55,0.84*22
$GNGSA,A,3,408,413,406,416,430,403,401,427,420,409,425,423,1.00,0.55,0.84*13
$GNGLL,3722.08922,N,12639.97194,E,025300.00,A,D*7E
$GNZDA,025300.00,23,11,2019,00,00*77
$GNVTG,217.89,T,,M,21.824,N,40.417,K,D*28
$GNGGA,025301.00,3722.08431,N,12639.96715,E,2,12,0.55,14.6,M,17.9,M,,0000*72
$GNGSA,A,3,02,13,193,15,05,29,30,21,195,194,50,42,1.00,0.55,0.84*22
$GNGSA,A,3,408,413,406,416,430,401,427,420,409,425,423,404,1.00,0.55,0.84*14
$GNGLL,3722.08431,N,12639.96715,E,025301.00,A,D*7E
$GNVTG,218.06,T,,M,19.432,N,35.988,K,D*29
$GNGGA,025302.00,3722.07991,N,12639.96284,E,2,12,0.55,14.6,M,17.9,M,,0000*74
$GNGSA,A,3,02,13,193,15,05,29,30,21,195,194,50,42,1.00,0.55,0.84*22
$GNGSA,A,3,408,413,406,416,430,401,427,420,409,425,423,404,1.00,0.55,0.84*14
$GNGLL,3722.07991,N,12639.96284,E,025302.00,A,D*78
$GNVTG,217.70,T,,M,16.613,N,30.768,K,D*2C
$GNGGA,025303.00,3722.07607,N,12639.95910,E,2,12,0.55,14.6,M,17.9,M,,0000*70
$GNGSA,A,3,02,13,193,15,05,29,30,21,195,194,50,42,1.00,0.55,0.84*22
$GNGSA,A,3,408,413,406,416,430,401,427,420,409,425,423,404,1.00,0.55,0.84*14
$GNGLL,3722.07607,N,12639.95910,E,025303.00,A,D*7C
$GNVTG,217.47,T,,M,13.577,N,25.145,K,D*21
$GNGGA,025304.00,3722.07286,N,12639.95603,E,2,12,0.55,14.7,M,17.9,M,,0000*76
$GNGSA,A,3,02,13,193,15,05,29,30,21,195,194,50,42,1.00,0.55,0.84*22
$GNGSA,A,3,408,413,406,416,430,401,427,420,409,425,423,404,1.00,0.55,0.84*14
$GNVTG,217.39,T,,M,11.208,N,20.758,K,D*2A
$GNGGA,025305.00,3722.07023,N,12639.95352,E,2,12,0.55,14.7,M,17.9,M,,0000*7B
$GNGSA,A,3,02,13,193,15,05,29,30,21,195,194,50,42,1.00,0.55,0.84*22
$GNGSA,A,3,408,413,406,416,430,401,427,420,409,425,423,404,1.00,0.55,0.84*14
$GNGLL,3722.07023,N,12639.95352,E,025305.00,A,D*76
$GNVTG,217.14,T,,M,9.385,N,17.381,K,D*1C
$GNGGA,025306.00,3722.06803,N,12639.95144,E,2,12,0.55,14.6,M,17.9,M,,0000*77
$GNGSA,A,3,02,13,193,15,05,29,30,21,195,194,50,42,1.00,0.55,0.83*25
$GNGSA,A,3,408,413,406,416,430,403,401,427,420,409,425,423,1.00,0.55,0.83*14
$GNGLL,3722.06803,N,12639.95144,E,025306.00,A,D*7B
$GNVTG,217.76,T,,M,8.519,N,15.777,K,D*15
$GNGGA,025307.00,3722.06609,N,12639.94959,E,2,12,0.55,14.5,M,17.9,M,,0000*74
$GNGSA,A,3,02,13,193,15,05,29,30,21,195,194,50,42,1.00,0.55,0.83*25
$GNGSA,A,3,408,413,406,416,430,403,401,427,420,409,425,423,1.00,0.55,0.83*14
$GNGLL,3722.06609,N,12639.94959,E,025307.00,A,D*7B
$GNVTG,217.98,T,,M,8.126,N,15.050,K,D*1F
$GNGGA,025308.00,3722.06428,N,12639.94782,E,2,12,0.55,14.5,M,17.9,M,,0000*72
$GNGSA,A,3,02,13,193,15,05,29,30,21,195,194,50,42,1.00,0.55,0.83*25
$GNGSA,A,3,408,413,406,416,430,403,401,427,420,409,425,423,1.00,0.55,0.83*14
$GNGLL,3722.06428,N,12639.94782,E,025308.00,A,D*7D
$GNVTG,217.72,T,,M,7.623,N,14.118,K,D*1A
$GNGGA,025309.00,3722.06257,N,12639.94617,E,2,12,0.55,14.5,M,17.9,M,,0000*70
$GNGSA,A,3,02,13,193,15,05,29,30,21,195,194,50,42,1.00,0.55,0.83*25
$GNGSA,A,3,408,413,406,416,430,403,401,427,420,409,425,423,1.00,0.55,0.83*14
$GNGLL,3722.06257,N,12639.94617,E,025309.00,A,D*7F
$GNVTG,217.76,T,,M,7.084,N,13.119,K,D*13
$GNGGA,025310.00,3722.06096,N,12639.94463,E,2,12,0.55,14.4,M,17.9,M,,0000*77
$GNGSA,A,3,02,13,193,15,05,29,30,21,195,194,50,42,1.00,0.55,0.83*25
$GNGSA,A,3,408,413,406,416,430,403,401,427,420,409,425,423,1.00,0.55,0.83*14
$GNGLL,3722.06096,N,12639.94463,E,025310.00,A,D*79
$GNVTG,217.87,T,,M,6.578,N,12.183,K,D*18
$GNGGA,025311.00,3722.05948,N,12639.94319,E,2,12,0.55,14.4,M,17.9,M,,0000*75
$GNGSA,A,3,02,13,193,15,05,29,30,21,195,194,50,42,1.00,0.55,0.83*25
$GNGSA,A,3,408,413,406,416,430,403,401,427,420,409,425,423,1.00,0.55,0.83*14
$GNVTG,217.91,T,,M,5.244,N,9.712,K,D*20
$GNGGA,025312.00,3722.05823,N,12639.94199,E,2,12,0.55,14.4,M,17.9,M,,0000*70
$GNGSA,A,3,02,13,193,15,05,29,30,21,195,194,50,42,1.00,0.55,0.83*25
$GNGSA,A,3,408,413,406,416,430,403,401,427,420,409,425,423,1.00,0.55,0.83*14
$GNGLL,3722.05823,N,12639.94199,E,025312.00,A,D*7E
$GNVTG,217.82,T,,M,2.731,N,5.057,K,D*28
$GNGGA,025313.00,3722.05745,N,12639.94124,E,2,12,0.55,14.4,M,17.9,M,,0000*78
$GNGSA,A,3,02,13,193,15,05,29,30,21,195,194,50,42,1.00,0.55,0.83*25
$GNGSA,A,3,408,413,406,416,430,403,401,427,420,409,425,423,1.00,0.55,0.83*14
$GNGLL,3722.05745,N,12639.94124,E,025313.00,A,D*76
$GNVTG,,T,,M,0.060,N,0.111,K,D*3F
$GNGGA,025314.00,3722.05726,N,12639.94106,E,2,12,0.55,14.4,M,17.9,M,,0000*7A
$GNGSA,A,3,02,13,193,15,05,29,30,21,195,194,50,42,1.00,0.55,0.83*25
$GNGSA,A,3,408,413,406,416,430,403,401,427,420,409,425,423,1.00,0.55,0.83*14
$GNGLL,3722.05726,N,12639.94106,E,025314.00,A,D*74
$GNVTG,,T,,M,0.025,N,0.047,K,D*3C
$GNGGA,025315.00,3722.05726,N,12639.94105,E,2,12,0.55,14.4,M,17.9,M,,0000*78
$GNGSA,A,3,02,13,193,15,05,29,30,21,195,194,50,42,1.00,0.55,0.83*25
$GNGSA,A,3,408,413,406,416,430,403,401,427,420,409,425,423,1.00,0.55,0.83*14
$GNGLL,3722.05726,N,12639.94105,E,025315.00,A,D*76
$GNVTG,,T,,M,0.033,N,0.061,K,D*3F
$GNGGA,025316.00,3722.05725,N,12639.94105,E,2,12,0.55,14.5,M,17.9,M,,0000*79
$GNGSA,A,3,02,13,193,15,05,29,30,21,195,194,50,42,1.03,0.55,0.87*22
$GNGSA,A,3,413,406,416,430,403,401,427,420,409,425,423,404,1.03,0.55,0.87*1F
$GNVTG,,T,,M,0.007,N,0.012,K,D*3C
$GNGGA,025317.00,3722.05724,N,12639.94104,E,2,12,0.55,14.5,M,17.9,M,,0000*78
$GNGSA,A,3,02,13,193,15,05,29,30,21,195,194,50,42,1.03,0.55,0.87*22
$GNGSA,A,3,413,406,416,430,403,401,427,420,409,425,423,404,1.03,0.55,0.87*1F
$GNGLL,3722.05724,N,12639.94104,E,025317.00,A,D*77
$GNZDA,025317.00,23,11,2019,00,00*71
$GNVTG,,T,,M,0.012,N,0.022,K,D*3B
$GNGGA,025318.00,3722.05724,N,12639.94104,E,2,12,0.55,14.5,M,17.9,M,,0000*77
$GNGSA,A,3,02,13,193,15,05,29,30,21,195,194,50,42,1.03,0.55,0.87*22
$GNGSA,A,3,413,406,416,430,403,401,427,420,409,425,423,404,1.03,0.55,0.87*1F
$GNVTG,,T,,M,0.017,N,0.032,K,D*3F
$GNGGA,025319.00,3722.05724,N,12639.94104,E,2,12,0.55,14.6,M,17.9,M,,0000*75
$GNGSA,A,3,02,13,193,15,05,29,30,21,195,194,50,42,1.03,0.55,0.87*22
$GNGSA,A,3,413,406,416,430,403,401,427,420,409,425,423,404,1.03,0.55,0.87*1F
$GNGLL,3722.05724,N,12639.94104,E,025319.00,A,D*79
$GNVTG,,T,,M,0.050,N,0.093,K,D*37
$GNGGA,025320.00,3722.05724,N,12639.94105,E,2,12,0.55,14.6,M,17.9,M,,0000*7E
$GNGSA,A,3,02,13,193,15,05,29,30,21,195,194,50,42,1.03,0.55,0.87*22
$GNGSA,A,3,413,406,416,430,403,401,427,420,409,425,423,404,1.03,0.55,0.87*1F
$GNGLL,3722.05724,N,12639.94105,E,025320.00,A,D*72
$GNVTG,,T,,M,0.022,N,0.040,K,D*3C
$GNGGA,025321.00,3722.05723,N,12639.94105,E,2,12,0.55,14.7,M,17.9,M,,0000*79
$GNGSA,A,3,02,13,193,15,05,29,30,21,195,194,50,42,1.03,0.55,0.87*22
$GNGSA,A,3,413,406,416,430,403,401,427,420,409,425,423,404,1.03,0.55,0.87*1F
$GNGLL,3722.05723,N,12639.94105,E,025321.00,A,D*74
$GNVTG,,T,,M,0.025,N,0.046,K,D*3D
$GNGGA,025322.00,3722.05722,N,12639.94104,E,2,12,0.55,14.7,M,17.9,M,,0000*7A
$GNGSA,A,3,02,13,193,15,05,29,30,21,195,194,50,42,1.03,0.55,0.87*22
$GNGSA,A,3,413,406,416,430,403,401,427,420,409,425,423,404,1.03,0.55,0.87*1F
$GNGLL,3722.05722,N,12639.94104,E,025322.00,A,D*77
$GNVTG,,T,,M,0.020,N,0.037,K,D*3E
$GNGGA,025323.00,3722.05722,N,12639.94105,E,2,12,0.55,14.7,M,17.9,M,,0000*7A
$GNGSA,A,3,02,13,193,15,05,29,30,21,195,194,50,42,1.03,0.55,0.87*22
$GNGSA,A,3,413,406,416,430,403,401,427,420,409,425,423,404,1.03,0.55,0.87*1F
$GNGLL,3722.05722,N,12639.94105,E,025323.00,A,D*77
$GNVTG,,T,,M,0.029,N,0.053,K,D*35
$GNGGA,025324.00,3722.05723,N,12639.94105,E,2,12,0.55,14.7,M,17.9,M,,0000*7C
$GNGSA,A,3,02,13,193,15,05,29,30,21,195,194,50,42,1.03,0.55,0.87*22
$GNGSA,A,3,413,406,416,430,403,401,427,420,409,425,423,404,1.03,0.55,0.87*1F
$GNGLL,3722.05723,N,12639.94105,E,025324.00,A,D*71
$GNZDA,025324.00,23,11,2019,00,00*71
$GNVTG,,T,,M,0.014,N,0.026,K,D*39
$GNGGA,025325.00,3722.05724,N,12639.94106,E,2,12,0.55,14.7,M,17.9,M,,0000*79
$GNGSA,A,3,02,13,193,15,05,29,30,21,195,194,50,42,1.00,0.55,0.83*25
$GNGSA,A,3,408,413,406,416,430,403,401,427,420,409,425,423,1.00,0.55,0.83*14
$GNVTG,,T,,M,0.073,N,0.134,K,D*3A
$GNGGA,025326.00,3722.05724,N,12639.94107,E,2,12,0.55,14.7,M,17.9,M,,0000*7B
$GNGSA,A,3,02,13,193,15,05,29,30,21,195,194,50,42,1.00,0.55,0.83*25
$GNGSA,A,3,408,413,406,416,430,403,401,427,420,409,425,423,1.00,0.55,0.83*14
$GNGLL,3722.05724,N,12639.94107,E,025326.00,A,D*76
$GNVTG,,T,,M,0.010,N,0.018,K,D*30
$GNGGA,025327.00,3722.05724,N,12639.94108,E,2,12,0.55,14.7,M,17.9,M,,0000*75
$GNGSA,A,3,02,13,193,15,05,29,30,21,195,194,50,42,1.00,0.55,0.83*25
$GNGSA,A,3,408,413,406,416,430,403,401,427,420,409,425,423,1.00,0.55,0.83*14
$GNGLL,3722.05724,N,12639.94108,E,025327.00,A,D*78
$GNVTG,,T,,M,0.042,N,0.078,K,D*31
$GNGGA,025328.00,3722.05724,N,12639.94108,E,2,12,0.55,14.7,M,17.9,M,,0000*7A
$GNGSA,A,3,02,13,193,15,05,29,30,21,195,194,50,42,1.00,0.55,0.83*25
$GNGSA,A,3,408,413,406,416,430,403,401,427,420,409,425,423,1.00,0.55,0.83*14
$GNGLL,3722.05724,N,12639.94108,E,025328.00,A,D*77
$GNVTG,,T,,M,0.108,N,0.200,K,D*33
$GNGGA,025329.00,3722.05725,N,12639.94105,E,2,12,0.55,14.7,M,17.9,M,,0000*77
$GNGSA,A,3,02,13,193,15,05,29,30,21,195,194,50,42,1.00,0.55,0.83*25
$GNGSA,A,3,408,413,406,416,430,403,401,427,420,409,425,423,1.00,0.55,0.83*14
$GNGLL,3722.05725,N,12639.94105,E,025329.00,A,D*7A
$GNVTG,,T,,M,0.036,N,0.068,K,D*33
$GNGGA,025330.00,3722.05725,N,12639.94103,E,2,12,0.55,14.7,M,17.9,M,,0000*79
$GNGSA,A,3,02,13,193,15,05,29,30,21,195,194,50,42,1.00,0.55,0.83*25
$GNGSA,A,3,408,413,406,416,430,403,401,427,420,409,425,423,1.00,0.55,0.83*14
$GNGLL,3722.05725,N,12639.94103,E,025330.00,A,D*74
$GNZDA,025330.00,23,11,2019,00,00*74
$GNVTG,,T,,M,0.017,N,0.032,K,D*3F
$GNGGA,025331.00,3722.05726,N,12639.94100,E,2,12,0.55,14.7,M,17.9,M,,0000*78
$GNGSA,A,3,02,13,193,15,05,29,30,21,195,194,50,42,1.00,0.55,0.83*25
$GNGSA,A,3,408,413,406,416,430,403,401,427,420,409,425,423,1.00,0.55,0.83*14
$GNGLL,3722.05726,N,12639.94100,E,025331.00,A,D*75
$GNVTG,,T,,M,0.010,N,0.018,K,D*30
$GNGGA,025332.00,3722.05726,N,12639.94097,E,2,12,0.55,14.7,M,17.9,M,,0000*74
$GNGSA,A,3,02,13,193,15,05,29,30,21,195,194,50,42,1.00,0.55,0.83*25
$GNGSA,A,3,408,413,406,416,430,403,401,427,420,409,425,423,1.00,0.55,0.83*14
$GNGLL,3722.05726,N,12639.94097,E,025332.00,A,D*79
$GNVTG,,T,,M,0.011,N,0.020,K,D*3A
$GNGGA,025333.00,3722.05726,N,12639.94094,E,2,12,0.55,14.7,M,17.9,M,,0000*76
$GNGSA,A,3,02,13,193,15,05,29,30,21,195,194,50,42,1.00,0.55,0.83*25
$GNGSA,A,3,408,413,406,416,430,403,401,427,420,409,425,423,1.00,0.55,0.83*14
$GNGLL,3722.05726,N,12639.94094,E,025333.00,A,D*7B
$GNVTG,,T,,M,0.025,N,0.046,K,D*3D
$GNGGA,025334.00,3722.05726,N,12639.94093,E,2,12,0.55,14.7,M,17.9,M,,0000*76
$GNGSA,A,3,02,13,193,15,05,29,30,21,195,194,50,42,1.00,0.55,0.83*25
$GNGSA,A,3,408,413,406,416,430,403,401,427,420,409,425,423,1.00,0.55,0.83*14
$GNGLL,3722.05726,N,12639.94093,E,025334.00,A,D*7B
$GNVTG,,T,,M,0.012,N,0.022,K,D*3B
$GNGGA,025335.00,3722.05727,N,12639.94091,E,2,12,0.55,14.7,M,17.9,M,,0000*74
$GNGSA,A,3,02,13,193,15,05,29,30,21,195,194,50,42,1.00,0.55,0.83*25
$GNGSA,A,3,408,413,406,416,430,403,401,427,420,409,425,423,1.00,0.55,0.83*14
$GNVTG,,T,,M,0.015,N,0.028,K,D*36
$GNGGA,025336.00,3722.05728,N,12639.94091,E,2,12,0.55,14.6,M,17.9,M,,0000*79
$GNGSA,A,3,02,13,193,15,05,29,30,21,195,194,50,42,1.00,0.55,0.83*25
$GNGSA,A,3,408,413,406,416,430,403,401,427,420,409,425,423,1.00,0.55,0.83*14
$GNGLL,3722.05728,N,12639.94091,E,025336.00,A,D*75
$GNZDA,025336.00,23,11,2019,00,00*72
$GNVTG,,T,,M,0.025,N,0.046,K,D*3D
$GNGGA,025337.00,3722.05728,N,12639.94089,E,2,12,0.55,14.6,M,17.9,M,,0000*71
$GNGSA,A,3,02,13,193,15,05,29,30,21,195,194,50,42,1.00,0.55,0.83*25
$GNGSA,A,3,408,413,406,416,430,403,401,427,420,409,425,423,1.00,0.55,0.83*14
$GNGLL,3722.05728,N,12639.94089,E,025337.00,A,D*7D
$GNVTG,,T,,M,0.108,N,0.201,K,D*32
$GNGGA,025338.00,3722.05727,N,12639.94092,E,2,12,0.55,14.6,M,17.9,M,,0000*7B
$GNGSA,A,3,02,13,193,15,05,29,30,21,195,194,50,42,1.00,0.55,0.83*25
$GNGSA,A,3,408,413,406,416,430,403,401,427,420,409,425,423,1.00,0.55,0.83*14
$GNGLL,3722.05727,N,12639.94092,E,025338.00,A,D*77
$GNZDA,025338.00,23,11,2019,00,00*7C
$GNVTG,,T,,M,0.072,N,0.133,K,D*3C
$GNGGA,025339.00,3722.05728,N,12639.94093,E,2,12,0.55,14.6,M,17.9,M,,0000*74
$GNGSA,A,3,02,13,193,15,05,29,30,21,195,194,50,42,1.00,0.55,0.83*25
$GNGSA,A,3,408,413,406,416,430,403,401,427,420,409,425,423,1.00,0.55,0.83*14
$GNVTG,,T,,M,0.073,N,0.135,K,D*3B
$GNGGA,025340.00,3722.05729,N,12639.94091,E,2,12,0.55,14.5,M,17.9,M,,0000*7A
$GNGSA,A,3,02,13,193,15,05,29,30,21,195,194,50,42,1.00,0.55,0.83*25
$GNGSA,A,3,408,413,406,416,430,403,401,427,420,409,425,423,1.00,0.55,0.83*14
$GNGLL,3722.05729,N,12639.94091,E,025340.00,A,D*75
$GNZDA,025340.00,23,11,2019,00,00*73
$GNVTG,,T,,M,0.017,N,0.032,K,D*3F
$GNGGA,025341.00,3722.05730,N,12639.94092,E,2,12,0.55,14.5,M,17.9,M,,0000*70
$GNGSA,A,3,02,13,193,15,05,29,30,21,195,194,50,42,1.00,0.55,0.83*25
$GNGSA,A,3,408,413,406,416,430,403,401,427,420,409,425,423,1.00,0.55,0.83*14
$GNGLL,3722.05730,N,12639.94092,E,025341.00,A,D*7F
$GNVTG,,T,,M,0.003,N,0.005,K,D*3E
$GNGGA,025342.00,3722.05731,N,12639.94093,E,2,12,0.55,14.5,M,17.9,M,,0000*73
$GNGSA,A,3,02,13,193,15,05,29,30,21,195,194,50,42,1.00,0.55,0.83*25
$GNGSA,A,3,408,413,406,416,430,403,401,427,420,409,425,423,1.00,0.55,0.83*14
$GNVTG,,T,,M,0.027,N,0.049,K,D*30
$GNGGA,025343.00,3722.05732,N,12639.94095,E,2,12,0.55,14.5,M,17.9,M,,0000*77
$GNGSA,A,3,02,13,193,15,05,29,30,21,195,194,50,42,1.00,0.55,0.83*25
$GNGSA,A,3,408,413,406,416,430,403,401,427,420,409,425,423,1.00,0.55,0.83*14
$GNGLL,3722.05732,N,12639.94095,E,025343.00,A,D*78
$GNZDA,025343.00,23,11,2019,00,00*70
$GNVTG,,T,,M,0.028,N,0.052,K,D*35
$GNGGA,025344.00,3722.05731,N,12639.94095,E,2,12,0.55,14.5,M,17.9,M,,0000*73
$GNGSA,A,3,02,13,193,15,05,29,30,21,195,194,50,42,1.00,0.55,0.83*25
$GNGSA,A,3,408,413,406,416,430,403,401,427,420,409,425,423,1.00,0.55,0.83*14
$GNGLL,3722.05731,N,12639.94095,E,025344.00,A,D*7C
$GNVTG,,T,,M,0.075,N,0.138,K,D*30
$GNGGA,025345.00,3722.05730,N,12639.94097,E,2,12,0.55,14.6,M,17.9,M,,0000*72
$GNGSA,A,3,02,13,193,15,05,29,30,21,195,194,50,42,1.00,0.55,0.83*25
$GNGSA,A,3,408,413,406,416,430,403,401,427,420,409,425,423,1.00,0.55,0.83*14
$GNGLL,3722.05730,N,12639.94097,E,025345.00,A,D*7E
$GNZDA,025345.00,23,11,2019,00,00*76
$GNVTG,,T,,M,0.052,N,0.097,K,D*31
$GNGGA,025346.00,3722.05730,N,12639.94100,E,2,12,0.55,14.6,M,17.9,M,,0000*7E
$GNGSA,A,3,02,13,193,15,05,29,30,21,195,194,50,42,1.00,0.55,0.83*25
$GNGSA,A,3,408,413,406,416,430,403,401,427,420,409,425,423,1.00,0.55,0.83*14
$GNVTG,,T,,M,0.015,N,0.027,K,D*39
$GNGGA,025347.00,3722.05730,N,12639.94103,E,2,12,0.56,14.6,M,17.9,M,,0000*7F
$GNGSA,A,3,02,13,193,15,05,29,30,21,195,194,50,42,1.00,0.56,0.83*26
$GNGSA,A,3,408,413,406,416,430,403,401,427,420,409,425,423,1.00,0.56,0.83*17
$GNGLL,3722.05730,N,12639.94103,E,025347.00,A,D*70
$GNZDA,025347.00,23,11,2019,00,00*74
$GNVTG,,T,,M,0.027,N,0.050,K,D*38
$GNGGA,025348.00,3722.05730,N,12639.94104,E,2,12,0.56,14.6,M,17.9,M,,0000*77
$GNGSA,A,3,02,13,193,15,05,29,30,21,195,194,50,42,1.00,0.56,0.83*26
$GNGSA,A,3,408,413,406,416,430,403,401,427,420,409,425,423,1.00,0.56,0.83*17
$GNGLL,3722.05730,N,12639.94104,E,025348.00,A,D*78
$GNZDA,025348.00,23,11,2019,00,00*7B
$GNVTG,,T,,M,0.035,N,0.064,K,D*3C
$GNGGA,025349.00,3722.05730,N,12639.94104,E,2,12,0.56,14.7,M,17.9,M,,0000*77
$GNGSA,A,3,02,13,193,15,05,29,30,21,195,194,50,42,1.00,0.56,0.83*26
$GNGSA,A,3,408,413,406,416,430,403,401,427,420,409,425,423,1.00,0.56,0.83*17
$GNVTG,,T,,M,0.028,N,0.052,K,D*35
$GNGGA,025350.00,3722.05730,N,12639.94105,E,2,12,0.56,14.7,M,17.9,M,,0000*7E
$GNGSA,A,3,02,13,193,15,05,29,30,21,195,194,50,42,1.00,0.56,0.83*26
$GNGSA,A,3,408,413,406,416,430,403,401,427,420,409,425,423,1.00,0.56,0.83*17
