$GPGGA,025028.00,3722.864136,N,12640.714421,E,1,30,0.4,22.7,M,17.7,M,,*5E
$PGLOR,9,STA,025028.00,0.012,0.000,-300,1,4,0,P,F,L,0,C,3,S,00100002,3,5,R,000833F4,TPEF,41,79565,LC,,,*63
$GPGSV,2,1,08,13,74,031,37,15,64,263,39,05,52,076,33,21,27,314,37*79
$GPGSV,2,2,08,29,25,245,41,30,23,050,41,02,22,155,33,24,15,189,31*7A
$GLGSV,2,1,07,66,50,020,36,81,44,215,44,67,42,296,34,76,28,097,32*65
$GLGSV,2,2,07,75,19,044,41,83,12,335,17,65,04,068,*5F
$QZGSV,1,1,03,01,77,066,32,02,21,152,33,03,18,182,31*52
$BDGSV,3,1,12,213,74,270,36,206,68,254,36,208,66,175,33,216,61,252,37*6C
$BDGSV,3,2,12,203,44,206,33,201,43,159,28,230,36,231,40,229,29,296,29*68
$BDGSV,3,3,12,220,40,291,,209,38,239,,223,34,102,,225,17,049,*64
$GAGSV,2,1,06,104,73,327,,112,37,180,31,119,31,056,33,109,29,260,30*6B
$GAGSV,2,2,06,136,23,318,29,121,14,072,34*6F
$GPGSA,A,3,02,05,13,15,21,24,29,30,,,,,1.6,0.8,1.4*34
$GNGSA,A,3,02,05,13,15,21,24,29,30,,,,,1.6,0.8,1.4*2A
$GNGSA,A,3,66,67,75,76,81,,,,,,,,1.6,0.8,1.4*2D
$QZGSA,A,3,01,02,03,,,,,,,,,,1.6,0.8,1.4*24
$IMGSA,A,3,,,,,,,,,,,,,1.6,0.8,1.4*2B
$BDGSA,A,3,201,203,206,208,213,216,229,230,,,,,1.6,0.8,1.4*28
$GAGSA,A,3,109,112,119,121,136,,,,,,,,1.6,0.8,1.4*1C
$GPRMC,025028.00,A,3722.864136,N,12640.714421,E,000.0,215.2,231119,,,A*50
$GPGGA,025029.00,3722.864136,N,12640.714421,E,1,30,0.4,22.7,M,17.7,M,,*5F
$PGLOR,9,STA,025029.00,0.012,0.000,-300,1,4,0,P,F,L,0,C,3,S,00100002,3,5,R,000833F4,TPEF,41,80565,LC,,,*64
$GPGSV,2,1,08,13,74,031,37,15,64,263,41,05,52,076,32,21,27,314,36*76
$GPGSV,2,2,08,29,25,245,41,30,23,050,40,02,22,155,33,24,15,189,31*7B
$GLGSV,2,1,07,66,50,020,35,81,44,215,44,67,42,296,34,76,28,097,31*65
$GLGSV,2,2,07,75,19,044,42,83,12,335,,65,04,068,*5A
$QZGSV,1,1,03,01,77,066,33,02,21,152,33,03,18,182,31*53
$BDGSV,3,1,12,213,74,270,39,206,68,254,37,208,66,175,33,216,61,252,37*62
$BDGSV,3,2,12,203,44,206,34,201,43,159,,230,36,231,40,229,29,295,29*66
$BDGSV,3,3,12,220,40,291,,209,38,239,,223,34,102,,225,17,049,*64
$GAGSV,2,1,06,104,73,327,35,112,37,180,31,119,31,056,33,109,29,260,30*6D
$GAGSV,2,2,06,136,23,318,29,121,14,072,34*6F
$GPGSA,A,3,02,05,13,15,21,24,29,30,,,,,1.6,0.9,1.3*32
$GNGSA,A,3,02,05,13,15,21,24,29,30,,,,,1.6,0.9,1.3*2C
$GNGSA,A,3,66,67,75,76,81,,,,,,,,1.6,0.9,1.3*2B
$QZGSA,A,3,01,02,03,,,,,,,,,,1.6,0.9,1.3*22
$IMGSA,A,3,,,,,,,,,,,,,1.6,0.9,1.3*2D
$BDGSA,A,3,203,206,208,213,216,229,230,,,,,,1.6,0.9,1.3*1D
$GAGSA,A,3,104,109,112,119,121,136,,,,,,,1.6,0.9,1.3*2F
$GPRMC,025029.00,A,3722.864136,N,12640.714421,E,000.0,215.2,231119,,,A*51
$GPGGA,025030.00,3722.864136,N,12640.714421,E,1,30,0.4,22.7,M,17.7,M,,*57
$PGLOR,9,STA,025030.00,0.012,0.000,-300,1,4,0,P,F,L,0,C,3,S,00100002,3,5,R,000833F4,TPEF,41,81565,LC,,,*6D
$GPGSV,2,1,08,13,74,031,37,15,65,263,40,05,52,076,33,21,27,314,36*77
$GPGSV,2,2,08,29,25,245,40,30,23,050,40,02,22,155,32,24,15,189,31*7B
$GLGSV,2,1,07,66,50,020,34,81,44,215,44,67,42,296,33,76,28,097,32*60
$GLGSV,2,2,07,75,19,044,41,83,12,335,,65,04,068,*59
$QZGSV,1,1,03,01,77,066,33,02,21,152,32,03,18,182,30*53
$BDGSV,3,1,12,213,74,270,38,206,68,254,37,208,66,175,33,216,61,252,36*62
$BDGSV,3,2,12,203,44,206,34,201,43,159,,230,36,231,39,229,29,295,29*68
$BDGSV,3,3,12,220,40,291,,209,38,239,,223,34,102,,225,17,049,*64
$GAGSV,2,1,06,104,73,327,35,112,37,180,30,119,31,056,32,109,29,260,40*6A
$GAGSV,2,2,06,136,23,318,29,121,14,072,34*6F
$GPGSA,A,3,02,05,13,15,21,24,29,30,,,,,1.6,0.9,1.4*35
$GNGSA,A,3,02,05,13,15,21,24,29,30,,,,,1.6,0.9,1.4*2B
$GNGSA,A,3,66,67,75,76,81,,,,,,,,1.6,0.9,1.4*2C
$QZGSA,A,3,01,02,03,,,,,,,,,,1.6,0.9,1.4*25
$IMGSA,A,3,,,,,,,,,,,,,1.6,0.9,1.4*2A
$BDGSA,A,3,203,206,208,213,216,229,230,,,,,,1.6,0.9,1.4*1A
$GAGSA,A,3,104,109,112,119,121,136,,,,,,,1.6,0.9,1.4*28
$GPRMC,025030.00,A,3722.864136,N,12640.714421,E,000.0,215.2,231119,,,A*59
$GPGGA,025031.00,3722.864136,N,12640.714421,E,1,30,0.4,22.7,M,17.7,M,,*56
$PGLOR,9,STA,025031.00,0.012,0.000,-300,1,4,0,P,F,L,0,C,3,S,00100002,3,5,R,000833F4,TPEF,41,82565,LC,,,*6F
$GPGSV,2,1,08,13,74,032,37,15,65,263,40,05,52,076,34,21,27,314,36*73
$GPGSV,2,2,08,29,25,245,40,30,23,050,40,02,22,155,32,24,15,189,30*7A
$GLGSV,2,1,07,66,50,020,34,81,44,215,43,67,42,296,35,76,28,097,34*67
$GLGSV,2,2,07,75,19,044,41,83,12,335,,65,04,068,*59
$QZGSV,1,1,03,01,77,066,32,02,21,152,31,03,18,182,30*51
$BDGSV,3,1,12,213,74,270,37,206,68,254,36,208,66,175,32,216,61,252,36*6D
$BDGSV,3,2,12,203,44,206,34,201,43,159,,230,36,231,38,229,29,295,30*61
$BDGSV,3,3,12,220,40,291,,209,38,239,,223,34,102,,225,17,049,*64
$GAGSV,2,1,06,104,73,327,35,112,37,180,30,119,31,056,32,109,29,260,39*64
$GAGSV,2,2,06,136,23,318,28,121,14,072,33*69
$GPGSA,A,3,02,05,13,15,21,24,29,30,,,,,1.6,0.9,1.3*32
$GNGSA,A,3,02,05,13,15,21,24,29,30,,,,,1.6,0.9,1.3*2C
$GNGSA,A,3,66,67,75,76,81,,,,,,,,1.6,0.9,1.3*2B
$QZGSA,A,3,01,02,03,,,,,,,,,,1.6,0.9,1.3*22
$IMGSA,A,3,,,,,,,,,,,,,1.6,0.9,1.3*2D
$BDGSA,A,3,203,206,208,213,216,229,230,,,,,,1.6,0.9,1.3*1D
$GAGSA,A,3,104,109,112,119,121,136,,,,,,,1.6,0.9,1.3*2F
$GPRMC,025031.00,A,3722.864136,N,12640.714421,E,000.0,215.2,231119,,,A*58
$GPGGA,025032.00,3722.864136,N,12640.714421,E,1,30,0.4,22.7,M,17.7,M,,*55
$PGLOR,9,STA,025032.00,0.012,0.000,-300,1,4,0,P,F,L,0,C,3,S,00100002,3,5,R,000833F4,TPEF,41,83565,LC,,,*6D
$GPGSV,2,1,08,13,74,032,37,15,65,263,40,05,52,076,33,21,27,314,35*77
$GPGSV,2,2,08,29,25,245,39,30,23,050,39,02,22,155,31,24,15,189,30*79
$GLGSV,2,1,07,66,50,020,34,81,44,215,43,67,42,296,38,76,28,097,33*6D
$GLGSV,2,2,07,75,19,044,40,83,12,335,,65,04,068,*58
$QZGSV,1,1,03,01,77,066,32,02,21,152,31,03,18,182,30*51
$BDGSV,3,1,12,213,74,270,36,206,68,254,35,208,66,175,31,216,61,252,35*6F
$BDGSV,3,2,12,203,44,206,33,201,43,159,23,230,36,231,38,229,29,295,30*67
$BDGSV,3,3,12,220,40,291,,209,38,239,,223,34,102,,225,17,049,*64
$GAGSV,2,1,06,104,73,327,34,112,36,180,30,119,31,056,34,109,29,260,38*63
$GAGSV,2,2,06,136,23,318,30,121,14,072,32*61
$GPGSA,A,3,02,05,13,15,21,24,29,30,,,,,1.5,0.9,1.3*31
$GNGSA,A,3,02,05,13,15,21,24,29,30,,,,,1.5,0.9,1.3*2F
$GNGSA,A,3,66,67,75,76,81,,,,,,,,1.5,0.9,1.3*28
$QZGSA,A,3,01,02,03,,,,,,,,,,1.5,0.9,1.3*21
$IMGSA,A,3,,,,,,,,,,,,,1.5,0.9,1.3*2E
$BDGSA,A,3,203,206,208,213,216,229,230,,,,,,1.5,0.9,1.3*1E
$GAGSA,A,3,104,109,112,119,121,136,,,,,,,1.5,0.9,1.3*2C
$GPRMC,025032.00,A,3722.864136,N,12640.714421,E,000.0,215.2,231119,,,A*5B
$GPGGA,025033.00,3722.864136,N,12640.714421,E,1,31,0.4,22.7,M,17.7,M,,*55
$PGLOR,9,STA,025033.00,0.012,0.000,-300,1,4,0,P,F,L,0,C,3,S,00100002,3,5,R,000833F4,TPEF,41,84565,LC,,,*6B
$GPGSV,2,1,08,13,74,032,36,15,65,263,39,05,52,076,33,21,27,314,35*78
$GPGSV,2,2,08,29,25,245,39,30,23,050,39,02,22,155,31,24,15,189,30*79
$GLGSV,2,1,07,66,50,020,33,81,44,215,43,67,42,296,38,76,28,097,33*6A
$GLGSV,2,2,07,75,19,044,39,83,12,335,,65,04,068,*56
$QZGSV,1,1,03,01,77,066,32,02,21,152,31,03,18,182,30*51
$BDGSV,3,1,12,213,74,270,35,206,68,254,35,208,66,175,34,216,61,252,35*69
$BDGSV,3,2,12,203,44,206,33,201,43,159,30,230,36,231,37,229,29,295,30*6A
$BDGSV,3,3,12,220,40,291,,209,38,239,,223,34,102,,225,17,049,*64
$GAGSV,2,1,06,104,73,327,34,112,36,180,30,119,31,056,34,109,29,260,37*6C
$GAGSV,2,2,06,136,23,318,30,121,14,072,31*62
$GPGSA,A,3,02,05,13,15,21,24,29,30,,,,,1.6,0.8,1.3*33
$GNGSA,A,3,02,05,13,15,21,24,29,30,,,,,1.6,0.8,1.3*2D
$GNGSA,A,3,66,67,75,76,81,,,,,,,,1.6,0.8,1.3*2A
$QZGSA,A,3,01,02,03,,,,,,,,,,1.6,0.8,1.3*23
$IMGSA,A,3,,,,,,,,,,,,,1.6,0.8,1.3*2C
$BDGSA,A,3,201,203,206,208,213,216,229,230,,,,,1.6,0.8,1.3*2F
$GAGSA,A,3,104,109,112,119,121,136,,,,,,,1.6,0.8,1.3*2E
$GPRMC,025033.00,A,3722.864136,N,12640.714421,E,000.0,215.2,231119,,,A*5A
$GPGGA,025034.00,3722.864136,N,12640.714421,E,1,30,0.4,22.7,M,17.7,M,,*53
$PGLOR,9,STA,025034.00,0.012,0.000,-300,1,4,0,P,F,L,0,C,3,S,00100002,3,5,R,000833F4,TPEF,41,85565,LC,,,*6D
$GPGSV,2,1,08,13,74,032,38,15,65,263,39,05,52,076,33,21,27,314,34*77
$GPGSV,2,2,08,29,25,245,38,30,23,050,40,02,22,155,30,24,15,189,29*7F
$GLGSV,2,1,07,66,50,020,33,81,44,215,43,67,42,296,38,76,28,097,33*6A
$GLGSV,2,2,07,75,19,044,39,83,12,335,,65,04,068,*56
$QZGSV,1,1,03,01,77,066,34,02,21,152,,03,18,182,30*55
$BDGSV,3,1,12,213,74,270,35,206,68,254,34,208,66,175,36,216,61,252,35*6A
$BDGSV,3,2,12,203,44,206,34,201,43,159,29,230,36,231,37,229,29,295,30*65
$BDGSV,3,3,12,220,40,291,,209,38,239,,223,34,102,,225,17,049,*64
$GAGSV,2,1,06,104,73,327,38,112,36,180,33,119,31,056,34,109,29,260,37*63
$GAGSV,2,2,06,136,23,318,30,121,14,072,31*62
$GPGSA,A,3,02,05,13,15,21,24,29,30,,,,,1.5,0.8,1.2*31
$GNGSA,A,3,02,05,13,15,21,24,29,30,,,,,1.5,0.8,1.2*2F
$GNGSA,A,3,66,67,75,76,81,,,,,,,,1.5,0.8,1.2*28
$QZGSA,A,3,01,03,,,,,,,,,,,1.5,0.8,1.2*23
$IMGSA,A,3,,,,,,,,,,,,,1.5,0.8,1.2*2E
$BDGSA,A,3,201,203,206,208,213,216,229,230,,,,,1.5,0.8,1.2*2D
$GAGSA,A,3,104,109,112,119,121,136,,,,,,,1.5,0.8,1.2*2C
$GPRMC,025034.00,A,3722.864136,N,12640.714421,E,000.0,215.2,231119,,,A*5D
$GPGGA,025035.00,3722.864136,N,12640.714421,E,1,29,0.4,22.7,M,17.7,M,,*5A
$PGLOR,9,STA,025035.00,0.012,0.000,-300,1,4,0,P,F,L,0,C,3,S,00100002,3,5,R,000833F4,TPEF,41,86565,LC,,,*6F
$GPGSV,2,1,08,13,74,032,39,15,65,263,39,05,52,076,33,21,27,314,33*71
$GPGSV,2,2,08,29,25,245,38,30,23,050,40,02,22,155,30,24,15,189,*74
$GLGSV,2,1,08,66,50,020,33,81,44,215,42,67,42,296,38,76,28,097,32*65
$GLGSV,2,2,08,75,19,044,38,83,12,335,,77,09,149,,65,04,068,*6D
$QZGSV,1,1,03,01,77,066,36,02,21,152,29,03,18,182,32*5E
$BDGSV,3,1,11,213,74,270,34,206,68,254,34,208,66,175,36,216,61,252,34*69
$BDGSV,3,2,11,203,44,206,32,201,43,159,28,230,36,231,36,229,29,295,30*60
$BDGSV,3,3,11,220,40,291,,209,38,239,,223,34,102,*69
$GAGSV,2,1,06,104,73,327,37,112,36,180,34,119,31,056,33,109,29,260,36*6D
$GAGSV,2,2,06,136,23,318,30,121,14,072,30*63
$GPGSA,A,3,02,05,13,15,21,29,30,,,,,,1.9,1.0,1.7*37
$GNGSA,A,3,02,05,13,15,21,29,30,,,,,,1.9,1.0,1.7*29
$GNGSA,A,3,66,67,75,76,81,,,,,,,,1.9,1.0,1.7*28
$QZGSA,A,3,01,02,03,,,,,,,,,,1.9,1.0,1.7*21
$IMGSA,A,3,,,,,,,,,,,,,1.9,1.0,1.7*2E
$BDGSA,A,3,203,206,208,213,216,229,230,,,,,,1.9,1.0,1.7*1E
$GAGSA,A,3,104,109,112,119,121,136,,,,,,,1.9,1.0,1.7*2C
$GPRMC,025035.00,A,3722.864136,N,12640.714421,E,000.0,215.2,231119,,,A*5C
$GPGGA,025036.00,3722.864136,N,12640.714421,E,1,31,0.6,22.7,M,17.7,M,,*52
$PGLOR,9,STA,025036.00,0.012,0.000,-300,1,6,0,P,F,L,0,C,3,S,00100002,3,5,R,000833F4,TPEF,41,87565,LC,,,*6F
$GPGSV,2,1,08,13,74,032,39,15,65,263,39,05,52,076,32,21,27,314,32*71
$GPGSV,2,2,08,29,25,245,37,30,23,050,39,02,22,155,29,24,15,189,*7D
$GLGSV,2,1,08,66,50,020,32,81,44,215,42,67,42,296,37,76,28,097,32*6B
$GLGSV,2,2,08,75,19,044,37,83,12,335,19,77,09,149,19,65,04,068,*62
$QZGSV,1,1,03,01,77,066,36,02,21,152,33,03,18,182,32*55
$BDGSV,3,1,11,213,74,270,32,206,68,254,33,208,66,175,35,216,61,252,34*6B
$BDGSV,3,2,11,203,44,206,32,201,43,159,29,230,36,231,34,229,29,295,*60
$BDGSV,3,3,11,220,40,291,,209,38,239,,223,34,102,*69
$GAGSV,2,1,06,104,73,327,36,112,36,180,34,119,31,056,32,109,29,260,35*6E
$GAGSV,2,2,06,136,23,318,29,121,14,072,29*63
$GPGSA,A,3,02,05,13,15,21,29,30,,,,,,2.2,1.2,1.9*33
$GNGSA,A,3,02,05,13,15,21,29,30,,,,,,2.2,1.2,1.9*2D
$GNGSA,A,3,66,67,75,76,77,81,83,,,,,,2.2,1.2,1.9*27
$QZGSA,A,3,01,02,03,,,,,,,,,,2.2,1.2,1.9*25
$IMGSA,A,3,,,,,,,,,,,,,2.2,1.2,1.9*2A
$BDGSA,A,3,201,203,206,208,213,216,230,,,,,,2.2,1.2,1.9*10
$GAGSA,A,3,104,109,112,119,121,136,,,,,,,2.2,1.2,1.9*28
$GPRMC,025036.00,A,3722.864136,N,12640.714421,E,000.0,215.2,231119,,,A*5F
$GPGGA,025037.00,3722.864136,N,12640.714421,E,1,29,0.6,22.7,M,17.7,M,,*5A
$PGLOR,9,STA,025037.00,0.012,0.000,-300,1,6,0,P,F,L,0,C,3,S,00100002,3,5,R,000833F4,TPEF,41,88565,LC,,,*61
$GPGSV,2,1,08,13,74,032,38,15,65,263,39,05,52,076,31,21,27,314,32*73
$GPGSV,2,2,08,29,25,245,37,30,23,050,39,02,22,155,28,24,15,189,*7C
$GLGSV,2,1,08,66,50,020,32,81,44,215,41,67,42,296,36,76,28,097,32*69
$GLGSV,2,2,08,75,19,044,36,83,12,335,,77,09,149,22,65,04,068,*63
$QZGSV,1,1,03,01,77,066,35,02,21,152,32,03,18,182,31*54
$BDGSV,3,1,11,213,74,270,,206,68,254,32,208,66,175,35,216,61,252,34*6B
$BDGSV,3,2,11,203,44,206,,201,43,159,29,230,36,231,33,229,29,295,27*63
$BDGSV,3,3,11,220,40,291,,209,38,239,,223,34,102,*69
$GAGSV,2,1,06,104,73,327,35,112,36,180,33,119,31,056,32,109,29,260,34*6B
$GAGSV,2,2,06,136,23,318,29,121,14,072,29*63
$GPGSA,A,3,02,05,13,15,21,29,30,,,,,,2.0,1.1,1.6*3D
$GNGSA,A,3,02,05,13,15,21,29,30,,,,,,2.0,1.1,1.6*23
$GNGSA,A,3,66,67,75,76,77,81,,,,,,,2.0,1.1,1.6*22
$QZGSA,A,3,01,02,03,,,,,,,,,,2.0,1.1,1.6*2B
$IMGSA,A,3,,,,,,,,,,,,,2.0,1.1,1.6*24
$BDGSA,A,3,201,206,208,216,229,230,,,,,,,2.0,1.1,1.6*26
$GAGSA,A,3,104,109,112,119,121,136,,,,,,,2.0,1.1,1.6*26
$GPRMC,025037.00,A,3722.864136,N,12640.714421,E,000.0,215.2,231119,,,A*5E
$GPGGA,025038.00,3722.864136,N,12640.714421,E,1,27,0.6,22.7,M,17.7,M,,*5B
$PGLOR,9,STA,025038.00,0.012,0.000,-300,1,6,0,P,F,L,0,C,3,S,00100002,3,5,R,000833F4,TPEF,41,89565,LC,,,*6F
$GPGSV,2,1,08,13,74,032,38,15,65,263,39,05,52,076,31,21,27,314,31*70
$GPGSV,2,2,08,29,25,245,36,30,23,050,38,02,22,155,27,24,15,189,*73
$GLGSV,2,1,08,66,50,020,31,81,44,215,40,67,42,296,35,76,28,097,32*68
$GLGSV,2,2,08,75,19,044,36,83,12,335,,77,09,149,,65,04,068,*63
$QZGSV,1,1,03,01,77,066,35,02,21,152,31,03,18,182,30*56
$BDGSV,3,1,11,213,74,270,,206,68,254,32,208,66,175,35,216,61,252,34*6B
$BDGSV,3,2,11,203,44,206,30,201,43,159,29,230,36,231,31,229,29,295,26*63
$BDGSV,3,3,11,220,40,291,,209,38,239,,223,34,102,*69
$GAGSV,2,1,06,104,73,327,35,112,36,180,33,119,31,056,31,109,29,260,33*6F
$GAGSV,2,2,06,136,23,318,28,121,14,072,29*62
$GPGSA,A,3,05,13,15,21,29,30,,,,,,,1.6,1.0,1.3*3E
$GNGSA,A,3,05,13,15,21,29,30,,,,,,,1.6,1.0,1.3*20
$GNGSA,A,3,66,67,75,76,81,,,,,,,,1.6,1.0,1.3*23
$QZGSA,A,3,01,02,03,,,,,,,,,,1.6,1.0,1.3*2A
$IMGSA,A,3,,,,,,,,,,,,,1.6,1.0,1.3*25
$BDGSA,A,3,201,203,206,208,216,229,,,,,,,1.6,1.0,1.3*27
$GAGSA,A,3,104,109,112,119,121,136,,,,,,,1.6,1.0,1.3*27
$GPRMC,025038.00,A,3722.864136,N,12640.714421,E,000.0,215.2,231119,,,A*51
$GPGGA,025039.00,3722.864136,N,12640.714421,E,1,28,0.4,22.7,M,17.7,M,,*57
$PGLOR,9,STA,025039.00,0.012,0.000,-300,1,4,0,P,F,L,0,C,3,S,00100002,3,5,R,000833F4,TPEF,41,90565,LC,,,*64
$GPGSV,2,1,07,13,74,032,38,15,65,263,39,05,52,076,31,21,27,314,30*7E
$GPGSV,2,2,07,29,25,245,35,30,23,050,38,02,22,155,26*4C
$GLGSV,2,1,08,66,50,021,30,81,44,215,40,67,42,296,34,76,28,097,31*6A
$GLGSV,2,2,08,75,19,044,35,83,12,335,19,77,09,149,21,65,04,068,*6B
$QZGSV,1,1,03,01,77,066,34,02,21,152,31,03,18,182,29*5F
$BDGSV,3,1,12,213,74,270,28,206,68,254,32,208,66,175,35,216,61,252,33*65
$BDGSV,3,2,12,203,44,206,29,201,43,159,,230,36,231,30,229,29,295,*66
$BDGSV,3,3,12,220,40,291,,209,38,239,,223,34,102,,225,17,049,*64
$GAGSV,2,1,06,104,73,327,34,112,36,180,33,119,31,056,31,109,29,260,32*6F
$GAGSV,2,2,06,136,23,318,27,121,14,072,29*6D
$GPGSA,A,3,05,13,15,21,29,30,,,,,,,1.5,0.9,1.2*34
$GNGSA,A,3,05,13,15,21,29,30,,,,,,,1.5,0.9,1.2*2A
$GNGSA,A,3,66,67,75,76,77,81,83,,,,,,1.5,0.9,1.2*22
$QZGSA,A,3,01,02,03,,,,,,,,,,1.5,0.9,1.2*20
$IMGSA,A,3,,,,,,,,,,,,,1.5,0.9,1.2*2F
$BDGSA,A,3,203,206,208,213,216,,,,,,,,1.5,0.9,1.2*17
$GAGSA,A,3,104,109,112,119,121,136,,,,,,,1.5,0.9,1.2*2D
$GPRMC,025039.00,A,3722.864136,N,12640.714421,E,000.0,215.2,231119,,,A*50
$GPGGA,025040.00,3722.864136,N,12640.714421,E,1,28,0.4,22.7,M,17.7,M,,*59
$PGLOR,9,STA,025040.00,0.012,0.000,-300,1,4,0,P,F,L,0,C,3,S,00100002,3,5,R,000833F4,TPEF,41,91565,LC,,,*6B
$GPGSV,2,1,07,13,74,032,37,15,65,263,40,05,52,076,31,21,27,314,30*7F
$GPGSV,2,2,07,29,25,245,35,30,23,050,37,02,22,155,25*40
$GLGSV,2,1,08,66,50,021,29,81,44,215,40,67,42,296,33,76,28,097,31*65
$GLGSV,2,2,08,75,19,044,34,83,12,335,,77,09,149,20,65,04,068,*63
$QZGSV,1,1,03,01,77,066,34,02,21,152,29,03,18,182,28*57
$BDGSV,3,1,12,213,74,270,27,206,68,254,31,208,66,175,35,216,61,252,33*69
$BDGSV,3,2,12,203,44,206,28,201,43,159,28,230,36,231,,229,29,295,24*68
$BDGSV,3,3,12,220,40,291,,209,38,239,,223,34,102,,225,17,049,*64
$GAGSV,2,1,06,104,73,327,33,112,36,180,33,119,31,056,30,109,29,260,31*6A
$GAGSV,2,2,06,136,23,318,27,121,14,072,28*6C
$GPGSA,A,3,05,13,15,21,29,30,,,,,,,1.5,0.8,1.3*34
$GNGSA,A,3,05,13,15,21,29,30,,,,,,,1.5,0.8,1.3*2A
$GNGSA,A,3,66,67,75,76,81,,,,,,,,1.5,0.8,1.3*29
$QZGSA,A,3,01,02,03,,,,,,,,,,1.5,0.8,1.3*20
$IMGSA,A,3,,,,,,,,,,,,,1.5,0.8,1.3*2F
$BDGSA,A,3,201,203,206,208,213,216,229,,,,,,1.5,0.8,1.3*1D
$GAGSA,A,3,104,109,112,119,121,136,,,,,,,1.5,0.8,1.3*2D
$GPRMC,025040.00,A,3722.864136,N,12640.714421,E,000.0,215.2,231119,,,A*5E
$GPGGA,025041.00,3722.862521,N,12640.713367,E,1,26,0.4,22.7,M,17.7,M,,*50
$PGLOR,9,STA,025041.00,0.012,0.000,-300,1,4,0,P,F,L,0,C,3,S,00100002,3,5,R,000833F4,TPEF,41,92565,LC,,,*69
$GPGSV,2,1,07,13,74,032,37,15,65,263,41,05,52,076,31,21,27,314,29*76
$GPGSV,2,2,07,29,25,245,34,30,23,050,37,02,22,155,24*40
$GLGSV,2,1,08,66,50,021,29,81,44,215,39,67,42,296,31,76,28,097,31*69
$GLGSV,2,2,08,75,19,044,34,83,12,335,,77,09,149,,65,04,068,*61
$QZGSV,1,1,03,01,77,066,34,02,21,152,29,03,18,182,27*58
$BDGSV,3,1,12,213,74,270,,206,68,254,31,208,66,175,35,216,61,252,33*6C
$BDGSV,3,2,12,203,44,206,28,201,43,159,,230,36,231,,229,29,295,24*62
$BDGSV,3,3,12,220,40,291,,209,38,239,,223,34,102,,225,17,049,*64
$GAGSV,2,1,06,104,73,327,33,112,36,180,32,119,31,056,30,109,29,260,30*6A
$GAGSV,2,2,06,136,23,318,26,121,14,072,28*6D
$GPGSA,A,3,02,05,13,15,21,29,30,,,,,,1.7,0.9,1.4*32
$GNGSA,A,3,02,05,13,15,21,29,30,,,,,,1.7,0.9,1.4*2C
$GNGSA,A,3,66,67,75,76,81,,,,,,,,1.7,0.9,1.4*2D
$QZGSA,A,3,01,02,,,,,,,,,,,1.7,0.9,1.4*27
$IMGSA,A,3,,,,,,,,,,,,,1.7,0.9,1.4*2B
$BDGSA,A,3,203,206,208,216,229,,,,,,,,1.7,0.9,1.4*1A
$GAGSA,A,3,104,109,112,119,121,136,,,,,,,1.7,0.9,1.4*29
$GPRMC,025041.00,A,3722.862521,N,12640.713367,E,000.1,215.2,231119,,,A*58
$GPGGA,025042.00,3722.862548,N,12640.713411,E,1,26,0.4,22.8,M,17.7,M,,*55
$PGLOR,9,STA,025042.00,0.012,0.000,-300,1,4,0,P,S,L,0,C,3,S,00100002,3,5,R,000833F4,TPEF,41,93565,LC,,,*7E
$GPGSV,2,1,07,13,74,032,37,15,65,263,41,05,52,076,31,21,27,314,28*77
$GPGSV,2,2,07,29,25,245,34,30,23,050,36,02,22,155,24*41
$GLGSV,2,1,08,66,50,021,28,81,44,215,39,67,42,296,30,76,28,097,30*68
$GLGSV,2,2,08,75,19,044,34,83,12,335,21,77,09,149,22,65,04,068,*62
$QZGSV,1,1,03,01,77,066,33,02,21,152,28,03,18,182,25*5C
$BDGSV,3,1,12,213,74,270,26,206,68,254,31,208,66,175,35,216,61,252,33*68
$BDGSV,3,2,12,203,44,206,27,201,43,159,,230,36,231,,229,29,295,*6B
$BDGSV,3,3,12,220,40,291,,209,38,239,,223,34,102,,225,17,049,*64
$GAGSV,2,1,06,104,73,327,32,112,36,180,32,119,31,056,30,109,29,260,29*63
$GAGSV,2,2,06,136,23,318,25,121,14,072,30*67
$GPGSA,A,3,02,05,13,15,21,29,30,,,,,,1.8,1.0,1.5*34
$GNGSA,A,3,02,05,13,15,21,29,30,,,,,,1.8,1.0,1.5*2A
$GNGSA,A,3,66,75,76,77,81,83,,,,,,,1.8,1.0,1.5*21
$QZGSA,A,3,01,02,,,,,,,,,,,1.8,1.0,1.5*21
$IMGSA,A,3,,,,,,,,,,,,,1.8,1.0,1.5*2D
$BDGSA,A,3,206,208,213,216,,,,,,,,,1.8,1.0,1.5*24
$GAGSA,A,3,104,109,112,119,121,136,,,,,,,1.8,1.0,1.5*2F
$GPRMC,025042.00,A,3722.862548,N,12640.713411,E,000.2,215.2,231119,,,A*51
$GPGGA,025043.00,3722.862533,N,12640.713450,E,1,28,0.4,22.8,M,17.7,M,,*53
$PGLOR,9,STA,025043.00,0.012,0.000,-300,1,4,0,P,F,L,0,C,3,S,00100002,3,5,R,000833F4,TPEF,41,94565,LC,,,*6D
$GPGSV,2,1,07,13,74,032,37,15,65,263,41,05,52,076,30,21,27,314,28*76
$GPGSV,2,2,07,29,25,245,34,30,23,050,36,02,22,155,24*41
$GLGSV,2,1,08,66,50,021,28,81,44,215,38,67,42,296,28,76,28,097,30*60
$GLGSV,2,2,08,75,19,044,33,83,12,335,21,77,09,149,,65,04,068,*65
$QZGSV,1,1,03,01,77,066,33,02,21,152,28,03,18,182,24*5D
$BDGSV,3,1,12,213,74,270,27,206,68,254,32,208,66,175,34,216,61,252,33*6B
$BDGSV,3,2,12,203,44,206,26,201,43,159,26,230,36,231,25,229,29,295,23*68
$BDGSV,3,3,12,220,40,291,,209,38,239,,223,34,102,,225,17,049,*64
$GAGSV,2,1,06,104,73,327,32,112,36,180,32,119,31,056,30,109,29,260,*68
$GAGSV,2,2,06,136,23,318,25,121,14,072,30*67
$GPGSA,A,3,02,05,13,15,21,29,30,,,,,,2.0,1.2,1.5*3D
$GNGSA,A,3,02,05,13,15,21,29,30,,,,,,2.0,1.2,1.5*23
$GNGSA,A,3,66,75,76,81,83,,,,,,,,2.0,1.2,1.5*28
$QZGSA,A,3,01,02,,,,,,,,,,,2.0,1.2,1.5*28
$IMGSA,A,3,,,,,,,,,,,,,2.0,1.2,1.5*24
$BDGSA,A,3,201,203,206,208,213,216,229,230,,,,,2.0,1.2,1.5*27
$GAGSA,A,3,104,112,119,121,136,,,,,,,,2.0,1.2,1.5*1E
$GPRMC,025043.00,A,3722.862533,N,12640.713450,E,000.2,215.2,231119,,,A*59
$GPGGA,025044.00,3722.862540,N,12640.713448,E,1,27,0.4,22.8,M,17.7,M,,*56
$PGLOR,9,STA,025044.00,0.012,0.000,-300,1,4,0,P,F,L,0,C,3,S,00100002,3,5,R,000833F4,TPEF,41,95565,LC,,,*6B
$GPGSV,2,1,07,13,74,032,36,15,65,263,40,05,52,076,34,21,27,314,29*73
$GPGSV,2,2,07,29,25,245,33,30,23,050,36,02,22,156,27*46
$GLGSV,2,1,08,66,50,021,27,81,44,215,38,67,42,296,33,76,28,097,30*65
$GLGSV,2,2,08,75,19,044,33,83,12,335,,77,09,149,20,65,04,068,*64
$QZGSV,1,1,03,01,77,066,32,02,21,152,27,03,18,182,23*54
$BDGSV,3,1,12,213,74,270,,206,68,254,32,208,66,175,34,216,61,252,32*6F
$BDGSV,3,2,12,203,44,206,31,201,43,159,26,230,36,231,27,229,29,295,*6D
$BDGSV,3,3,12,220,40,291,,209,38,239,,223,34,102,,225,17,049,*64
$GAGSV,2,1,06,104,73,327,31,112,36,180,31,119,31,056,30,109,29,260,27*6D
$GAGSV,2,2,06,136,23,318,24,121,14,072,29*6E
$GPGSA,A,3,02,05,13,15,21,29,30,,,,,,1.5,0.9,1.2*36
$GNGSA,A,3,02,05,13,15,21,29,30,,,,,,1.5,0.9,1.2*28
$GNGSA,A,3,66,67,75,76,81,,,,,,,,1.5,0.9,1.2*29
$QZGSA,A,3,01,02,,,,,,,,,,,1.5,0.9,1.2*23
$IMGSA,A,3,,,,,,,,,,,,,1.5,0.9,1.2*2F
$BDGSA,A,3,201,203,206,208,216,230,,,,,,,1.5,0.9,1.2*25
$GAGSA,A,3,104,109,112,119,121,136,,,,,,,1.5,0.9,1.2*2D
$GPRMC,025044.00,A,3722.862540,N,12640.713448,E,000.0,215.2,231119,,,A*51
$GPGGA,025045.00,3722.862085,N,12640.713589,E,1,28,0.4,22.8,M,17.7,M,,*58
$PGLOR,9,STA,025045.00,0.012,0.000,-300,1,4,0,P,F,L,0,C,3,S,00100002,7,5,R,000833F4,TPEF,41,96565,LC,,,*6D
$GPGSV,2,1,07,13,74,032,35,15,65,263,40,05,52,076,33,21,27,314,29*77
$GPGSV,2,2,07,29,25,245,33,30,23,050,36,02,22,156,27*46
$GLGSV,2,1,08,66,50,021,26,81,44,215,38,67,42,296,33,76,28,097,30*64
$GLGSV,2,2,08,75,19,044,33,83,12,335,20,77,09,149,,65,04,068,*64
$QZGSV,1,1,03,01,77,066,32,02,21,152,26,03,18,182,23*55
$BDGSV,3,1,12,213,74,270,24,206,68,254,31,208,66,175,34,216,61,252,32*6A
$BDGSV,3,2,12,203,44,206,31,201,43,159,,230,36,231,27,229,29,295,21*6A
$BDGSV,3,3,12,220,40,291,,209,38,239,,223,34,102,,225,17,049,*64
$GAGSV,2,1,06,104,73,327,31,112,36,180,31,119,31,056,29,109,29,260,27*65
$GAGSV,2,2,06,136,23,318,24,121,14,072,29*6E
$GPGSA,A,3,02,05,13,15,21,29,30,,,,,,1.5,0.9,1.3*37
$GNGSA,A,3,02,05,13,15,21,29,30,,,,,,1.5,0.9,1.3*29
$GNGSA,A,3,66,67,75,76,81,83,,,,,,,1.5,0.9,1.3*23
$QZGSA,A,3,01,02,,,,,,,,,,,1.5,0.9,1.3*22
$IMGSA,A,3,,,,,,,,,,,,,1.5,0.9,1.3*2E
$BDGSA,A,3,203,206,208,213,216,230,,,,,,,1.5,0.9,1.3*27
$GAGSA,A,3,104,109,112,119,121,136,,,,,,,1.5,0.9,1.3*2C
$GPRMC,025045.00,A,3722.862085,N,12640.713589,E,002.3,220.3,231119,,,A*56
$GPGGA,025046.00,3722.860234,N,12640.711786,E,1,28,0.4,23.0,M,17.7,M,,*57
$PGLOR,9,STA,025046.00,0.012,0.000,-300,1,4,0,P,F,L,0,C,3,S,00100002,11,5,R,000833F4,TPEF,41,97565,LC,,,*58
$GPGSV,2,1,07,13,74,032,35,15,65,263,39,05,52,076,32,21,27,314,29*78
$GPGSV,2,2,07,29,25,245,32,30,23,050,35,02,22,156,26*45
$GLGSV,2,1,08,66,50,021,27,81,44,215,38,67,42,296,33,76,28,097,29*6D
$GLGSV,2,2,08,75,19,044,32,83,12,335,19,77,09,149,,65,04,068,*6F
$QZGSV,1,1,03,01,77,066,31,02,21,152,26,03,18,182,22*57
$BDGSV,3,1,12,213,74,270,24,206,68,254,31,208,66,175,33,216,61,252,32*6D
$BDGSV,3,2,12,203,44,206,30,201,43,159,30,230,36,231,,229,29,295,*6E
$BDGSV,3,3,12,220,40,291,,209,38,239,,223,34,102,,225,17,049,*64
$GAGSV,2,1,06,104,73,327,30,112,36,180,31,119,31,056,28,109,29,260,*60
$GAGSV,2,2,06,136,23,318,24,121,14,072,28*6F
$GPGSA,A,3,02,05,13,15,21,29,30,,,,,,1.7,1.0,1.3*3D
$GNGSA,A,3,02,05,13,15,21,29,30,,,,,,1.7,1.0,1.3*23
$GNGSA,A,3,66,67,75,76,81,83,,,,,,,1.7,1.0,1.3*29
$QZGSA,A,3,01,02,03,,,,,,,,,,1.7,1.0,1.3*2B
$IMGSA,A,3,,,,,,,,,,,,,1.7,1.0,1.3*24
$BDGSA,A,3,201,203,206,208,213,216,,,,,,,1.7,1.0,1.3*2F
$GAGSA,A,3,104,112,119,121,136,,,,,,,,1.7,1.0,1.3*1E
$GPRMC,025046.00,A,3722.860234,N,12640.711786,E,006.3,227.6,231119,,,A*56
$GPGGA,025047.00,3722.857831,N,12640.708597,E,1,31,0.4,23.2,M,17.7,M,,*5D
$PGLOR,9,STA,025047.00,0.012,0.000,-300,1,4,0,P,F,L,0,C,3,S,00100002,18,5,R,000833F4,TPEF,41,98565,LC,,,*5F
$GPGSV,2,1,07,13,74,032,35,15,65,263,39,05,52,076,32,21,27,314,29*78
$GPGSV,2,2,07,29,25,245,32,30,23,050,34,02,22,156,26*44
$GLGSV,2,1,08,66,50,021,27,81,44,215,38,67,42,296,33,76,28,097,32*67
$GLGSV,2,2,08,75,19,044,33,83,12,335,,77,09,149,24,65,04,068,*60
$QZGSV,1,1,03,01,77,066,31,02,21,152,29,03,18,182,22*58
$BDGSV,3,1,12,213,74,270,24,206,68,254,30,208,66,175,33,216,61,252,33*6D
$BDGSV,3,2,12,203,44,206,30,201,43,159,29,230,36,231,25,229,29,295,26*65
$BDGSV,3,3,12,220,40,291,,209,38,239,,223,34,102,,225,17,049,*64
$GAGSV,2,1,06,104,73,327,29,112,36,180,30,119,31,056,28,109,29,260,25*6E
$GAGSV,2,2,06,136,23,318,24,121,14,072,28*6F
$GPGSA,A,3,02,05,13,15,21,29,30,,,,,,2.2,1.1,1.8*31
$GNGSA,A,3,02,05,13,15,21,29,30,,,,,,2.2,1.1,1.8*2F
$GNGSA,A,3,66,67,75,76,77,81,,,,,,,2.2,1.1,1.8*2E
$QZGSA,A,3,01,02,03,,,,,,,,,,2.2,1.1,1.8*27
$IMGSA,A,3,,,,,,,,,,,,,2.2,1.1,1.8*28
$BDGSA,A,3,201,203,206,208,213,216,229,230,,,,,2.2,1.1,1.8*2B
$GAGSA,A,3,104,109,112,119,121,136,,,,,,,2.2,1.1,1.8*2A
$GPRMC,025047.00,A,3722.857831,N,12640.708597,E,010.0,204.6,231119,,,A*53
$GPGGA,025048.00,3722.853190,N,12640.706100,E,1,30,0.4,23.3,M,17.7,M,,*50
$PGLOR,9,STA,025048.00,0.012,0.000,-300,1,4,0,P,F,L,0,C,3,S,00100002,27,5,R,000833F4,TPEF,41,99565,LC,,,*5D
$GPGSV,2,1,08,13,74,032,36,15,65,263,39,05,52,076,32,21,27,314,28*75
$GPGSV,2,2,08,29,25,245,32,30,23,050,33,02,22,156,27,24,15,189,30*7C
$GLGSV,2,1,08,66,50,021,29,81,44,215,38,67,42,296,33,76,28,097,34*6F
$GLGSV,2,2,08,75,19,044,34,83,12,335,,77,09,149,,65,04,068,*61
$QZGSV,1,1,03,01,77,066,33,02,21,152,29,03,18,182,21*59
$BDGSV,3,1,11,213,74,270,23,206,68,254,29,208,66,175,34,216,61,252,33*66
$BDGSV,3,2,11,203,44,206,29,201,43,159,29,230,36,231,25,229,29,295,26*6E
$BDGSV,3,3,11,220,40,291,,209,38,239,,223,34,102,*69
$GAGSV,2,1,06,104,73,327,29,112,36,180,30,119,31,056,30,109,29,260,25*67
$GAGSV,2,2,06,136,23,318,23,121,14,072,28*68
$GPGSA,A,3,02,05,13,15,21,24,29,30,,,,,2.2,1.2,1.8*34
$GNGSA,A,3,02,05,13,15,21,24,29,30,,,,,2.2,1.2,1.8*2A
$GNGSA,A,3,66,67,75,76,81,,,,,,,,2.2,1.2,1.8*2D
$QZGSA,A,3,01,02,03,,,,,,,,,,2.2,1.2,1.8*24
$IMGSA,A,3,,,,,,,,,,,,,2.2,1.2,1.8*2B
$BDGSA,A,3,201,203,206,208,213,216,229,230,,,,,2.2,1.2,1.8*28
$GAGSA,A,3,104,109,112,119,121,136,,,,,,,2.2,1.2,1.8*29
$GPRMC,025048.00,A,3722.853190,N,12640.706100,E,013.6,211.9,231119,,,A*50
$GPGGA,025049.00,3722.847717,N,12640.702195,E,1,29,0.4,23.5,M,17.7,M,,*5B
$PGLOR,9,STA,025049.00,0.012,0.000,-300,1,4,0,P,F,L,0,C,3,S,00100002,38,5,R,000833F4,TPEF,41,100565,LC,,,*63
$GPGSV,2,1,08,13,74,032,37,15,65,263,39,05,52,076,32,21,27,314,31*7C
$GPGSV,2,2,08,29,25,245,32,30,23,050,33,02,22,156,28,24,15,189,31*72
$GLGSV,2,1,08,66,50,021,30,81,44,215,38,67,42,296,35,76,28,097,36*63
$GLGSV,2,2,08,75,19,044,34,83,12,335,,77,09,149,,65,04,068,*61
$QZGSV,1,1,03,01,77,066,33,02,21,152,29,03,18,182,21*59
$BDGSV,3,1,11,213,74,270,23,206,68,254,29,208,66,175,35,216,61,252,33*67
$BDGSV,3,2,11,203,44,206,28,201,43,159,28,230,36,231,26,229,29,295,26*6D
$BDGSV,3,3,11,220,40,291,,209,38,239,,223,34,102,*69
$GAGSV,2,1,06,104,73,327,29,112,36,180,30,119,31,056,31,109,29,260,26*65
$GAGSV,2,2,06,136,23,318,23,121,14,072,28*68
$GPGSA,A,3,02,05,13,15,21,24,29,30,,,,,1.7,1.0,1.4*3C
$GNGSA,A,3,02,05,13,15,21,24,29,30,,,,,1.7,1.0,1.4*22
$GNGSA,A,3,66,67,75,76,81,,,,,,,,1.7,1.0,1.4*25
$QZGSA,A,3,01,02,03,,,,,,,,,,1.7,1.0,1.4*2C
$IMGSA,A,3,,,,,,,,,,,,,1.7,1.0,1.4*23
$BDGSA,A,3,201,206,208,213,216,229,230,,,,,,1.7,1.0,1.4*11
$GAGSA,A,3,104,109,112,119,121,136,,,,,,,1.7,1.0,1.4*21
$GPRMC,025049.00,A,3722.847717,N,12640.702195,E,016.7,214.2,231119,,,A*5F
$GPGGA,025050.00,3722.841540,N,12640.697224,E,1,29,0.8,23.6,M,17.7,M,,*5E
$PGLOR,9,STA,025050.00,0.012,0.000,-300,1,8,0,P,F,L,0,C,3,S,00100002,52,5,R,000833F4,TPEF,41,101565,LC,,,*6A
$GPGSV,2,1,08,13,74,032,37,15,65,263,39,05,52,076,32,21,27,314,34*79
$GPGSV,2,2,08,29,25,245,32,30,23,050,33,02,22,156,28,24,15,189,31*72
$GLGSV,2,1,08,66,50,021,30,81,44,215,38,67,42,296,36,76,28,097,37*61
$GLGSV,2,2,08,75,19,044,34,83,12,335,,77,09,149,,65,04,068,*61
$QZGSV,1,1,03,01,77,066,33,02,21,152,29,03,18,182,24*5C
$BDGSV,3,1,11,213,74,270,23,206,68,254,28,208,66,175,34,216,61,252,33*67
$BDGSV,3,2,11,203,44,206,,201,43,159,28,230,36,231,26,229,29,295,26*67
$BDGSV,3,3,11,220,40,291,,209,38,239,,223,34,102,*69
$GAGSV,2,1,06,104,73,327,29,112,36,180,30,119,31,056,31,109,29,260,*61
$GAGSV,2,2,06,136,23,318,23,121,14,072,29*69
$GPGSA,A,3,02,05,13,15,21,24,29,30,,,,,2.6,1.4,2.2*3F
$GNGSA,A,3,02,05,13,15,21,24,29,30,,,,,2.6,1.4,2.2*21
$GNGSA,A,3,66,67,75,76,81,,,,,,,,2.6,1.4,2.2*26
$QZGSA,A,3,01,02,03,,,,,,,,,,2.6,1.4,2.2*2F
$IMGSA,A,3,,,,,,,,,,,,,2.6,1.4,2.2*20
$BDGSA,A,3,201,206,208,213,216,229,230,,,,,,2.6,1.4,2.2*12
$GAGSA,A,3,104,112,119,121,136,,,,,,,,2.6,1.4,2.2*1A
$GPRMC,025050.00,A,3722.841540,N,12640.697224,E,021.2,216.1,231119,,,A*55
$GPGGA,025051.00,3722.835020,N,12640.691700,E,1,29,0.6,23.7,M,17.7,M,,*55
$PGLOR,9,STA,025051.00,0.012,0.000,-300,1,6,0,P,F,L,0,C,3,S,00100002,67,5,R,000833F4,TPEF,41,102565,LC,,,*60
$GPGSV,2,1,08,13,74,032,37,15,65,263,39,05,52,076,32,21,27,314,34*79
$GPGSV,2,2,08,29,25,245,32,30,23,050,34,02,22,156,27,24,15,189,31*7A
$GLGSV,2,1,07,66,50,021,30,81,44,215,38,67,42,296,36,76,28,097,37*6E
$GLGSV,2,2,07,75,19,044,34,83,12,335,,65,04,068,*5B
$QZGSV,1,1,03,01,77,066,33,02,21,152,29,03,18,182,28*50
$BDGSV,3,1,12,213,74,270,23,206,68,254,27,208,66,175,34,216,61,252,33*6B
$BDGSV,3,2,12,203,44,206,,201,43,159,28,230,36,231,28,229,29,295,29*65
$BDGSV,3,3,12,220,40,291,,209,38,239,,223,34,102,,225,17,049,*64
$GAGSV,2,1,06,104,73,327,30,112,36,180,30,119,31,056,30,109,29,260,*68
$GAGSV,2,2,06,136,23,318,27,121,14,072,29*6D
$GPGSA,A,3,02,05,13,15,21,24,29,30,,,,,1.7,1.0,1.4*3C
$GNGSA,A,3,02,05,13,15,21,24,29,30,,,,,1.7,1.0,1.4*22
$GNGSA,A,3,66,67,75,76,81,,,,,,,,1.7,1.0,1.4*25
$QZGSA,A,3,01,02,03,,,,,,,,,,1.7,1.0,1.4*2C
$IMGSA,A,3,,,,,,,,,,,,,1.7,1.0,1.4*23
$BDGSA,A,3,201,206,208,213,216,229,230,,,,,,1.7,1.0,1.4*11
$GAGSA,A,3,104,112,119,121,136,,,,,,,,1.7,1.0,1.4*19
$GPRMC,025051.00,A,3722.835020,N,12640.691700,E,023.8,216.8,231119,,,A*50
$GPGGA,025052.00,3722.828517,N,12640.686051,E,1,31,0.6,23.8,M,17.7,M,,*58
$PGLOR,9,STA,025052.00,0.012,0.000,-300,1,6,0,P,F,L,0,C,3,S,00100002,81,5,R,000833F4,TPEF,41,103565,LC,,,*6A
$GPGSV,2,1,08,13,74,032,37,15,65,263,39,05,52,076,33,21,27,314,34*78
$GPGSV,2,2,08,29,25,245,31,30,23,050,35,02,22,156,27,24,15,189,30*79
$GLGSV,2,1,07,66,50,021,30,81,44,215,37,67,42,296,36,76,28,097,37*61
$GLGSV,2,2,07,75,19,044,34,83,12,335,20,65,04,069,*58
$QZGSV,1,1,03,01,77,066,33,02,21,152,30,03,18,182,28*58
$BDGSV,3,1,12,213,74,270,22,206,68,254,27,208,66,175,34,216,61,252,33*6A
$BDGSV,3,2,12,203,44,206,25,201,43,159,27,230,36,231,29,229,29,295,29*6C
$BDGSV,3,3,12,220,40,291,,209,38,239,,223,34,102,,225,17,049,*64
$GAGSV,2,1,06,104,73,327,31,112,36,180,29,119,31,056,30,109,29,260,*61
$GAGSV,2,2,06,136,23,318,29,121,14,072,28*62
$GPGSA,A,3,02,05,13,15,21,24,29,30,,,,,1.8,1.0,1.5*32
$GNGSA,A,3,02,05,13,15,21,24,29,30,,,,,1.8,1.0,1.5*2C
$GNGSA,A,3,66,67,75,76,81,83,,,,,,,1.8,1.0,1.5*20
$QZGSA,A,3,01,02,03,,,,,,,,,,1.8,1.0,1.5*22
$IMGSA,A,3,,,,,,,,,,,,,1.8,1.0,1.5*2D
$BDGSA,A,3,201,203,206,208,213,216,229,230,,,,,1.8,1.0,1.5*2E
$GAGSA,A,3,104,112,119,121,136,,,,,,,,1.8,1.0,1.5*17
$GPRMC,025052.00,A,3722.828517,N,12640.686051,E,025.1,217.0,231119,,,A*5D
$GPGGA,025053.00,3722.822244,N,12640.680460,E,1,31,0.6,23.9,M,17.7,M,,*53
$PGLOR,9,STA,025053.00,0.012,0.000,-300,1,6,0,P,F,L,0,C,3,S,00100002,95,5,R,000833F4,TPEF,41,104565,LC,,,*69
$GPGSV,2,1,08,13,74,032,38,15,65,263,39,05,52,076,33,21,27,314,33*70
$GPGSV,2,2,08,29,25,245,31,30,23,050,36,02,22,156,27,24,15,189,30*7A
$GLGSV,2,1,07,66,50,021,30,81,44,215,37,67,42,296,36,76,28,097,36*60
$GLGSV,2,2,07,75,19,044,34,83,12,335,20,65,04,069,*58
$QZGSV,1,1,03,01,77,066,33,02,21,152,31,03,18,182,28*59
$BDGSV,3,1,12,213,74,270,23,206,68,254,27,208,66,175,34,216,61,252,32*6A
$BDGSV,3,2,12,203,44,206,25,201,43,159,,230,36,231,29,229,29,295,29*69
$BDGSV,3,3,12,220,40,291,,209,38,239,,223,34,102,,225,17,049,*64
$GAGSV,2,1,06,104,73,327,31,112,36,180,29,119,31,056,30,109,29,260,24*67
$GAGSV,2,2,06,136,23,318,31,121,14,072,28*6B
$GPGSA,A,3,02,05,13,15,21,24,29,30,,,,,1.8,1.0,1.4*33
$GNGSA,A,3,02,05,13,15,21,24,29,30,,,,,1.8,1.0,1.4*2D
$GNGSA,A,3,66,67,75,76,81,83,,,,,,,1.8,1.0,1.4*21
$QZGSA,A,3,01,02,03,,,,,,,,,,1.8,1.0,1.4*23
$IMGSA,A,3,,,,,,,,,,,,,1.8,1.0,1.4*2C
$BDGSA,A,3,203,206,208,213,216,229,230,,,,,,1.8,1.0,1.4*1C
$GAGSA,A,3,104,109,112,119,121,136,,,,,,,1.8,1.0,1.4*2E
$GPRMC,025053.00,A,3722.822244,N,12640.680460,E,025.7,217.5,231119,,,A*54
$GPGGA,025054.00,3722.816072,N,12640.674940,E,1,29,0.6,23.9,M,17.7,M,,*59
$PGLOR,9,STA,025054.00,0.012,0.000,-300,1,6,0,P,F,L,0,C,3,S,00100002,109,5,R,000833F4,TPEF,41,105565,LC,,,*5B
$GPGSV,2,1,08,13,74,032,38,15,65,263,38,05,52,076,32,21,27,314,33*70
$GPGSV,2,2,08,29,25,245,31,30,23,050,36,02,22,156,27,24,15,189,30*7A
$GLGSV,2,1,07,66,50,021,30,81,44,215,36,67,42,296,35,76,28,097,35*61
$GLGSV,2,2,07,75,19,044,34,83,12,335,23,65,04,069,*5B
$QZGSV,1,1,03,01,77,066,32,02,21,152,32,03,18,182,29*5A
$BDGSV,3,1,12,213,74,270,,206,68,254,25,208,66,175,34,216,61,252,32*69
$BDGSV,3,2,12,203,44,206,,201,43,159,27,230,36,231,29,229,29,295,28*6A
$BDGSV,3,3,12,220,40,291,,209,38,239,,223,34,102,,225,17,049,*64
$GAGSV,2,1,06,104,73,327,31,112,36,180,29,119,31,056,29,109,29,260,24*6F
$GAGSV,2,2,06,136,23,318,31,121,14,072,28*6B
$GPGSA,A,3,02,05,13,15,21,24,29,30,,,,,1.8,1.1,1.4*32
$GNGSA,A,3,02,05,13,15,21,24,29,30,,,,,1.8,1.1,1.4*2C
$GNGSA,A,3,66,67,75,76,81,83,,,,,,,1.8,1.1,1.4*20
$QZGSA,A,3,01,02,03,,,,,,,,,,1.8,1.1,1.4*22
$IMGSA,A,3,,,,,,,,,,,,,1.8,1.1,1.4*2D
$BDGSA,A,3,201,208,216,229,230,,,,,,,,1.8,1.1,1.4*1B
$GAGSA,A,3,104,109,112,119,121,136,,,,,,,1.8,1.1,1.4*2F
$GPRMC,025054.00,A,3722.816072,N,12640.674940,E,025.9,217.1,231119,,,A*5D
$GPGGA,025055.00,3722.809923,N,12640.669358,E,1,29,0.4,23.9,M,17.7,M,,*56
$PGLOR,9,STA,025055.00,0.012,0.000,-300,1,4,0,P,F,L,0,C,3,S,00100002,123,5,R,000833F4,TPEF,41,106565,LC,,,*53
$GPGSV,2,1,08,13,74,032,38,15,65,263,38,05,52,076,31,21,27,314,33*73
$GPGSV,2,2,08,29,25,245,30,30,23,050,36,02,22,156,27,24,15,189,30*7B
$GLGSV,2,1,07,66,50,021,33,81,44,215,36,67,42,296,35,76,28,097,35*62
$GLGSV,2,2,07,75,19,044,33,83,12,335,,65,04,069,*5D
$QZGSV,1,1,03,01,77,066,32,02,21,152,33,03,18,182,29*5B
$BDGSV,3,1,12,213,74,270,,206,68,254,,208,66,175,34,216,61,252,31*6D
$BDGSV,3,2,12,203,44,206,23,201,43,159,26,230,36,231,31,229,29,295,28*63
$BDGSV,3,3,12,220,40,291,,209,38,239,,223,34,102,,225,17,049,*64
$GAGSV,2,1,06,104,73,327,31,112,36,180,29,119,31,056,28,109,29,260,25*6F
$GAGSV,2,2,06,136,23,318,31,121,14,072,28*6B
$GPGSA,A,3,02,05,13,15,21,24,29,30,,,,,1.5,0.9,1.3*31
$GNGSA,A,3,02,05,13,15,21,24,29,30,,,,,1.5,0.9,1.3*2F
$GNGSA,A,3,66,67,75,76,81,,,,,,,,1.5,0.9,1.3*28
$QZGSA,A,3,01,02,03,,,,,,,,,,1.5,0.9,1.3*21
$IMGSA,A,3,,,,,,,,,,,,,1.5,0.9,1.3*2E
$BDGSA,A,3,201,203,208,216,229,230,,,,,,,1.5,0.9,1.3*29
$GAGSA,A,3,104,109,112,119,121,136,,,,,,,1.5,0.9,1.3*2C
$GPRMC,025055.00,A,3722.809923,N,12640.669358,E,026.1,217.3,231119,,,A*59
$GPGGA,025056.00,3722.803821,N,12640.663852,E,1,30,0.6,23.9,M,17.7,M,,*5D
$PGLOR,9,STA,025056.00,0.012,0.000,-300,1,6,0,P,F,L,0,C,3,S,00100002,137,5,R,000833F4,TPEF,41,107565,LC,,,*56
$GPGSV,2,1,08,13,74,032,38,15,65,263,38,05,52,076,30,21,27,314,33*72
$GPGSV,2,2,08,29,25,245,30,30,23,050,36,02,22,156,27,24,15,189,30*7B
$GLGSV,2,1,07,66,50,021,34,81,44,215,35,67,42,296,34,76,28,097,34*66
$GLGSV,2,2,07,75,19,044,33,83,12,335,21,65,04,069,*5E
$QZGSV,1,1,03,01,77,066,33,02,21,152,33,03,18,182,29*5A
$BDGSV,3,1,12,213,74,270,,206,68,254,24,208,66,175,34,216,61,252,31*6B
$BDGSV,3,2,12,203,44,206,23,201,43,159,26,230,36,231,31,229,29,295,28*63
$BDGSV,3,3,12,220,40,291,,209,38,239,,223,34,102,,225,17,049,*64
$GAGSV,2,1,06,104,73,327,31,112,36,180,29,119,31,056,27,109,29,260,24*61
$GAGSV,2,2,06,136,23,318,31,121,14,072,28*6B
$GPGSA,A,3,02,05,13,15,21,24,29,30,,,,,1.8,1.1,1.4*32
$GNGSA,A,3,02,05,13,15,21,24,29,30,,,,,1.8,1.1,1.4*2C
$GNGSA,A,3,66,67,75,76,81,,,,,,,,1.8,1.1,1.4*2B
$QZGSA,A,3,01,02,03,,,,,,,,,,1.8,1.1,1.4*22
$IMGSA,A,3,,,,,,,,,,,,,1.8,1.1,1.4*2D
$BDGSA,A,3,201,203,206,208,216,229,230,,,,,,1.8,1.1,1.4*1E
$GAGSA,A,3,104,109,112,119,121,136,,,,,,,1.8,1.1,1.4*2F
$GPRMC,025056.00,A,3722.803821,N,12640.663852,E,026.1,217.3,231119,,,A*58
$GPGGA,025057.00,3722.797765,N,12640.658381,E,1,28,0.4,23.9,M,17.7,M,,*57
$PGLOR,9,STA,025057.00,0.012,0.000,-300,1,4,0,P,F,L,0,C,3,S,00100002,151,5,R,000833F4,TPEF,41,108565,LC,,,*5A
$GPGSV,2,1,08,13,74,032,38,15,65,263,38,05,52,076,29,21,27,314,33*7A
$GPGSV,2,2,08,29,25,245,29,30,23,050,36,02,22,156,28,24,15,189,30*7C
$GLGSV,2,1,07,66,50,021,34,81,44,215,35,67,42,296,33,76,28,097,33*66
$GLGSV,2,2,07,75,19,044,33,83,12,335,,65,04,069,*5D
$QZGSV,1,1,03,01,77,066,32,02,21,152,34,03,18,182,30*54
$BDGSV,3,1,12,213,74,270,,206,68,254,,208,66,175,34,216,61,252,30*6C
$BDGSV,3,2,12,203,44,206,23,201,43,159,26,230,36,231,31,229,29,295,28*63
$BDGSV,3,3,12,220,40,291,,209,38,239,,223,34,102,,225,17,049,*64
$GAGSV,2,1,06,104,73,327,31,112,36,180,29,119,31,056,26,109,29,260,25*61
$GAGSV,2,2,06,136,23,318,31,121,14,072,28*6B
$GPGSA,A,3,02,05,13,15,21,24,29,30,,,,,1.5,0.9,1.3*31
$GNGSA,A,3,02,05,13,15,21,24,29,30,,,,,1.5,0.9,1.3*2F
$GNGSA,A,3,66,67,75,76,81,,,,,,,,1.5,0.9,1.3*28
$QZGSA,A,3,01,02,03,,,,,,,,,,1.5,0.9,1.3*21
$IMGSA,A,3,,,,,,,,,,,,,1.5,0.9,1.3*2E
$BDGSA,A,3,201,203,208,216,229,230,,,,,,,1.5,0.9,1.3*29
$GAGSA,A,3,104,109,112,121,136,,,,,,,,1.5,0.9,1.3*15
$GPRMC,025057.00,A,3722.797765,N,12640.658381,E,026.2,217.3,231119,,,A*5A
$GPGGA,025058.00,3722.791674,N,12640.653100,E,1,27,0.4,23.9,M,17.7,M,,*50
$PGLOR,9,STA,025058.00,0.012,0.000,-300,1,4,0,P,F,L,0,C,3,S,00100002,165,5,R,000833F4,TPEF,41,109565,LC,,,*53
$GPGSV,2,1,08,13,74,032,37,15,65,263,37,05,52,076,,21,27,314,33*71
$GPGSV,2,2,08,29,25,245,29,30,23,050,36,02,22,156,28,24,15,189,31*7D
$GLGSV,2,1,08,66,50,021,33,81,44,215,34,67,42,296,33,76,28,097,33*6F
$GLGSV,2,2,08,75,19,044,33,83,12,335,20,77,09,149,15,65,04,069,*61
$QZGSV,1,1,03,01,77,066,32,02,21,152,34,03,18,182,30*54
$BDGSV,3,1,11,213,74,270,22,206,68,254,,208,66,175,33,216,61,252,30*68
$BDGSV,3,2,11,203,44,206,,201,43,159,,230,36,231,31,229,29,295,28*65
$BDGSV,3,3,11,220,40,291,,209,38,239,,223,34,102,*69
$GAGSV,2,1,06,104,73,327,30,112,36,180,28,119,31,056,25,109,29,260,32*64
$GAGSV,2,2,06,136,23,318,31,121,14,072,27*64
$GPGSA,A,3,02,13,15,21,24,29,30,,,,,,1.6,0.9,1.4*30
$GNGSA,A,3,02,13,15,21,24,29,30,,,,,,1.6,0.9,1.4*2E
$GNGSA,A,3,66,67,75,76,81,83,,,,,,,1.6,0.9,1.4*27
$QZGSA,A,3,01,02,03,,,,,,,,,,1.6,0.9,1.4*25
$IMGSA,A,3,,,,,,,,,,,,,1.6,0.9,1.4*2A
$BDGSA,A,3,208,213,216,229,230,,,,,,,,1.6,0.9,1.4*1F
$GAGSA,A,3,104,109,112,121,136,,,,,,,,1.6,0.9,1.4*11
$GPRMC,025058.00,A,3722.791674,N,12640.653100,E,026.1,217.2,231119,,,A*50
$GPGGA,025059.00,3722.785811,N,12640.647661,E,1,28,0.4,24.0,M,17.7,M,,*5D
$PGLOR,9,STA,025059.00,0.012,0.000,-300,1,4,0,P,F,L,0,C,3,S,00100002,178,5,R,000833F4,TPEF,41,110565,LC,,,*56
$GPGSV,2,1,08,13,74,032,37,15,65,263,37,05,52,076,,21,27,314,32*70
$GPGSV,2,2,08,29,25,245,28,30,23,050,35,02,22,156,28,24,15,189,31*7F
$GLGSV,2,1,08,66,50,021,33,81,44,215,34,67,42,296,33,76,28,097,32*6E
$GLGSV,2,2,08,75,19,044,32,83,12,335,,77,09,149,19,65,04,069,*6E
$QZGSV,1,1,03,01,77,066,31,02,21,152,34,03,18,182,30*57
$BDGSV,3,1,11,213,74,270,25,206,68,254,,208,66,175,33,216,61,252,30*6F
$BDGSV,3,2,11,203,44,206,,201,43,159,24,230,36,231,31,229,29,295,27*6C
$BDGSV,3,3,11,220,40,291,,209,38,239,,223,34,102,*69
$GAGSV,2,1,06,104,73,327,29,112,36,180,28,119,31,056,24,109,29,260,31*6E
$GAGSV,2,2,06,136,23,318,31,121,14,072,27*64
$GPGSA,A,3,02,13,15,21,24,29,30,,,,,,1.6,0.8,1.4*31
$GNGSA,A,3,02,13,15,21,24,29,30,,,,,,1.6,0.8,1.4*2F
$GNGSA,A,3,66,67,75,76,77,81,,,,,,,1.6,0.8,1.4*2D
$QZGSA,A,3,01,02,03,,,,,,,,,,1.6,0.8,1.4*24
$IMGSA,A,3,,,,,,,,,,,,,1.6,0.8,1.4*2B
$BDGSA,A,3,201,208,213,216,229,230,,,,,,,1.6,0.8,1.4*2D
$GAGSA,A,3,104,109,112,121,136,,,,,,,,1.6,0.8,1.4*10
$GPRMC,025059.00,A,3722.785811,N,12640.647661,E,026.2,217.8,231119,,,A*55
$GPGGA,025100.00,3722.780163,N,12640.641842,E,1,28,0.4,24.0,M,17.7,M,,*50
$PGLOR,9,STA,025100.00,0.012,0.000,-300,1,4,0,P,F,L,0,C,3,S,00100002,192,5,R,000833F4,TPEF,41,111565,LC,,,*5E
$GPGSV,2,1,08,13,74,032,37,15,65,263,36,05,52,076,,21,27,314,32*71
$GPGSV,2,2,08,29,25,245,28,30,23,050,35,02,22,156,27,24,15,189,31*70
$GLGSV,2,1,08,66,50,021,32,81,44,215,33,67,42,296,33,76,28,097,31*6B
$GLGSV,2,2,08,75,19,044,32,83,12,335,23,77,09,149,,65,04,069,*67
$QZGSV,1,1,03,01,77,066,31,02,21,152,34,03,18,182,29*5F
$BDGSV,3,1,11,213,74,270,25,206,68,254,21,208,66,175,33,216,61,252,30*6C
$BDGSV,3,2,11,203,44,206,,201,43,159,23,230,36,231,30,229,29,295,27*6A
$BDGSV,3,3,11,220,40,291,,209,38,239,,223,34,102,*69
$GAGSV,2,1,06,104,73,327,29,112,36,180,28,119,31,056,23,109,29,260,31*69
$GAGSV,2,2,06,136,23,318,30,121,14,072,27*65
$GPGSA,A,3,02,13,15,21,24,29,30,,,,,,1.6,0.8,1.4*31
$GNGSA,A,3,02,13,15,21,24,29,30,,,,,,1.6,0.8,1.4*2F
$GNGSA,A,3,66,67,75,76,81,83,,,,,,,1.6,0.8,1.4*26
$QZGSA,A,3,01,02,03,,,,,,,,,,1.6,0.8,1.4*24
$IMGSA,A,3,,,,,,,,,,,,,1.6,0.8,1.4*2B
$BDGSA,A,3,201,206,208,213,216,229,230,,,,,,1.6,0.8,1.4*19
$GAGSA,A,3,104,109,112,121,136,,,,,,,,1.6,0.8,1.4*10
$GPRMC,025100.00,A,3722.780163,N,12640.641842,E,026.2,217.6,231119,,,A*56
$GPGGA,025101.00,3722.774521,N,12640.635974,E,1,28,0.4,24.0,M,17.7,M,,*5F
$PGLOR,9,STA,025101.00,0.012,0.000,-300,1,4,0,P,F,L,0,C,3,S,00100002,205,5,R,000833F4,TPEF,41,112565,LC,,,*51
$GPGSV,2,1,08,13,74,032,37,15,65,263,36,05,52,076,,21,27,314,33*70
$GPGSV,2,2,08,29,25,245,27,30,23,050,35,02,22,156,27,24,15,189,31*7F
$GLGSV,2,1,08,66,50,021,31,81,44,215,33,67,42,296,33,76,29,097,30*68
$GLGSV,2,2,08,75,19,044,31,83,12,335,28,77,09,149,26,65,04,069,*6B
$QZGSV,1,1,03,01,77,066,30,02,21,152,34,03,18,182,29*5E
$BDGSV,3,1,11,213,74,270,,206,68,254,20,208,66,175,33,216,61,252,30*6A
$BDGSV,3,2,11,203,44,206,23,201,43,159,26,230,36,231,30,229,29,295,27*6E
$BDGSV,3,3,11,220,40,291,,209,38,239,,223,34,102,*69
$GAGSV,2,1,06,104,73,327,30,112,36,180,30,119,31,056,22,109,29,260,30*68
$GAGSV,2,2,06,136,23,318,31,121,14,072,27*64
$GPGSA,A,3,02,13,15,21,24,29,30,,,,,,1.5,0.9,1.3*34
$GNGSA,A,3,02,13,15,21,24,29,30,,,,,,1.5,0.9,1.3*2A
$GNGSA,A,3,66,67,75,76,77,81,83,,,,,,1.5,0.9,1.3*23
$QZGSA,A,3,01,02,03,,,,,,,,,,1.5,0.9,1.3*21
$IMGSA,A,3,,,,,,,,,,,,,1.5,0.9,1.3*2E
$BDGSA,A,3,201,203,208,216,229,230,,,,,,,1.5,0.9,1.3*29
$GAGSA,A,3,104,109,112,121,136,,,,,,,,1.5,0.9,1.3*15
$GPRMC,025101.00,A,3722.774521,N,12640.635974,E,026.2,217.4,231119,,,A*5B
$GPGGA,025102.00,3722.768758,N,12640.630446,E,1,25,0.4,24.1,M,17.7,M,,*58
$PGLOR,9,STA,025102.00,0.012,0.000,-300,1,4,0,P,F,L,0,C,3,S,00100182,219,5,R,000833F4,TPEF,41,113565,LC,,,*57
$GPGSV,2,1,08,13,74,032,37,15,65,263,36,21,27,314,33,29,25,245,26*78
$GPGSV,2,2,08,30,23,050,35,02,22,156,28,24,15,189,31,05,52,076,*79
$GLGSV,2,1,08,66,50,021,30,81,44,215,32,67,42,296,33,76,29,097,30*68
$GLGSV,2,2,08,75,19,044,31,83,12,335,,77,09,149,,65,04,069,*65
$QZGSV,1,1,03,01,77,066,30,02,21,152,33,03,18,182,29*59
$BDGSV,3,1,11,213,74,270,24,206,68,254,20,208,66,175,33,216,61,252,30*6C
$BDGSV,3,2,11,203,44,206,23,201,43,159,,230,36,231,30,229,29,295,27*6A
$BDGSV,3,3,11,220,40,291,,209,38,239,,223,34,102,*69
$GAGSV,2,1,06,104,73,327,,112,36,180,30,119,31,056,22,109,29,260,*68
$GAGSV,2,2,06,136,23,318,31,121,14,072,27*64
$GPGSA,A,3,02,13,15,21,24,29,30,,,,,,1.5,0.8,1.3*35
$GNGSA,A,3,02,13,15,21,24,29,30,,,,,,1.5,0.8,1.3*2B
$GNGSA,A,3,66,67,75,76,81,,,,,,,,1.5,0.8,1.3*29
$QZGSA,A,3,01,02,03,,,,,,,,,,1.5,0.8,1.3*20
$IMGSA,A,3,,,,,,,,,,,,,1.5,0.8,1.3*2F
$BDGSA,A,3,203,206,208,213,216,229,230,,,,,,1.5,0.8,1.3*1F
$GAGSA,A,3,112,121,136,,,,,,,,,,1.5,0.8,1.3*19
$GPRMC,025102.00,A,3722.768758,N,12640.630446,E,026.2,217.4,231119,,,A*50
$GPGGA,025103.00,3722.763019,N,12640.624924,E,1,26,0.3,24.1,M,17.7,M,,*58
$PGLOR,9,STA,025103.00,0.012,0.000,-300,1,3,0,P,F,L,0,C,3,S,00100182,232,5,R,000833F4,TPEF,41,114565,LC,,,*5F
$GPGSV,2,1,08,13,74,032,36,15,65,263,35,21,27,314,33,29,25,245,26*7A
$GPGSV,2,2,08,30,23,050,35,02,22,156,28,24,15,189,31,05,52,076,*79
$GLGSV,2,1,08,66,50,021,29,81,44,215,32,67,42,296,33,76,29,097,30*60
$GLGSV,2,2,08,75,19,044,30,83,12,335,,77,09,149,,65,04,069,*64
$QZGSV,1,1,03,01,77,066,29,02,21,152,33,03,18,182,29*51
$BDGSV,3,1,11,213,74,270,24,206,68,254,,208,66,175,33,216,61,252,30*6E
$BDGSV,3,2,11,203,44,206,23,201,43,159,27,230,36,231,30,229,29,295,29*61
$BDGSV,3,3,11,220,40,291,,209,38,239,,223,34,102,*69
$GAGSV,2,1,06,104,73,327,27,112,36,180,31,119,31,056,21,109,29,260,27*6A
$GAGSV,2,2,06,136,23,318,31,121,14,072,27*64
$GPGSA,A,3,02,13,15,21,24,29,30,,,,,,1.5,0.8,1.2*34
$GNGSA,A,3,02,13,15,21,24,29,30,,,,,,1.5,0.8,1.2*2A
$GNGSA,A,3,66,67,75,76,81,,,,,,,,1.5,0.8,1.2*28
$QZGSA,A,3,01,02,03,,,,,,,,,,1.5,0.8,1.2*21
$IMGSA,A,3,,,,,,,,,,,,,1.5,0.8,1.2*2E
$BDGSA,A,3,201,203,208,213,216,229,230,,,,,,1.5,0.8,1.2*19
$GAGSA,A,3,109,112,121,136,,,,,,,,,1.5,0.8,1.2*20
$GPRMC,025103.00,A,3722.763019,N,12640.624924,E,026.2,217.3,231119,,,A*53
$GPGGA,025104.00,3722.757264,N,12640.619389,E,1,26,0.3,24.1,M,17.7,M,,*53
$PGLOR,9,STA,025104.00,0.012,0.000,-300,1,3,0,P,F,L,0,C,3,S,00100182,246,5,R,000833F4,TPEF,41,115565,LC,,,*5A
$GPGSV,2,1,08,13,74,032,36,15,65,263,35,05,52,076,28,21,27,314,33*78
$GPGSV,2,2,08,29,25,245,26,30,23,050,35,02,22,156,28,24,15,189,31*71
$GLGSV,2,1,08,66,50,021,29,81,44,215,32,67,42,296,33,76,29,097,29*68
$GLGSV,2,2,08,75,19,044,29,83,12,335,,77,09,149,,65,04,069,*6C
$QZGSV,1,1,03,01,77,066,29,02,21,152,33,03,18,182,29*51
$BDGSV,3,1,11,213,74,270,,206,68,254,,208,66,175,33,216,61,252,30*68
$BDGSV,3,2,11,203,44,206,28,201,43,159,,230,36,231,30,229,29,295,30*67
$BDGSV,3,3,11,220,40,291,,209,38,239,,223,34,102,*69
$GAGSV,2,1,06,104,73,327,27,112,36,180,31,119,31,056,21,109,29,260,27*6A
$GAGSV,2,2,06,136,23,318,31,121,14,072,27*64
$GPGSA,A,3,02,05,13,15,21,24,29,30,,,,,1.5,0.8,1.2*31
$GNGSA,A,3,02,05,13,15,21,24,29,30,,,,,1.5,0.8,1.2*2F
$GNGSA,A,3,66,67,75,76,81,,,,,,,,1.5,0.8,1.2*28
$QZGSA,A,3,01,02,03,,,,,,,,,,1.5,0.8,1.2*21
$IMGSA,A,3,,,,,,,,,,,,,1.5,0.8,1.2*2E
$BDGSA,A,3,203,208,216,229,230,,,,,,,,1.5,0.8,1.2*1A
$GAGSA,A,3,104,109,112,121,136,,,,,,,,1.5,0.8,1.2*15
$GPRMC,025104.00,A,3722.757264,N,12640.619389,E,026.1,217.3,231119,,,A*5B
$GPGGA,025105.00,3722.751505,N,12640.613913,E,1,27,0.3,24.2,M,17.7,M,,*55
$PGLOR,9,STA,025105.00,0.012,0.000,-300,1,3,0,P,F,L,0,C,3,S,00100182,259,5,R,000833F4,TPEF,41,116565,LC,,,*56
$GPGSV,2,1,08,13,74,032,36,15,65,263,35,05,52,076,28,21,27,314,33*78
$GPGSV,2,2,08,29,25,245,25,30,23,050,35,02,22,156,28,24,15,189,31*72
$GLGSV,2,1,08,66,50,021,28,81,44,215,32,67,42,296,33,76,29,097,29*69
$GLGSV,2,2,08,75,19,044,28,83,12,335,,77,09,148,,65,04,069,*6C
$QZGSV,1,1,03,01,77,066,29,02,21,152,33,03,18,182,28*50
$BDGSV,3,1,11,213,74,270,,206,68,254,,208,66,175,34,216,61,252,30*6F
$BDGSV,3,2,11,203,44,206,,201,43,159,25,230,36,231,30,229,29,295,30*6A
$BDGSV,3,3,11,220,40,291,,209,38,239,,223,34,102,*69
$GAGSV,2,1,06,104,73,327,26,112,36,180,31,119,31,056,20,109,29,260,27*6A
$GAGSV,2,2,06,136,23,318,31,121,14,072,27*64
$GPGSA,A,3,02,05,13,15,21,24,29,30,,,,,1.7,1.1,1.3*3A
$GNGSA,A,3,02,05,13,15,21,24,29,30,,,,,1.7,1.1,1.3*24
$GNGSA,A,3,66,67,75,76,81,,,,,,,,1.7,1.1,1.3*23
$QZGSA,A,3,01,02,03,,,,,,,,,,1.7,1.1,1.3*2A
$IMGSA,A,3,,,,,,,,,,,,,1.7,1.1,1.3*25
$BDGSA,A,3,201,208,216,229,230,,,,,,,,1.7,1.1,1.3*13
$GAGSA,A,3,104,109,112,121,136,,,,,,,,1.7,1.1,1.3*1E
$GPRMC,025105.00,A,3722.751505,N,12640.613913,E,026.1,217.6,231119,,,A*5A
$GPGGA,025106.00,3722.745662,N,12640.608283,E,1,26,0.3,24.2,M,17.7,M,,*58
$PGLOR,9,STA,025106.00,0.012,0.000,-300,1,3,0,P,F,L,0,C,3,S,00100182,273,5,R,000833F4,TPEF,41,117565,LC,,,*5C
$GPGSV,2,1,08,13,74,032,36,15,65,263,35,05,52,076,29,21,27,314,34*7E
$GPGSV,2,2,08,29,25,245,25,30,23,050,35,02,22,156,28,24,15,189,31*72
$GLGSV,2,1,08,66,50,021,27,81,44,215,32,67,42,296,33,76,29,097,29*66
$GLGSV,2,2,08,75,19,044,28,83,12,335,,77,09,148,,65,04,069,*6C
$QZGSV,1,1,03,01,77,066,28,02,21,152,33,03,18,182,28*51
$BDGSV,3,1,11,213,74,270,21,206,68,254,,208,66,175,34,216,61,252,30*6C
$BDGSV,3,2,11,203,44,206,25,201,43,159,,230,36,231,30,229,29,295,30*6A
$BDGSV,3,3,11,220,40,291,,209,38,239,,223,34,102,*69
$GAGSV,2,1,06,104,73,327,26,112,36,180,30,119,31,056,20,109,29,260,28*64
$GAGSV,2,2,06,136,23,318,31,121,14,072,26*65
$GPGSA,A,3,02,05,13,15,21,24,29,30,,,,,1.6,0.9,1.4*35
$GNGSA,A,3,02,05,13,15,21,24,29,30,,,,,1.6,0.9,1.4*2B
$GNGSA,A,3,66,67,75,76,81,,,,,,,,1.6,0.9,1.4*2C
$QZGSA,A,3,01,02,03,,,,,,,,,,1.6,0.9,1.4*25
$IMGSA,A,3,,,,,,,,,,,,,1.6,0.9,1.4*2A
$BDGSA,A,3,208,216,229,230,,,,,,,,,1.6,0.9,1.4*2F
$GAGSA,A,3,104,109,112,121,136,,,,,,,,1.6,0.9,1.4*11
$GPRMC,025106.00,A,3722.745662,N,12640.608283,E,026.2,217.6,231119,,,A*55
$GPGGA,025107.00,3722.739840,N,12640.602578,E,1,28,0.3,24.3,M,17.7,M,,*5A
$PGLOR,9,STA,025107.00,0.012,0.000,-300,1,3,0,P,F,L,0,C,3,S,00100182,286,5,R,000833F4,TPEF,41,118565,LC,,,*58
$GPGSV,2,1,08,13,74,032,36,15,65,263,35,05,52,076,30,21,27,314,34*76
$GPGSV,2,2,08,29,25,245,24,30,23,050,35,02,22,156,28,24,15,189,30*72
$GLGSV,2,1,07,66,50,021,27,81,44,215,31,67,42,296,33,76,29,097,29*6A
$GLGSV,2,2,07,75,19,044,27,83,12,335,,65,04,069,*58
$QZGSV,1,1,03,01,77,066,28,02,21,152,33,03,18,182,28*51
$BDGSV,3,1,12,213,74,270,23,206,68,254,17,208,66,175,34,216,61,252,30*6B
$BDGSV,3,2,12,203,44,206,,201,43,159,24,230,36,231,30,229,29,295,30*68
$BDGSV,3,3,12,220,40,291,,209,38,239,,223,34,102,,225,17,049,*64
$GAGSV,2,1,06,104,73,328,26,112,36,180,30,119,31,056,19,109,30,260,28*69
$GAGSV,2,2,06,136,23,318,31,121,14,072,26*65
$GPGSA,A,3,02,05,13,15,21,24,29,30,,,,,1.5,0.9,1.3*31
$GNGSA,A,3,02,05,13,15,21,24,29,30,,,,,1.5,0.9,1.3*2F
$GNGSA,A,3,66,67,75,76,81,,,,,,,,1.5,0.9,1.3*28
$QZGSA,A,3,01,02,03,,,,,,,,,,1.5,0.9,1.3*21
$IMGSA,A,3,,,,,,,,,,,,,1.5,0.9,1.3*2E
$BDGSA,A,3,201,208,213,216,229,230,,,,,,,1.5,0.9,1.3*28
$GAGSA,A,3,104,109,112,121,136,,,,,,,,1.5,0.9,1.3*15
$GPRMC,025107.00,A,3722.739840,N,12640.602578,E,026.2,217.7,231119,,,A*59
$GPGGA,025108.00,3722.734110,N,12640.596830,E,1,28,0.3,24.4,M,17.7,M,,*5C
$PGLOR,9,STA,025108.00,0.012,0.000,-300,1,3,0,P,F,L,0,C,3,S,00100182,300,5,R,000833F4,TPEF,41,119565,LC,,,*59
$GPGSV,2,1,08,13,74,032,36,15,65,263,34,05,52,076,30,21,27,314,33*70
$GPGSV,2,2,08,29,25,245,24,30,23,050,35,02,21,156,28,24,15,189,30*71
$GLGSV,2,1,07,66,50,021,26,81,44,215,31,67,42,296,33,76,29,097,29*6B
$GLGSV,2,2,07,75,19,044,27,83,12,335,,65,04,069,*58
$QZGSV,1,1,03,01,77,066,27,02,21,152,33,03,18,182,27*51
$BDGSV,3,1,12,213,74,270,23,206,68,255,20,208,66,175,34,216,61,252,30*6E
$BDGSV,3,2,12,203,44,206,,201,43,159,25,230,36,231,29,229,29,295,30*61
$BDGSV,3,3,12,220,40,291,,209,38,239,,223,34,102,,225,17,049,*64
$GAGSV,2,1,06,104,73,328,26,112,36,180,30,119,31,056,19,109,30,260,28*69
$GAGSV,2,2,06,136,23,318,31,121,14,072,27*64
$GPGSA,A,3,02,05,13,15,21,24,29,30,,,,,1.5,0.9,1.2*30
$GNGSA,A,3,02,05,13,15,21,24,29,30,,,,,1.5,0.9,1.2*2E
$GNGSA,A,3,66,67,75,76,81,,,,,,,,1.5,0.9,1.2*29
$QZGSA,A,3,01,02,03,,,,,,,,,,1.5,0.9,1.2*20
$IMGSA,A,3,,,,,,,,,,,,,1.5,0.9,1.2*2F
$BDGSA,A,3,201,206,208,216,229,230,,,,,,,1.5,0.9,1.2*2D
$GAGSA,A,3,104,109,112,121,136,,,,,,,,1.5,0.9,1.2*14
$GPRMC,025108.00,A,3722.734110,N,12640.596830,E,026.2,217.7,231119,,,A*58
$GPGGA,025109.00,3722.728361,N,12640.591119,E,1,27,0.3,24.4,M,17.7,M,,*5E
$PGLOR,9,STA,025109.00,0.012,0.000,-300,1,3,0,P,F,L,0,C,3,S,00100182,313,5,R,000833F4,TPEF,41,120565,LC,,,*50
$GPGSV,2,1,08,13,74,032,36,15,65,263,34,05,52,076,30,21,27,314,33*70
$GPGSV,2,2,08,29,25,245,24,30,23,050,35,02,21,156,28,24,15,189,30*71
$GLGSV,2,1,07,66,50,021,27,81,44,215,31,67,42,296,33,76,29,097,31*63
$GLGSV,2,2,07,75,19,044,29,83,12,335,,65,04,069,*56
$QZGSV,1,1,03,01,77,066,27,02,21,152,33,03,18,182,27*51
$BDGSV,3,1,12,213,74,270,22,206,68,255,,208,66,175,34,216,61,252,30*6D
$BDGSV,3,2,12,203,44,206,,201,43,159,24,230,36,231,29,229,29,295,29*68
$BDGSV,3,3,12,220,40,291,,209,38,239,,223,34,102,,225,17,049,*64
$GAGSV,2,1,06,104,73,328,27,112,36,180,30,119,31,056,18,109,30,260,27*66
$GAGSV,2,2,06,136,23,318,32,121,14,071,29*6A
$GPGSA,A,3,02,05,13,15,21,24,29,30,,,,,1.5,0.9,1.2*30
$GNGSA,A,3,02,05,13,15,21,24,29,30,,,,,1.5,0.9,1.2*2E
$GNGSA,A,3,66,67,75,76,81,,,,,,,,1.5,0.9,1.2*29
$QZGSA,A,3,01,02,03,,,,,,,,,,1.5,0.9,1.2*20
$IMGSA,A,3,,,,,,,,,,,,,1.5,0.9,1.2*2F
$BDGSA,A,3,208,213,216,229,230,,,,,,,,1.5,0.9,1.2*1A
$GAGSA,A,3,104,109,112,121,136,,,,,,,,1.5,0.9,1.2*14
$GPRMC,025109.00,A,3722.728361,N,12640.591119,E,026.2,217.9,231119,,,A*5B
$GPGGA,025110.00,3722.722602,N,12640.585446,E,1,27,0.3,24.5,M,17.7,M,,*57
$PGLOR,9,STA,025110.00,0.012,0.000,-300,1,3,0,P,F,L,0,C,3,S,00100182,327,5,R,000833F4,TPEF,41,121565,LC,,,*5E
$GPGSV,2,1,08,13,74,032,36,15,65,263,34,05,52,076,29,21,27,314,34*7F
$GPGSV,2,2,08,29,25,245,24,30,23,050,35,02,21,156,28,24,15,189,29*79
$GLGSV,2,1,07,66,50,021,30,81,44,215,31,67,42,296,33,76,29,097,31*65
$GLGSV,2,2,07,75,19,044,31,83,12,335,,65,04,069,*5F
$QZGSV,1,1,03,01,77,066,26,02,21,152,33,03,18,182,27*50
$BDGSV,3,1,12,213,74,270,22,206,68,255,22,208,66,175,33,216,61,252,30*6A
$BDGSV,3,2,12,203,44,206,,201,43,159,,230,36,231,29,229,29,295,29*6E
$BDGSV,3,3,12,220,40,291,,209,38,239,,223,34,102,,225,17,049,*64
$GAGSV,2,1,06,104,73,328,27,112,36,180,30,119,31,056,18,109,30,260,27*66
$GAGSV,2,2,06,136,23,318,32,121,14,071,29*6A
$GPGSA,A,3,02,05,13,15,21,24,29,30,,,,,1.5,0.8,1.2*31
$GNGSA,A,3,02,05,13,15,21,24,29,30,,,,,1.5,0.8,1.2*2F
$GNGSA,A,3,66,67,75,76,81,,,,,,,,1.5,0.8,1.2*28
$QZGSA,A,3,01,02,03,,,,,,,,,,1.5,0.8,1.2*21
$IMGSA,A,3,,,,,,,,,,,,,1.5,0.8,1.2*2E
$BDGSA,A,3,206,208,213,216,229,230,,,,,,,1.5,0.8,1.2*2F
$GAGSA,A,3,104,109,112,121,136,,,,,,,,1.5,0.8,1.2*15
$GPRMC,025110.00,A,3722.722602,N,12640.585446,E,026.1,217.8,231119,,,A*51
$GPGGA,025111.00,3722.716871,N,12640.579745,E,1,27,0.2,24.6,M,17.7,M,,*5A
$PGLOR,9,STA,025111.00,0.012,0.000,-300,1,2,0,P,F,L,0,C,3,S,00100182,341,5,R,000833F4,TPEF,41,122565,LC,,,*5D
$GPGSV,2,1,08,13,74,032,36,15,65,263,36,05,52,076,29,21,28,314,34*72
$GPGSV,2,2,08,29,25,245,23,30,23,050,36,02,21,156,28,24,15,189,29*7D
$GLGSV,2,1,07,66,50,021,29,81,44,215,31,67,42,296,33,76,29,097,31*6D
$GLGSV,2,2,07,75,19,044,31,83,12,335,,65,04,069,*5F
$QZGSV,1,1,03,01,77,066,25,02,21,152,33,03,18,182,27*53
$BDGSV,3,1,12,213,74,270,,206,68,255,24,208,66,175,33,216,61,252,30*6C
$BDGSV,3,2,12,203,44,206,20,201,43,159,26,230,36,231,29,229,29,295,29*68
$BDGSV,3,3,12,220,40,291,,209,39,240,,223,34,102,,225,17,049,*6B
$GAGSV,2,1,06,104,73,328,27,112,36,180,29,119,31,056,18,109,30,260,26*6F
$GAGSV,2,2,06,136,23,318,32,121,14,071,28*6B
$GPGSA,A,3,02,05,13,15,21,24,29,30,,,,,1.4,0.8,1.2*30
$GNGSA,A,3,02,05,13,15,21,24,29,30,,,,,1.4,0.8,1.2*2E
$GNGSA,A,3,66,67,75,76,81,,,,,,,,1.4,0.8,1.2*29
$QZGSA,A,3,01,02,03,,,,,,,,,,1.4,0.8,1.2*20
$IMGSA,A,3,,,,,,,,,,,,,1.4,0.8,1.2*2F
$BDGSA,A,3,201,206,208,216,229,230,,,,,,,1.4,0.8,1.2*2D
$GAGSA,A,3,104,112,121,136,,,,,,,,,1.4,0.8,1.2*2C
$GPRMC,025111.00,A,3722.716871,N,12640.579745,E,026.1,217.8,231119,,,A*5E
$GPGGA,025112.00,3722.711102,N,12640.574121,E,1,26,0.2,24.6,M,17.7,M,,*5B
$PGLOR,9,STA,025112.00,0.012,0.000,-300,1,2,0,P,F,L,0,C,3,S,00100182,354,5,R,000833F4,TPEF,41,123565,LC,,,*5B
$GPGSV,2,1,08,13,74,032,36,15,65,263,36,05,52,076,29,21,28,314,34*72
$GPGSV,2,2,08,29,25,245,23,30,23,050,36,02,21,156,29,24,15,189,29*7C
$GLGSV,2,1,07,66,50,021,29,81,44,215,32,67,42,296,33,76,29,097,31*6E
$GLGSV,2,2,07,75,19,044,31,83,12,335,,65,04,069,*5F
$QZGSV,1,1,03,01,77,066,24,02,21,152,33,03,18,182,26*53
$BDGSV,3,1,12,213,74,270,25,206,68,255,23,208,66,175,33,216,61,252,29*64
$BDGSV,3,2,12,203,44,206,,201,43,159,,230,36,231,28,229,29,295,29*6F
$BDGSV,3,3,12,220,40,291,,209,39,240,,223,34,102,,225,17,049,*6B
$GAGSV,2,1,06,104,73,328,,112,36,180,29,119,31,056,17,109,30,260,25*66
$GAGSV,2,2,06,136,23,318,31,121,14,071,28*68
$GPGSA,A,3,02,05,13,15,21,24,29,30,,,,,1.4,0.8,1.2*30
$GNGSA,A,3,02,05,13,15,21,24,29,30,,,,,1.4,0.8,1.2*2E
$GNGSA,A,3,66,67,75,76,81,,,,,,,,1.4,0.8,1.2*29
$QZGSA,A,3,01,02,03,,,,,,,,,,1.4,0.8,1.2*20
$IMGSA,A,3,,,,,,,,,,,,,1.4,0.8,1.2*2F
$BDGSA,A,3,206,208,213,216,229,230,,,,,,,1.4,0.8,1.2*2E
$GAGSA,A,3,109,112,121,136,,,,,,,,,1.4,0.8,1.2*21
$GPRMC,025112.00,A,3722.711102,N,12640.574121,E,026.2,217.7,231119,,,A*52
$GPGGA,025113.00,3722.705358,N,12640.568507,E,1,27,0.2,24.7,M,17.7,M,,*5F
$PGLOR,9,STA,025113.00,0.012,0.000,-300,1,2,0,P,F,L,0,C,3,S,00100182,368,5,R,000833F4,TPEF,41,124565,LC,,,*52
$GPGSV,2,1,08,13,74,032,35,15,65,263,36,05,52,076,29,21,28,314,34*71
$GPGSV,2,2,08,29,25,245,23,30,23,050,35,02,21,156,29,24,15,189,28*7E
$GLGSV,2,1,07,66,50,021,29,81,44,215,32,67,42,296,32,76,29,097,31*6F
$GLGSV,2,2,07,75,19,044,31,83,12,335,17,65,04,069,*59
$QZGSV,1,1,03,01,77,066,24,02,21,152,33,03,18,182,26*53
$BDGSV,3,1,12,213,74,270,24,206,68,255,25,208,66,175,33,216,61,252,29*63
$BDGSV,3,2,12,203,44,206,19,201,43,159,,230,36,231,28,229,29,295,29*67
$BDGSV,3,3,12,220,40,291,,209,39,240,,223,34,102,,225,17,049,*6B
$GAGSV,2,1,06,104,73,328,26,112,36,180,28,119,31,056,17,109,30,260,25*63
$GAGSV,2,2,06,136,23,318,31,121,14,071,27*67
$GPGSA,A,3,02,05,13,15,21,24,29,30,,,,,1.5,0.8,1.3*30
$GNGSA,A,3,02,05,13,15,21,24,29,30,,,,,1.5,0.8,1.3*2E
$GNGSA,A,3,66,67,75,76,81,,,,,,,,1.5,0.8,1.3*29
$QZGSA,A,3,01,02,03,,,,,,,,,,1.5,0.8,1.3*20
$IMGSA,A,3,,,,,,,,,,,,,1.5,0.8,1.3*2F
$BDGSA,A,3,203,206,208,216,229,230,,,,,,,1.5,0.8,1.3*2F
$GAGSA,A,3,104,109,112,121,136,,,,,,,,1.5,0.8,1.3*14
$GPRMC,025113.00,A,3722.705358,N,12640.568507,E,026.1,217.5,231119,,,A*57
$GPGGA,025114.00,3722.699575,N,12640.562950,E,1,26,0.2,24.8,M,17.7,M,,*5F
$PGLOR,9,STA,025114.00,0.012,0.000,-300,1,2,0,P,F,L,0,C,3,S,00180182,381,5,R,000833F4,TPEF,41,125565,LC,,,*5B
$GPGSV,2,1,08,13,74,032,35,15,65,263,36,05,52,076,29,21,28,314,34*71
$GPGSV,2,2,08,29,25,245,22,30,23,050,35,02,21,156,29,24,15,189,28*7F
$GLGSV,2,1,07,66,50,021,29,81,44,215,32,67,42,296,32,76,29,097,31*6F
$GLGSV,2,2,07,75,19,044,31,83,12,335,,65,04,069,*5F
$QZGSV,1,1,03,01,77,066,23,02,21,152,33,03,18,182,26*54
$BDGSV,3,1,12,213,74,270,23,206,68,255,24,208,66,175,33,216,61,252,29*65
$BDGSV,3,2,12,203,44,206,,201,43,159,,230,36,231,27,229,29,295,29*60
$BDGSV,3,3,12,220,40,291,,209,39,240,,223,34,102,,225,17,049,*6B
$GAGSV,2,1,06,104,73,328,26,112,36,180,28,119,31,056,17,109,30,260,25*63
$GAGSV,2,2,06,136,23,318,31,121,14,071,27*67
$GPGSA,A,3,02,05,13,15,21,24,29,30,,,,,1.5,0.8,1.3*30
$GNGSA,A,3,02,05,13,15,21,24,29,30,,,,,1.5,0.8,1.3*2E
$GNGSA,A,3,66,67,75,76,81,,,,,,,,1.5,0.8,1.3*29
$QZGSA,A,3,02,03,,,,,,,,,,,1.5,0.8,1.3*21
$IMGSA,A,3,,,,,,,,,,,,,1.5,0.8,1.3*2F
$BDGSA,A,3,206,208,213,216,229,230,,,,,,,1.5,0.8,1.3*2E
$GAGSA,A,3,104,109,112,121,136,,,,,,,,1.5,0.8,1.3*14
$GPRMC,025114.00,A,3722.699575,N,12640.562950,E,026.1,217.4,231119,,,A*58
$GPGGA,025115.00,3722.693795,N,12640.557364,E,1,29,0.2,24.8,M,17.7,M,,*5C
$PGLOR,9,STA,025115.00,0.012,0.000,-300,1,2,0,P,F,L,0,C,3,S,00180182,395,5,R,000833F4,TPEF,41,126565,LC,,,*5C
$GPGSV,2,1,08,13,74,032,35,15,65,263,36,05,52,076,28,21,28,314,35*71
$GPGSV,2,2,08,29,25,245,22,30,23,050,35,02,21,156,29,24,15,189,28*7F
$GLGSV,2,1,07,66,50,021,29,81,44,215,33,67,42,296,32,76,29,097,30*6F
$GLGSV,2,2,07,75,19,044,31,83,12,335,,65,04,069,*5F
$QZGSV,1,1,03,01,77,066,22,02,21,152,33,03,18,182,26*55
$BDGSV,3,1,12,213,74,270,24,206,68,255,24,208,66,175,33,216,61,252,29*62
$BDGSV,3,2,12,203,44,206,19,201,43,159,21,230,36,231,27,229,29,295,29*6B
$BDGSV,3,3,12,220,40,291,,209,39,240,,223,34,102,,225,17,049,*6B
$GAGSV,2,1,06,104,73,328,26,112,36,180,27,119,31,056,17,109,30,260,25*6C
$GAGSV,2,2,06,136,23,318,31,121,14,071,27*67
$GPGSA,A,3,02,05,13,15,21,24,29,30,,,,,1.5,0.8,1.2*31
$GNGSA,A,3,02,05,13,15,21,24,29,30,,,,,1.5,0.8,1.2*2F
$GNGSA,A,3,66,67,75,76,81,,,,,,,,1.5,0.8,1.2*28
$QZGSA,A,3,01,02,03,,,,,,,,,,1.5,0.8,1.2*21
$IMGSA,A,3,,,,,,,,,,,,,1.5,0.8,1.2*2E
$BDGSA,A,3,203,206,208,213,216,229,230,,,,,,1.5,0.8,1.2*1E
$GAGSA,A,3,104,109,112,121,136,,,,,,,,1.5,0.8,1.2*15
$GPRMC,025115.00,A,3722.693795,N,12640.557364,E,026.2,217.5,231119,,,A*56
$GPGGA,025116.00,3722.688015,N,12640.551747,E,1,29,0.2,24.9,M,17.7,M,,*58
$PGLOR,9,STA,025116.00,0.012,0.000,-300,1,2,0,P,F,L,0,C,3,S,00180182,408,5,R,000833F4,TPEF,41,127565,LC,,,*5D
