$GPGGA,024239.00,3722.862615,N,12640.715616,E,1,27,0.3,20.2,M,17.8,M,,*53
$PGLOR,9,STA,024239.00,0.002,0.000,-299,1,3,0,P,F,L,0,C,3,S,00180002,2,5,R,000833F4,TPEF,43,975761,LC,,,*5F
$GPGSV,3,1,09,13,78,031,32,15,62,257,41,05,54,071,34,29,27,249,40*79
$GPGSV,3,2,09,30,25,053,34,02,25,155,29,21,24,315,29,24,11,189,29*7F
$GPGSV,3,3,09,07,02,032,*44
$GLGSV,2,1,06,66,52,014,28,81,48,218,45,67,40,291,40,75,20,048,39*6A
$GLGSV,2,2,06,65,07,065,30,76,26,101,*62
$QZGSV,1,1,03,01,77,065,30,03,19,182,29,02,19,153,34*56
$BDGSV,4,1,13,213,74,276,33,208,68,172,33,206,67,250,35,216,61,248,31*65
$BDGSV,4,2,13,220,38,287,32,223,33,106,33,229,28,299,32,227,12,184,26*62
$BDGSV,4,3,13,203,44,206,,201,43,159,,230,39,234,,209,38,237,*69
$BDGSV,4,4,13,225,18,052,*61
$GAGSV,2,1,05,104,73,317,26,109,28,257,23,112,40,180,,119,33,054,*6A
$GAGSV,2,2,05,136,21,319,*61
$GPGSA,A,3,02,05,13,15,21,24,29,30,,,,,1.5,1.0,1.2*38
$GNGSA,A,3,02,05,13,15,21,24,29,30,,,,,1.5,1.0,1.2*26
$GNGSA,A,3,65,66,67,75,81,,,,,,,,1.5,1.0,1.2*23
$QZGSA,A,3,01,02,03,,,,,,,,,,1.5,1.0,1.2*28
$IMGSA,A,3,,,,,,,,,,,,,1.5,1.0,1.2*27
$BDGSA,A,3,206,208,213,216,220,223,227,229,,,,,1.5,1.0,1.2*23
$GAGSA,A,3,104,109,,,,,,,,,,,1.5,1.0,1.2*28
$GPRMC,024239.00,A,3722.862615,N,12640.715616,E,000.1,217.8,231119,,,A*5D
$GPGGA,024240.00,3722.862660,N,12640.715566,E,1,26,0.6,20.2,M,17.8,M,,*5F
$PGLOR,9,STA,024240.00,0.002,0.000,-299,1,6,0,P,F,L,0,C,3,S,00180002,2,5,R,000833F4,TPEF,43,976761,LC,,,*57
$GPGSV,3,1,09,13,78,031,32,15,62,257,41,05,54,071,35,29,27,249,41*79
$GPGSV,3,2,09,21,25,315,29,30,25,053,33,02,25,155,28,24,11,189,29*78
$GPGSV,3,3,09,07,02,032,*44
$GLGSV,2,1,06,66,52,014,28,81,48,218,45,67,40,291,40,75,20,048,39*6A
$GLGSV,2,2,06,65,07,065,30,76,26,101,*62
$QZGSV,1,1,03,01,77,065,31,03,19,182,29,02,19,153,37*54
$BDGSV,4,1,13,213,74,276,34,208,68,172,32,206,67,250,35,216,61,248,30*62
$BDGSV,4,2,13,220,38,287,32,223,33,106,33,229,28,299,32,227,12,184,26*62
$BDGSV,4,3,13,203,44,206,,201,43,159,,230,39,234,,209,38,237,*69
$BDGSV,4,4,13,225,18,052,*61
$GAGSV,2,1,05,104,73,317,26,109,28,257,,112,40,180,,119,33,054,*6B
$GAGSV,2,2,05,136,21,319,*61
$GPGSA,A,3,02,05,13,15,21,24,29,30,,,,,1.5,0.9,1.2*30
$GNGSA,A,3,02,05,13,15,21,24,29,30,,,,,1.5,0.9,1.2*2E
$GNGSA,A,3,65,66,67,75,81,,,,,,,,1.5,0.9,1.2*2B
$QZGSA,A,3,01,02,03,,,,,,,,,,1.5,0.9,1.2*20
$IMGSA,A,3,,,,,,,,,,,,,1.5,0.9,1.2*2F
$BDGSA,A,3,206,208,213,216,220,223,227,229,,,,,1.5,0.9,1.2*2B
$GAGSA,A,3,104,,,,,,,,,,,,1.5,0.9,1.2*18
$GPRMC,024240.00,A,3722.862660,N,12640.715566,E,000.0,217.8,231119,,,A*54
$GPGGA,024241.00,3722.862681,N,12640.715549,E,1,27,0.6,20.2,M,17.8,M,,*5D
$PGLOR,9,STA,024241.00,0.002,0.000,-299,1,6,0,P,F,L,0,C,3,S,00180002,2,5,R,000833F4,TPEF,43,977761,LC,,,*57
$GPGSV,3,1,09,13,78,031,31,15,62,257,41,05,54,071,35,29,27,249,41*7A
$GPGSV,3,2,09,21,25,315,30,30,25,053,33,02,25,155,28,24,11,189,29*70
$GPGSV,3,3,09,07,02,032,*44
$GLGSV,2,1,06,66,52,014,27,81,48,218,45,67,40,291,40,75,20,048,39*65
$GLGSV,2,2,06,65,07,065,30,76,26,101,*62
$QZGSV,1,1,03,01,77,065,33,03,19,182,32,02,19,153,37*5C
$BDGSV,4,1,13,213,74,276,34,208,68,172,31,206,67,250,35,216,61,248,30*61
$BDGSV,4,2,13,220,38,287,32,223,33,106,33,229,28,299,32,227,12,184,26*62
$BDGSV,4,3,13,203,44,206,,201,43,159,,230,39,234,,209,38,237,*69
$BDGSV,4,4,13,225,18,052,*61
$GAGSV,2,1,05,104,73,317,26,109,28,257,24,112,40,180,,119,33,054,*6D
$GAGSV,2,2,05,136,21,319,*61
$GPGSA,A,3,02,05,13,15,21,24,29,30,,,,,1.5,0.9,1.2*30
$GNGSA,A,3,02,05,13,15,21,24,29,30,,,,,1.5,0.9,1.2*2E
$GNGSA,A,3,65,66,67,75,81,,,,,,,,1.5,0.9,1.2*2B
$QZGSA,A,3,01,02,03,,,,,,,,,,1.5,0.9,1.2*20
$IMGSA,A,3,,,,,,,,,,,,,1.5,0.9,1.2*2F
$BDGSA,A,3,206,208,213,216,220,223,227,229,,,,,1.5,0.9,1.2*2B
$GAGSA,A,3,104,109,,,,,,,,,,,1.5,0.9,1.2*20
$GPRMC,024241.00,A,3722.862681,N,12640.715549,E,000.1,217.8,231119,,,A*56
$GPGGA,024242.00,3722.862689,N,12640.715536,E,1,26,0.6,20.2,M,17.8,M,,*5F
$PGLOR,9,STA,024242.00,0.002,0.000,-299,1,6,0,P,F,L,0,C,3,S,00180002,2,5,R,000833F4,TPEF,43,978761,LC,,,*5B
$GPGSV,3,1,09,13,78,031,30,15,62,257,41,05,54,071,35,29,27,249,41*7B
$GPGSV,3,2,09,21,25,315,30,30,25,053,33,02,25,155,35,24,11,189,29*7C
$GPGSV,3,3,09,07,02,032,*44
$GLGSV,2,1,06,66,52,014,27,81,48,218,44,67,40,291,39,75,20,048,39*6A
$GLGSV,2,2,06,65,07,065,30,76,26,101,*62
$QZGSV,1,1,03,01,77,065,33,03,19,182,32,02,19,153,37*5C
$BDGSV,4,1,13,213,74,276,33,208,68,172,30,206,67,250,34,216,61,248,29*6E
$BDGSV,4,2,13,220,38,287,32,223,33,106,32,229,28,299,32,227,12,184,27*62
$BDGSV,4,3,13,203,44,206,,201,43,159,,230,39,234,,209,38,237,*69
$BDGSV,4,4,13,225,18,052,*61
$GAGSV,2,1,05,104,73,317,32,109,28,257,,112,40,180,,119,33,054,*6E
$GAGSV,2,2,05,136,21,319,*61
$GPGSA,A,3,02,05,13,15,21,24,29,30,,,,,1.7,0.8,1.4*35
$GNGSA,A,3,02,05,13,15,21,24,29,30,,,,,1.7,0.8,1.4*2B
$GNGSA,A,3,65,66,67,75,81,,,,,,,,1.7,0.8,1.4*2E
$QZGSA,A,3,01,02,03,,,,,,,,,,1.7,0.8,1.4*25
$IMGSA,A,3,,,,,,,,,,,,,1.7,0.8,1.4*2A
$BDGSA,A,3,206,208,213,216,220,223,227,229,,,,,1.7,0.8,1.4*2E
$GAGSA,A,3,104,,,,,,,,,,,,1.7,0.8,1.4*1D
$GPRMC,024242.00,A,3722.862689,N,12640.715536,E,000.1,217.8,231119,,,A*55
$GPGGA,024243.00,3722.862704,N,12640.715515,E,1,27,0.6,20.2,M,17.8,M,,*5A
$PGLOR,9,STA,024243.00,0.002,0.000,-299,1,6,0,P,F,L,0,C,3,S,00180002,2,5,R,000833F4,TPEF,43,979761,LC,,,*5B
$GPGSV,3,1,09,13,78,031,30,15,62,257,41,05,54,071,35,29,27,249,41*7B
$GPGSV,3,2,09,21,25,315,29,30,25,053,35,02,25,155,36,24,11,189,28*70
$GPGSV,3,3,09,07,02,032,*44
$GLGSV,2,1,06,66,52,014,29,81,48,218,44,67,40,291,39,75,20,048,38*65
$GLGSV,2,2,06,65,07,065,32,76,26,101,*60
$QZGSV,1,1,03,01,77,065,32,03,19,182,32,02,19,153,37*5D
$BDGSV,4,1,13,213,74,276,33,208,68,172,29,206,67,250,33,216,61,248,29*61
$BDGSV,4,2,13,220,38,287,32,223,33,106,32,229,28,299,31,227,12,184,27*61
$BDGSV,4,3,13,203,44,206,,201,43,159,,230,39,234,,209,38,237,*69
$BDGSV,4,4,13,225,18,052,*61
$GAGSV,2,1,05,104,73,317,31,109,28,257,31,112,40,180,,119,33,054,*6F
$GAGSV,2,2,05,136,21,319,*61
$GPGSA,A,3,02,05,13,15,21,24,29,30,,,,,1.4,0.9,1.1*32
$GNGSA,A,3,02,05,13,15,21,24,29,30,,,,,1.4,0.9,1.1*2C
$GNGSA,A,3,65,66,67,75,81,,,,,,,,1.4,0.9,1.1*29
$QZGSA,A,3,01,02,03,,,,,,,,,,1.4,0.9,1.1*22
$IMGSA,A,3,,,,,,,,,,,,,1.4,0.9,1.1*2D
$BDGSA,A,3,206,208,213,216,220,223,227,229,,,,,1.4,0.9,1.1*29
$GAGSA,A,3,104,109,,,,,,,,,,,1.4,0.9,1.1*22
$GPRMC,024243.00,A,3722.862704,N,12640.715515,E,000.0,217.8,231119,,,A*50
$GPGGA,024244.00,3722.862745,N,12640.715505,E,1,27,0.4,20.2,M,17.8,M,,*5B
$PGLOR,9,STA,024244.00,0.002,0.000,-299,1,4,0,P,F,L,0,C,3,S,00180002,2,5,R,000833F4,TPEF,43,980761,LC,,,*58
$GPGSV,3,1,09,13,78,031,32,15,62,257,42,05,54,071,36,29,27,249,41*79
$GPGSV,3,2,09,21,25,315,29,30,25,053,35,02,25,155,38,24,11,189,28*7E
$GPGSV,3,3,09,07,02,032,*44
$GLGSV,2,1,06,66,52,014,32,81,48,218,43,67,40,291,38,75,20,048,41*67
$GLGSV,2,2,06,65,07,065,31,76,26,101,*63
$QZGSV,1,1,03,01,77,065,32,03,19,182,33,02,19,153,37*5C
$BDGSV,4,1,13,213,74,276,33,208,68,172,29,206,67,250,33,216,61,248,28*60
$BDGSV,4,2,13,220,38,287,31,223,33,106,32,229,28,299,31,227,12,184,27*62
$BDGSV,4,3,13,203,44,206,,201,43,159,,230,39,234,,209,38,237,*69
$BDGSV,4,4,13,225,18,052,*61
$GAGSV,2,1,05,104,73,317,31,109,28,257,31,112,40,180,,119,33,054,*6F
$GAGSV,2,2,05,136,21,319,*61
$GPGSA,A,3,02,05,13,15,21,24,29,30,,,,,1.6,0.9,1.4*35
$GNGSA,A,3,02,05,13,15,21,24,29,30,,,,,1.6,0.9,1.4*2B
$GNGSA,A,3,65,66,67,75,81,,,,,,,,1.6,0.9,1.4*2E
$QZGSA,A,3,01,02,03,,,,,,,,,,1.6,0.9,1.4*25
$IMGSA,A,3,,,,,,,,,,,,,1.6,0.9,1.4*2A
$BDGSA,A,3,206,208,213,216,220,223,227,229,,,,,1.6,0.9,1.4*2E
$GAGSA,A,3,104,109,,,,,,,,,,,1.6,0.9,1.4*25
$GPRMC,024244.00,A,3722.862745,N,12640.715505,E,000.1,217.8,231119,,,A*52
$GPGGA,024245.00,3722.862770,N,12640.715477,E,1,26,0.4,20.2,M,17.8,M,,*59
$PGLOR,9,STA,024245.00,0.002,0.000,-299,1,4,0,P,F,L,0,C,3,S,00180002,2,5,R,000833F4,TPEF,43,981761,LC,,,*58
$GPGSV,3,1,09,13,78,031,34,15,62,257,41,05,54,071,36,29,27,249,40*7D
$GPGSV,3,2,09,21,25,315,29,30,25,053,35,02,25,155,37,24,11,189,28*71
$GPGSV,3,3,09,07,02,032,*44
$GLGSV,2,1,06,66,52,014,32,81,48,218,43,67,40,291,38,75,20,048,40*66
$GLGSV,2,2,06,65,07,065,35,76,26,101,*67
$QZGSV,1,1,03,01,77,065,32,03,19,182,33,02,19,153,36*5D
$BDGSV,4,1,13,213,74,276,33,208,68,172,33,206,67,250,32,216,61,248,28*6A
$BDGSV,4,2,13,220,38,287,31,223,33,106,33,229,28,299,31,227,12,184,26*62
$BDGSV,4,3,13,203,44,206,,201,43,159,,230,39,234,,209,38,237,*69
$BDGSV,4,4,13,225,18,052,*61
$GAGSV,2,1,05,104,73,317,31,109,28,257,,112,40,180,,119,33,054,*6D
$GAGSV,2,2,05,136,21,319,*61
$GPGSA,A,3,02,05,13,15,21,24,29,30,,,,,1.9,1.3,1.4*31
$GNGSA,A,3,02,05,13,15,21,24,29,30,,,,,1.9,1.3,1.4*2F
$GNGSA,A,3,65,66,67,75,81,,,,,,,,1.9,1.3,1.4*2A
$QZGSA,A,3,01,02,03,,,,,,,,,,1.9,1.3,1.4*21
$IMGSA,A,3,,,,,,,,,,,,,1.9,1.3,1.4*2E
$BDGSA,A,3,206,208,213,216,220,223,227,229,,,,,1.9,1.3,1.4*2A
$GAGSA,A,3,104,,,,,,,,,,,,1.9,1.3,1.4*19
$GPRMC,024245.00,A,3722.862770,N,12640.715477,E,000.0,217.8,231119,,,A*50
$GPGGA,024246.00,3722.862793,N,12640.715482,E,1,26,0.4,20.2,M,17.8,M,,*5D
$PGLOR,9,STA,024246.00,0.002,0.000,-299,1,4,0,P,F,L,0,C,3,S,00180002,3,5,R,000833F4,TPEF,43,982761,LC,,,*59
$GPGSV,3,1,09,13,78,031,35,15,62,257,41,05,54,071,36,29,27,249,40*7C
$GPGSV,3,2,09,21,25,315,30,30,25,053,37,02,25,155,37,24,11,189,28*7B
$GPGSV,3,3,09,07,02,032,*44
$GLGSV,2,1,06,66,52,014,32,81,48,218,43,67,40,291,38,75,20,048,40*66
$GLGSV,2,2,06,65,07,065,34,76,26,101,*66
$QZGSV,1,1,03,01,77,065,35,03,19,182,33,02,19,153,36*5A
$BDGSV,4,1,13,213,74,276,32,208,68,172,33,206,67,250,32,216,61,248,29*6A
$BDGSV,4,2,13,220,38,287,31,223,33,106,32,229,28,299,31,227,12,184,*67
$BDGSV,4,3,13,203,44,206,,201,43,159,,230,39,234,,209,38,237,*69
$BDGSV,4,4,13,225,18,052,*61
$GAGSV,2,1,05,104,73,317,31,109,28,257,29,112,40,180,,119,33,054,*66
$GAGSV,2,2,05,136,21,319,*61
$GPGSA,A,3,02,05,13,15,21,24,29,30,,,,,1.5,0.9,1.2*30
$GNGSA,A,3,02,05,13,15,21,24,29,30,,,,,1.5,0.9,1.2*2E
$GNGSA,A,3,65,66,67,75,81,,,,,,,,1.5,0.9,1.2*2B
$QZGSA,A,3,01,02,03,,,,,,,,,,1.5,0.9,1.2*20
$IMGSA,A,3,,,,,,,,,,,,,1.5,0.9,1.2*2F
$BDGSA,A,3,206,208,213,216,220,223,229,,,,,,1.5,0.9,1.2*1C
$GAGSA,A,3,104,109,,,,,,,,,,,1.5,0.9,1.2*20
$GPRMC,024246.00,A,3722.862793,N,12640.715482,E,000.2,217.8,231119,,,A*56
$GPGGA,024247.00,3722.862884,N,12640.715386,E,1,26,0.4,20.2,M,17.8,M,,*56
$PGLOR,9,STA,024247.00,0.002,0.000,-299,1,4,0,P,F,L,0,C,3,S,00180002,3,5,R,000833F4,TPEF,43,983761,LC,,,*59
$GPGSV,3,1,09,13,78,031,35,15,62,257,41,05,54,071,36,29,27,249,39*72
$GPGSV,3,2,09,21,25,315,32,30,25,053,36,02,25,155,36,24,11,189,28*79
$GPGSV,3,3,09,07,02,032,*44
$GLGSV,2,1,06,66,52,015,31,81,48,218,43,67,40,291,38,75,20,048,39*6A
$GLGSV,2,2,06,65,07,065,34,76,26,101,*66
$QZGSV,1,1,03,01,77,065,35,03,19,182,32,02,19,153,35*58
$BDGSV,4,1,13,213,74,276,32,208,68,172,32,206,67,250,31,216,61,248,31*61
$BDGSV,4,2,13,220,38,287,31,223,33,106,32,229,28,299,30,227,12,183,*61
$BDGSV,4,3,13,203,44,206,,201,43,159,,230,39,234,,209,38,237,*69
$BDGSV,4,4,13,225,18,052,*61
$GAGSV,2,1,05,104,73,317,31,109,28,257,29,112,40,180,,119,33,054,*66
$GAGSV,2,2,05,136,21,319,*61
$GPGSA,A,3,02,05,13,15,21,24,29,30,,,,,1.9,1.1,1.5*32
$GNGSA,A,3,02,05,13,15,21,24,29,30,,,,,1.9,1.1,1.5*2C
$GNGSA,A,3,65,66,67,75,81,,,,,,,,1.9,1.1,1.5*29
$QZGSA,A,3,01,02,03,,,,,,,,,,1.9,1.1,1.5*22
$IMGSA,A,3,,,,,,,,,,,,,1.9,1.1,1.5*2D
$BDGSA,A,3,206,208,213,216,220,223,229,,,,,,1.9,1.1,1.5*1E
$GAGSA,A,3,104,109,,,,,,,,,,,1.9,1.1,1.5*22
$GPRMC,024247.00,A,3722.862884,N,12640.715386,E,001.9,263.6,231119,,,A*5A
$GPGGA,024248.00,3722.862693,N,12640.714114,E,1,26,0.4,20.2,M,17.8,M,,*59
$PGLOR,9,STA,024248.00,0.002,0.000,-298,1,4,0,P,F,L,0,C,3,S,00180002,5,5,R,000833F4,TPEF,43,984761,LC,,,*56
$GPGSV,3,1,09,13,78,031,35,15,62,257,42,05,54,071,35,29,27,249,38*73
$GPGSV,3,2,09,21,25,315,33,30,25,053,35,02,25,155,36,24,11,189,27*74
$GPGSV,3,3,09,07,02,032,*44
$GLGSV,2,1,06,66,52,015,31,81,48,218,43,67,40,291,38,75,20,048,38*6B
$GLGSV,2,2,06,65,07,065,33,76,26,101,*61
$QZGSV,1,1,03,01,77,065,35,03,19,182,31,02,19,153,34*5A
$BDGSV,4,1,13,213,74,276,32,208,68,172,32,206,67,250,31,216,61,248,32*62
$BDGSV,4,2,13,220,38,287,30,223,33,106,32,229,28,299,30,227,12,183,23*61
$BDGSV,4,3,13,203,44,206,,201,43,159,,230,39,234,,209,38,237,*69
$BDGSV,4,4,13,225,18,052,*61
$GAGSV,2,1,05,104,73,317,31,109,28,257,29,112,40,180,,119,33,054,*66
$GAGSV,2,2,05,136,21,319,*61
$GPGSA,A,3,02,05,13,15,21,24,29,30,,,,,2.0,1.0,1.7*3B
$GNGSA,A,3,02,05,13,15,21,24,29,30,,,,,2.0,1.0,1.7*25
$GNGSA,A,3,65,66,67,75,81,,,,,,,,2.0,1.0,1.7*20
$QZGSA,A,3,01,02,03,,,,,,,,,,2.0,1.0,1.7*2B
$IMGSA,A,3,,,,,,,,,,,,,2.0,1.0,1.7*24
$BDGSA,A,3,206,208,213,216,220,223,229,,,,,,2.0,1.0,1.7*17
$GAGSA,A,3,104,109,,,,,,,,,,,2.0,1.0,1.7*2B
$GPRMC,024248.00,A,3722.862693,N,12640.714114,E,003.6,206.9,231119,,,A*54
$GPGGA,024249.00,3722.860970,N,12640.712772,E,1,26,0.4,20.2,M,17.8,M,,*58
$PGLOR,9,STA,024249.00,0.002,0.000,-298,1,4,0,P,F,L,0,C,3,S,00180002,7,5,R,000833F4,TPEF,43,985761,LC,,,*54
$GPGSV,3,1,09,13,78,031,34,15,62,257,43,05,54,071,34,29,27,249,37*7D
$GPGSV,3,2,09,21,25,315,33,30,25,053,34,02,25,155,34,24,11,189,27*77
$GPGSV,3,3,09,07,02,032,*44
$GLGSV,2,1,06,66,52,015,30,81,48,218,43,67,40,291,37,75,20,048,37*6A
$GLGSV,2,2,06,65,07,065,32,76,26,101,*60
$QZGSV,1,1,03,01,77,065,36,03,19,182,30,02,19,153,32*5E
$BDGSV,4,1,13,213,74,276,31,208,68,172,32,206,67,250,31,216,61,248,33*60
$BDGSV,4,2,13,220,38,287,30,223,33,106,31,229,28,299,30,227,12,183,23*62
$BDGSV,4,3,13,203,44,206,,201,43,159,,230,39,234,,209,38,237,*69
$BDGSV,4,4,13,225,18,052,*61
$GAGSV,2,1,05,104,73,317,31,109,28,257,27,112,40,180,,119,33,054,*68
$GAGSV,2,2,05,136,21,319,*61
$GPGSA,A,3,02,05,13,15,21,24,29,30,,,,,1.6,1.0,1.3*3A
$GNGSA,A,3,02,05,13,15,21,24,29,30,,,,,1.6,1.0,1.3*24
$GNGSA,A,3,65,66,67,75,81,,,,,,,,1.6,1.0,1.3*21
$QZGSA,A,3,01,02,03,,,,,,,,,,1.6,1.0,1.3*2A
$IMGSA,A,3,,,,,,,,,,,,,1.6,1.0,1.3*25
$BDGSA,A,3,206,208,213,216,220,223,227,229,,,,,1.6,1.0,1.3*21
$GAGSA,A,3,104,,,,,,,,,,,,1.6,1.0,1.3*12
$GPRMC,024249.00,A,3722.860970,N,12640.712772,E,005.6,216.8,231119,,,A*53
$GPGGA,024250.00,3722.858413,N,12640.710768,E,1,25,0.4,20.4,M,17.8,M,,*5F
$PGLOR,9,STA,024250.00,0.002,0.000,-298,1,4,0,P,F,L,0,C,3,S,00180002,12,5,R,000833F4,TPEF,43,986761,LC,,,*6B
$GPGSV,3,1,09,13,78,031,34,15,62,257,42,05,54,071,33,29,27,249,35*79
$GPGSV,3,2,09,21,25,315,32,30,25,053,34,02,25,155,34,24,11,189,26*77
$GPGSV,3,3,09,07,02,032,*44
$GLGSV,2,1,06,66,52,015,29,81,48,218,42,67,40,291,37,75,20,048,35*61
$GLGSV,2,2,06,65,07,065,31,76,26,101,*63
$QZGSV,1,1,03,01,77,065,36,03,19,182,29,02,19,153,31*55
$BDGSV,4,1,13,213,74,276,31,208,68,172,31,206,67,250,,216,61,248,32*60
$BDGSV,4,2,13,220,38,287,30,223,33,106,31,229,28,299,30,227,12,183,22*63
$BDGSV,4,3,13,203,44,206,,201,43,159,,230,39,234,,209,38,237,*69
$BDGSV,4,4,13,225,18,052,*61
$GAGSV,2,1,05,104,73,317,31,109,28,257,27,112,40,180,,119,33,054,*68
$GAGSV,2,2,05,136,21,319,*61
$GPGSA,A,3,02,05,13,15,21,24,29,30,,,,,1.4,0.8,1.1*33
$GNGSA,A,3,02,05,13,15,21,24,29,30,,,,,1.4,0.8,1.1*2D
$GNGSA,A,3,65,66,67,75,81,,,,,,,,1.4,0.8,1.1*28
$QZGSA,A,3,01,02,03,,,,,,,,,,1.4,0.8,1.1*23
$IMGSA,A,3,,,,,,,,,,,,,1.4,0.8,1.1*2C
$BDGSA,A,3,208,213,216,220,223,229,,,,,,,1.4,0.8,1.1*2B
$GAGSA,A,3,104,109,,,,,,,,,,,1.4,0.8,1.1*23
$GPRMC,024250.00,A,3722.858413,N,12640.710768,E,007.8,223.0,231119,,,A*53
$GPGGA,024251.00,3722.855427,N,12640.707098,E,1,26,0.4,20.4,M,17.8,M,,*59
$PGLOR,9,STA,024251.00,0.002,0.000,-298,1,4,0,P,F,L,0,C,3,S,00180002,20,5,R,000833F4,TPEF,43,987761,LC,,,*6A
$GPGSV,3,1,09,13,78,031,36,15,62,257,41,05,54,071,33,29,27,249,34*79
$GPGSV,3,2,09,21,25,315,32,30,25,053,33,02,25,155,34,24,11,189,28*7E
$GPGSV,3,3,09,07,02,032,*44
$GLGSV,2,1,06,66,52,015,29,81,48,218,42,67,40,291,37,75,20,048,35*61
$GLGSV,2,2,06,65,07,065,30,76,26,101,*62
$QZGSV,1,1,03,01,77,065,36,03,19,182,29,02,19,153,31*55
$BDGSV,4,1,13,213,74,276,32,208,68,172,31,206,67,250,31,216,61,248,32*61
$BDGSV,4,2,13,220,38,287,29,223,33,106,33,229,28,299,30,227,12,183,*69
$BDGSV,4,3,13,203,44,206,,201,43,159,,230,39,234,,209,38,237,*69
$BDGSV,4,4,13,225,18,052,*61
$GAGSV,2,1,05,104,73,317,31,109,28,257,29,112,40,180,,119,33,054,*66
$GAGSV,2,2,05,136,21,319,*61
$GPGSA,A,3,02,05,13,15,21,24,29,30,,,,,1.4,0.8,1.2*30
$GNGSA,A,3,02,05,13,15,21,24,29,30,,,,,1.4,0.8,1.2*2E
$GNGSA,A,3,65,66,67,75,81,,,,,,,,1.4,0.8,1.2*2B
$QZGSA,A,3,01,02,03,,,,,,,,,,1.4,0.8,1.2*20
$IMGSA,A,3,,,,,,,,,,,,,1.4,0.8,1.2*2F
$BDGSA,A,3,206,208,213,216,220,223,229,,,,,,1.4,0.8,1.2*1C
$GAGSA,A,3,104,109,,,,,,,,,,,1.4,0.8,1.2*20
$GPRMC,024251.00,A,3722.855427,N,12640.707098,E,010.2,216.7,231119,,,A*5B
$GPGGA,024252.00,3722.851356,N,12640.703686,E,1,26,0.4,20.5,M,17.8,M,,*53
$PGLOR,9,STA,024252.00,0.002,0.000,-299,1,4,0,P,F,L,0,C,3,S,00180002,29,5,R,000833F4,TPEF,43,988761,LC,,,*6E
$GPGSV,3,1,09,13,78,031,36,15,62,257,40,05,54,071,34,29,27,249,33*78
$GPGSV,3,2,09,21,25,315,31,30,25,053,33,02,25,155,34,24,11,189,27*72
$GPGSV,3,3,09,07,02,032,*44
$GLGSV,2,1,06,66,52,015,29,81,48,218,42,67,40,291,36,75,20,048,35*60
$GLGSV,2,2,06,65,07,065,30,76,26,101,*62
$QZGSV,1,1,03,01,77,065,36,03,19,182,28,02,19,153,30*55
$BDGSV,4,1,13,213,74,276,32,208,68,172,31,206,67,250,33,216,61,248,33*62
$BDGSV,4,2,13,220,38,287,29,223,33,106,33,229,28,299,30,227,12,183,*69
$BDGSV,4,3,13,203,44,206,,201,43,159,,230,39,234,,209,38,237,*69
$BDGSV,4,4,13,225,18,052,*61
$GAGSV,2,1,05,104,73,317,31,109,28,257,29,112,40,180,,119,33,054,*66
$GAGSV,2,2,05,136,21,319,*61
$GPGSA,A,3,02,05,13,15,21,24,29,30,,,,,1.4,0.9,1.1*32
$GNGSA,A,3,02,05,13,15,21,24,29,30,,,,,1.4,0.9,1.1*2C
$GNGSA,A,3,65,66,67,75,81,,,,,,,,1.4,0.9,1.1*29
$QZGSA,A,3,01,02,03,,,,,,,,,,1.4,0.9,1.1*22
$IMGSA,A,3,,,,,,,,,,,,,1.4,0.9,1.1*2D
$BDGSA,A,3,206,208,213,216,220,223,229,,,,,,1.4,0.9,1.1*1E
$GAGSA,A,3,104,109,,,,,,,,,,,1.4,0.9,1.1*22
$GPRMC,024252.00,A,3722.851356,N,12640.703686,E,012.0,216.3,231119,,,A*54
$GPGGA,024253.00,3722.847560,N,12640.700024,E,1,26,0.4,20.6,M,17.8,M,,*58
$PGLOR,9,STA,024253.00,0.002,0.000,-299,1,4,0,P,F,L,0,C,3,S,00180002,38,5,R,000833F4,TPEF,43,989761,LC,,,*6E
$GPGSV,3,1,09,13,78,031,36,15,62,257,38,05,54,071,34,29,27,249,33*77
$GPGSV,3,2,09,21,25,315,30,30,25,053,34,02,25,155,33,24,11,189,27*73
$GPGSV,3,3,09,07,02,032,*44
$GLGSV,2,1,06,66,52,015,28,81,48,218,42,67,40,291,35,75,20,048,34*63
$GLGSV,2,2,06,65,07,065,29,76,26,101,*6A
$QZGSV,1,1,03,01,77,065,36,03,19,182,27,02,19,153,30*5A
$BDGSV,4,1,13,213,74,276,31,208,68,172,30,206,67,250,33,216,61,248,34*67
$BDGSV,4,2,13,220,38,287,29,223,33,106,32,229,28,299,30,227,12,183,20*6A
$BDGSV,4,3,13,203,44,206,,201,43,159,,230,39,234,,209,38,237,*69
$BDGSV,4,4,13,225,18,052,*61
$GAGSV,2,1,05,104,73,317,30,109,28,257,29,112,40,180,,119,33,054,*67
$GAGSV,2,2,05,136,21,319,*61
$GPGSA,A,3,02,05,13,15,21,24,29,30,,,,,1.9,1.0,1.6*30
$GNGSA,A,3,02,05,13,15,21,24,29,30,,,,,1.9,1.0,1.6*2E
$GNGSA,A,3,65,66,67,75,81,,,,,,,,1.9,1.0,1.6*2B
$QZGSA,A,3,01,02,03,,,,,,,,,,1.9,1.0,1.6*20
$IMGSA,A,3,,,,,,,,,,,,,1.9,1.0,1.6*2F
$BDGSA,A,3,206,208,213,216,220,223,229,,,,,,1.9,1.0,1.6*1C
$GAGSA,A,3,104,109,,,,,,,,,,,1.9,1.0,1.6*20
$GPRMC,024253.00,A,3722.847560,N,12640.700024,E,013.2,215.7,231119,,,A*58
$GPGGA,024254.00,3722.843636,N,12640.696337,E,1,27,0.6,20.6,M,17.8,M,,*57
$PGLOR,9,STA,024254.00,0.002,0.000,-299,1,6,0,P,F,L,0,C,3,S,00180182,47,5,R,000833F4,TPEF,43,990761,LC,,,*62
$GPGSV,3,1,09,13,78,031,36,15,62,257,37,05,54,071,34,29,27,249,33*78
$GPGSV,3,2,09,21,25,315,29,30,25,053,35,02,25,155,33,24,11,189,27*7A
$GPGSV,3,3,09,07,02,032,*44
$GLGSV,2,1,06,66,52,015,29,81,48,218,42,67,40,291,34,75,20,048,34*63
$GLGSV,2,2,06,65,07,065,29,76,26,101,*6A
$QZGSV,1,1,03,01,77,065,35,03,19,182,26,02,19,153,29*50
$BDGSV,4,1,13,213,74,276,31,208,68,172,30,206,67,250,34,216,61,248,34*60
$BDGSV,4,2,13,220,38,287,29,223,33,106,31,229,28,299,30,227,12,183,21*68
$BDGSV,4,3,13,203,44,206,,201,43,159,,230,39,234,,209,38,237,*69
$BDGSV,4,4,13,225,18,052,*61
$GAGSV,2,1,05,104,73,317,30,109,28,257,29,112,40,180,,119,33,054,*67
$GAGSV,2,2,05,136,21,319,*61
$GPGSA,A,3,02,05,13,15,21,24,29,30,,,,,1.6,0.9,1.3*32
$GNGSA,A,3,02,05,13,15,21,24,29,30,,,,,1.6,0.9,1.3*2C
$GNGSA,A,3,65,66,67,75,81,,,,,,,,1.6,0.9,1.3*29
$QZGSA,A,3,01,02,03,,,,,,,,,,1.6,0.9,1.3*22
$IMGSA,A,3,,,,,,,,,,,,,1.6,0.9,1.3*2D
$BDGSA,A,3,206,208,213,216,220,223,227,229,,,,,1.6,0.9,1.3*29
$GAGSA,A,3,104,109,,,,,,,,,,,1.6,0.9,1.3*22
$GPRMC,024254.00,A,3722.843636,N,12640.696337,E,014.7,217.9,231119,,,A*5A
$GPGGA,024255.00,3722.839774,N,12640.692606,E,1,26,0.6,20.7,M,17.8,M,,*5F
$PGLOR,9,STA,024255.00,0.002,0.000,-299,1,6,0,P,F,L,0,C,3,S,00180002,56,5,R,000833F4,TPEF,43,991761,LC,,,*6B
$GPGSV,3,1,09,13,78,031,36,15,62,257,36,05,54,071,34,29,27,249,32*78
$GPGSV,3,2,09,21,25,315,29,30,25,053,35,02,25,155,32,24,11,189,26*7A
$GPGSV,3,3,09,07,02,032,*44
$GLGSV,2,1,06,66,52,015,32,81,48,218,41,67,40,291,34,75,19,048,33*67
$GLGSV,2,2,06,65,07,065,29,76,26,101,*6A
$QZGSV,1,1,03,01,77,065,35,03,19,182,25,02,19,153,29*53
$BDGSV,4,1,13,213,74,276,31,208,68,172,29,206,67,250,34,216,61,248,34*68
$BDGSV,4,2,13,220,38,287,28,223,33,106,31,229,28,299,30,227,12,183,20*68
$BDGSV,4,3,13,203,44,206,,201,43,159,,230,39,234,,209,38,237,*69
$BDGSV,4,4,13,225,18,052,*61
$GAGSV,2,1,05,104,73,317,29,109,28,257,27,112,40,180,,119,33,054,*61
$GAGSV,2,2,05,136,21,319,*61
$GPGSA,A,3,02,05,13,15,21,24,29,30,,,,,1.6,0.9,1.3*32
$GNGSA,A,3,02,05,13,15,21,24,29,30,,,,,1.6,0.9,1.3*2C
$GNGSA,A,3,65,66,67,75,81,,,,,,,,1.6,0.9,1.3*29
$QZGSA,A,3,01,02,03,,,,,,,,,,1.6,0.9,1.3*22
$IMGSA,A,3,,,,,,,,,,,,,1.6,0.9,1.3*2D
$BDGSA,A,3,206,208,213,216,220,223,227,229,,,,,1.6,0.9,1.3*29
$GAGSA,A,3,104,,,,,,,,,,,,1.6,0.9,1.3*1A
$GPRMC,024255.00,A,3722.839774,N,12640.692606,E,015.3,206.6,231119,,,A*58
$GPGGA,024256.00,3722.835575,N,12640.689623,E,1,26,0.6,20.8,M,17.8,M,,*51
$PGLOR,9,STA,024256.00,0.002,0.000,-299,1,6,0,P,F,L,0,C,3,S,00180002,65,5,R,000833F4,TPEF,43,992761,LC,,,*6B
$GPGSV,3,1,09,13,78,031,39,15,62,257,40,05,54,071,37,29,27,249,34*73
$GPGSV,3,2,09,21,25,315,29,30,25,053,34,02,25,155,32,24,11,189,26*7B
$GPGSV,3,3,09,07,02,032,*44
$GLGSV,2,1,06,66,52,015,32,81,48,218,41,67,40,291,35,75,19,048,33*66
$GLGSV,2,2,06,65,07,065,29,76,26,101,*6A
$QZGSV,1,1,03,01,77,065,39,03,19,182,27,02,19,153,32*57
$BDGSV,4,1,13,213,74,276,38,208,68,172,30,206,67,250,33,216,61,248,34*6E
$BDGSV,4,2,13,220,38,287,30,223,33,106,33,229,28,299,30,227,12,183,32*60
$BDGSV,4,3,13,203,44,206,,201,43,159,,230,39,234,,209,38,237,*69
$BDGSV,4,4,13,225,18,052,*61
$GAGSV,2,1,05,104,73,317,43,109,28,257,26,112,40,180,,119,33,054,*6C
$GAGSV,2,2,05,136,21,319,*61
$GPGSA,A,3,02,05,13,15,21,24,29,30,,,,,1.5,0.8,1.3*30
$GNGSA,A,3,02,05,13,15,21,24,29,30,,,,,1.5,0.8,1.3*2E
$GNGSA,A,3,65,66,67,75,81,,,,,,,,1.5,0.8,1.3*2B
$QZGSA,A,3,01,02,03,,,,,,,,,,1.5,0.8,1.3*20
$IMGSA,A,3,,,,,,,,,,,,,1.5,0.8,1.3*2F
$BDGSA,A,3,206,208,213,216,220,223,227,229,,,,,1.5,0.8,1.3*2B
$GAGSA,A,3,104,,,,,,,,,,,,1.5,0.8,1.3*18
$GPRMC,024256.00,A,3722.835575,N,12640.689623,E,016.0,211.2,231119,,,A*5B
$GPGGA,024257.00,3722.831856,N,12640.685805,E,1,27,0.6,20.8,M,17.8,M,,*5F
$PGLOR,9,STA,024257.00,0.002,0.000,-299,1,6,0,P,F,L,0,C,3,S,00180002,74,5,R,000833F4,TPEF,43,993761,LC,,,*6B
$GPGSV,3,1,09,13,78,031,44,15,62,257,39,05,54,071,37,29,27,249,34*77
$GPGSV,3,2,09,21,25,315,29,30,25,053,34,02,25,155,32,24,11,189,28*75
$GPGSV,3,3,09,07,02,032,*44
$GLGSV,2,1,06,66,52,015,32,81,48,218,41,67,40,291,35,75,19,048,33*66
$GLGSV,2,2,06,65,07,065,29,76,26,101,*6A
$QZGSV,1,1,03,01,77,065,43,03,19,182,34,02,19,153,31*5B
$BDGSV,4,1,13,213,74,276,38,208,68,172,32,206,67,250,33,216,61,248,34*6C
$BDGSV,4,2,13,220,38,287,31,223,33,106,33,229,28,299,29,227,12,183,32*69
$BDGSV,4,3,13,203,44,206,,201,43,159,,230,39,234,,209,38,237,*69
$BDGSV,4,4,13,225,18,052,*61
$GAGSV,2,1,05,104,73,317,44,109,28,257,27,112,40,180,,119,33,054,*6A
$GAGSV,2,2,05,136,21,319,*61
$GPGSA,A,3,02,05,13,15,21,24,29,30,,,,,1.6,0.9,1.3*32
$GNGSA,A,3,02,05,13,15,21,24,29,30,,,,,1.6,0.9,1.3*2C
$GNGSA,A,3,65,66,67,75,81,,,,,,,,1.6,0.9,1.3*29
$QZGSA,A,3,01,02,03,,,,,,,,,,1.6,0.9,1.3*22
$IMGSA,A,3,,,,,,,,,,,,,1.6,0.9,1.3*2D
$BDGSA,A,3,206,208,213,216,220,223,227,229,,,,,1.6,0.9,1.3*29
$GAGSA,A,3,104,109,,,,,,,,,,,1.6,0.9,1.3*22
$GPRMC,024257.00,A,3722.831856,N,12640.685805,E,015.9,216.8,231119,,,A*53
$GPGGA,024258.00,3722.828810,N,12640.681564,E,1,27,0.6,20.8,M,17.8,M,,*54
$PGLOR,9,STA,024258.00,0.002,0.000,-299,1,6,0,P,F,L,0,C,3,S,00180002,82,5,R,000833F4,TPEF,43,994761,LC,,,*6A
$GPGSV,3,1,09,13,78,031,46,15,62,257,39,05,54,071,36,29,27,249,37*77
$GPGSV,3,2,09,21,25,315,28,30,25,053,33,02,25,155,31,24,11,189,28*70
$GPGSV,3,3,09,07,02,032,*44
$GLGSV,2,1,06,66,52,015,32,81,48,218,41,67,40,291,35,75,19,048,33*66
$GLGSV,2,2,06,65,07,065,29,76,26,101,*6A
$QZGSV,1,1,03,01,77,065,45,03,19,182,34,02,19,153,31*5D
$BDGSV,4,1,13,213,74,276,38,208,68,172,32,206,67,250,32,216,61,249,33*6B
$BDGSV,4,2,13,220,38,287,31,223,33,106,34,229,28,299,30,227,12,183,31*65
$BDGSV,4,3,13,203,44,206,,201,43,159,,230,39,234,,209,38,237,*69
$BDGSV,4,4,13,225,18,052,*61
$GAGSV,2,1,05,104,73,317,45,109,28,257,26,112,40,180,,119,33,054,*6A
$GAGSV,2,2,05,136,21,319,*61
$GPGSA,A,3,02,05,13,15,21,24,29,30,,,,,1.9,1.1,1.5*32
$GNGSA,A,3,02,05,13,15,21,24,29,30,,,,,1.9,1.1,1.5*2C
$GNGSA,A,3,65,66,67,75,81,,,,,,,,1.9,1.1,1.5*29
$QZGSA,A,3,01,02,03,,,,,,,,,,1.9,1.1,1.5*22
$IMGSA,A,3,,,,,,,,,,,,,1.9,1.1,1.5*2D
$BDGSA,A,3,206,208,213,216,220,223,227,229,,,,,1.9,1.1,1.5*29
$GAGSA,A,3,104,109,,,,,,,,,,,1.9,1.1,1.5*22
$GPRMC,024258.00,A,3722.828810,N,12640.681564,E,015.7,217.1,231119,,,A*5E
$GPGGA,024259.00,3722.825918,N,12640.677770,E,1,27,0.6,20.8,M,17.8,M,,*5F
$PGLOR,9,STA,024259.00,0.002,0.000,-299,1,6,0,P,F,L,0,C,3,S,00180002,90,5,R,000833F4,TPEF,43,995761,LC,,,*69
$GPGSV,3,1,09,13,78,031,46,15,62,257,39,05,54,071,36,29,27,249,39*79
$GPGSV,3,2,09,21,25,315,28,30,25,053,33,02,25,155,30,24,11,189,28*71
$GPGSV,3,3,09,07,02,032,*44
$GLGSV,2,1,06,66,52,015,32,81,48,218,40,67,40,291,35,75,19,048,33*67
$GLGSV,2,2,06,65,07,065,29,76,26,101,*6A
$QZGSV,1,1,03,01,77,065,45,03,19,182,33,02,19,153,30*5B
$BDGSV,4,1,13,213,74,276,38,208,68,172,32,206,67,250,31,216,61,249,32*69
$BDGSV,4,2,13,220,38,287,31,223,33,106,33,229,28,299,30,227,12,183,31*62
$BDGSV,4,3,13,203,44,206,,201,43,159,,230,39,234,,209,38,237,*69
$BDGSV,4,4,13,225,18,052,*61
$GAGSV,2,1,05,104,73,317,45,109,28,257,26,112,40,180,,119,33,054,*6A
$GAGSV,2,2,05,136,21,319,*61
$GPGSA,A,3,02,05,13,15,21,24,29,30,,,,,1.6,0.9,1.3*32
$GNGSA,A,3,02,05,13,15,21,24,29,30,,,,,1.6,0.9,1.3*2C
$GNGSA,A,3,65,66,67,75,81,,,,,,,,1.6,0.9,1.3*29
$QZGSA,A,3,01,02,03,,,,,,,,,,1.6,0.9,1.3*22
$IMGSA,A,3,,,,,,,,,,,,,1.6,0.9,1.3*2D
$BDGSA,A,3,206,208,213,216,220,223,227,229,,,,,1.6,0.9,1.3*29
$GAGSA,A,3,104,109,,,,,,,,,,,1.6,0.9,1.3*22
$GPRMC,024259.00,A,3722.825918,N,12640.677770,E,015.7,217.3,231119,,,A*57
$GPGGA,024300.00,3722.822691,N,12640.674173,E,1,27,0.6,20.8,M,17.8,M,,*5D
$PGLOR,9,STA,024300.00,0.002,0.000,-299,1,6,0,P,F,L,0,C,3,S,00180002,98,5,R,000833F4,TPEF,43,996761,LC,,,*6F
$GPGSV,3,1,09,13,78,031,46,15,62,257,39,05,54,071,35,29,27,249,40*74
$GPGSV,3,2,09,21,25,315,28,30,25,053,33,02,25,155,29,24,11,189,28*79
$GPGSV,3,3,09,07,02,032,*44
$GLGSV,2,1,06,66,52,015,31,81,48,218,40,67,40,291,35,75,19,048,32*65
$GLGSV,2,2,06,65,07,065,28,76,26,101,*6B
$QZGSV,1,1,03,01,77,065,45,03,19,182,33,02,19,153,29*53
$BDGSV,4,1,13,213,74,276,38,208,68,172,32,206,67,250,31,216,61,249,31*6A
$BDGSV,4,2,13,220,38,287,31,223,33,105,33,229,28,299,30,227,12,183,30*60
$BDGSV,4,3,13,203,44,206,,201,43,159,,230,39,234,,209,38,237,*69
$BDGSV,4,4,13,225,18,052,*61
$GAGSV,2,1,05,104,73,317,45,109,28,257,26,112,40,180,,119,33,054,*6A
$GAGSV,2,2,05,136,21,319,*61
$GPGSA,A,3,02,05,13,15,21,24,29,30,,,,,1.6,1.0,1.3*3A
$GNGSA,A,3,02,05,13,15,21,24,29,30,,,,,1.6,1.0,1.3*24
$GNGSA,A,3,65,66,67,75,81,,,,,,,,1.6,1.0,1.3*21
$QZGSA,A,3,01,02,03,,,,,,,,,,1.6,1.0,1.3*2A
$IMGSA,A,3,,,,,,,,,,,,,1.6,1.0,1.3*25
$BDGSA,A,3,206,208,213,216,220,223,227,229,,,,,1.6,1.0,1.3*21
$GAGSA,A,3,104,109,,,,,,,,,,,1.6,1.0,1.3*2A
$GPRMC,024300.00,A,3722.822691,N,12640.674173,E,015.8,217.4,231119,,,A*5D
$GPGGA,024301.00,3722.819498,N,12640.670652,E,1,27,0.6,20.8,M,17.8,M,,*5F
$PGLOR,9,STA,024301.00,0.002,0.000,-299,1,6,0,P,F,L,0,C,3,S,00180002,106,5,R,000833F4,TPEF,43,997761,LC,,,*59
$GPGSV,3,1,09,13,78,031,46,15,62,257,39,05,54,071,34,29,27,249,41*74
$GPGSV,3,2,09,21,25,315,28,30,25,053,33,02,25,155,28,24,11,189,28*78
$GPGSV,3,3,09,07,02,032,*44
$GLGSV,2,1,06,66,52,015,30,81,48,218,39,67,40,291,34,75,19,048,32*6B
$GLGSV,2,2,06,65,07,065,28,76,26,101,*6B
$QZGSV,1,1,03,01,77,065,45,03,19,182,32,02,19,153,28*53
$BDGSV,4,1,13,213,74,276,37,208,68,172,32,206,67,250,30,216,61,249,30*65
$BDGSV,4,2,13,220,38,287,32,223,33,105,33,229,28,299,31,227,12,183,29*6A
$BDGSV,4,3,13,203,44,206,,201,43,159,,230,39,234,,209,38,237,*69
$BDGSV,4,4,13,225,18,052,*61
$GAGSV,2,1,05,104,73,317,45,109,28,257,28,112,40,180,,119,33,054,*64
$GAGSV,2,2,05,136,21,319,*61
$GPGSA,A,3,02,05,13,15,21,24,29,30,,,,,1.5,0.9,1.2*30
$GNGSA,A,3,02,05,13,15,21,24,29,30,,,,,1.5,0.9,1.2*2E
$GNGSA,A,3,65,66,67,75,81,,,,,,,,1.5,0.9,1.2*2B
$QZGSA,A,3,01,02,03,,,,,,,,,,1.5,0.9,1.2*20
$IMGSA,A,3,,,,,,,,,,,,,1.5,0.9,1.2*2F
$BDGSA,A,3,206,208,213,216,220,223,227,229,,,,,1.5,0.9,1.2*2B
$GAGSA,A,3,104,109,,,,,,,,,,,1.5,0.9,1.2*20
$GPRMC,024301.00,A,3722.819498,N,12640.670652,E,015.7,217.9,231119,,,A*5D
$GPGGA,024302.00,3722.816425,N,12640.667101,E,1,26,0.4,20.8,M,17.8,M,,*51
$PGLOR,9,STA,024302.00,0.002,0.000,-299,1,4,0,P,F,L,0,C,3,S,00180002,114,5,R,000833F4,TPEF,43,998761,LC,,,*54
$GPGSV,3,1,09,13,78,031,46,15,62,257,39,05,54,071,34,29,27,249,41*74
$GPGSV,3,2,09,21,25,315,28,30,25,053,33,02,25,155,28,24,11,189,27*77
$GPGSV,3,3,09,07,02,032,*44
$GLGSV,2,1,06,66,52,015,29,81,48,218,39,67,40,291,35,75,19,048,32*62
$GLGSV,2,2,06,65,07,065,28,76,26,101,*6B
$QZGSV,1,1,03,01,77,065,45,03,19,182,31,02,19,153,27*5F
$BDGSV,4,1,13,213,74,276,37,208,68,172,32,206,67,250,29,216,61,249,29*65
$BDGSV,4,2,13,220,38,288,32,223,33,105,33,229,28,299,31,227,12,183,29*65
$BDGSV,4,3,13,203,44,206,,201,43,159,,230,39,234,,209,38,237,*69
$BDGSV,4,4,13,225,18,052,*61
$GAGSV,2,1,05,104,73,317,45,109,28,257,,112,40,180,,119,33,054,*6E
$GAGSV,2,2,05,136,21,319,*61
$GPGSA,A,3,02,05,13,15,21,24,29,30,,,,,1.5,0.9,1.2*30
$GNGSA,A,3,02,05,13,15,21,24,29,30,,,,,1.5,0.9,1.2*2E
$GNGSA,A,3,65,66,67,75,81,,,,,,,,1.5,0.9,1.2*2B
$QZGSA,A,3,01,02,03,,,,,,,,,,1.5,0.9,1.2*20
$IMGSA,A,3,,,,,,,,,,,,,1.5,0.9,1.2*2F
$BDGSA,A,3,206,208,213,216,220,223,227,229,,,,,1.5,0.9,1.2*2B
$GAGSA,A,3,104,,,,,,,,,,,,1.5,0.9,1.2*18
$GPRMC,024302.00,A,3722.816425,N,12640.667101,E,015.7,217.1,231119,,,A*58
$GPGGA,024303.00,3722.813142,N,12640.663553,E,1,27,0.4,20.8,M,17.8,M,,*57
$PGLOR,9,STA,024303.00,0.002,0.000,-299,1,4,0,P,F,L,0,C,3,S,00180002,122,5,R,000833F4,TPEF,43,999761,LC,,,*51
$GPGSV,3,1,09,13,78,031,46,15,62,257,39,05,54,071,33,29,27,249,41*73
$GPGSV,3,2,09,21,25,315,28,30,25,053,33,02,25,155,27,24,11,189,27*78
$GPGSV,3,3,09,07,02,032,*44
$GLGSV,2,1,06,66,52,015,29,81,48,218,39,67,40,291,35,75,19,048,31*61
$GLGSV,2,2,06,65,07,065,27,76,26,101,*64
$QZGSV,1,1,03,01,77,065,45,03,19,182,31,02,19,153,27*5F
$BDGSV,4,1,13,213,74,276,37,208,68,172,32,206,67,250,29,216,61,249,28*64
$BDGSV,4,2,13,220,38,288,32,223,33,105,33,229,28,299,30,227,12,183,28*65
$BDGSV,4,3,13,203,44,206,,201,43,159,,230,39,234,,209,38,237,*69
$BDGSV,4,4,13,225,18,052,*61
$GAGSV,2,1,05,104,73,317,45,109,28,258,27,112,40,180,,119,33,054,*64
$GAGSV,2,2,05,136,21,319,*61
$GPGSA,A,3,02,05,13,15,21,24,29,30,,,,,1.4,1.0,1.1*3A
$GNGSA,A,3,02,05,13,15,21,24,29,30,,,,,1.4,1.0,1.1*24
$GNGSA,A,3,65,66,67,75,81,,,,,,,,1.4,1.0,1.1*21
$QZGSA,A,3,01,02,03,,,,,,,,,,1.4,1.0,1.1*2A
$IMGSA,A,3,,,,,,,,,,,,,1.4,1.0,1.1*25
$BDGSA,A,3,206,208,213,216,220,223,227,229,,,,,1.4,1.0,1.1*21
$GAGSA,A,3,104,109,,,,,,,,,,,1.4,1.0,1.1*2A
$GPRMC,024303.00,A,3722.813142,N,12640.663553,E,015.7,217.5,231119,,,A*5B
$GPGGA,024304.00,3722.809822,N,12640.659764,E,1,27,0.6,20.7,M,17.8,M,,*56
$PGLOR,9,STA,024304.00,0.002,0.000,-300,1,6,0,P,F,L,0,C,3,S,00180002,130,5,R,000833F4,TPEF,43,1000761,LC,,,*6E
$GPGSV,3,1,09,13,78,031,46,15,62,257,39,05,54,071,33,29,27,249,40*72
$GPGSV,3,2,09,21,25,315,28,30,25,053,33,02,25,155,27,24,11,189,27*78
$GPGSV,3,3,09,07,02,032,*44
$GLGSV,2,1,06,66,52,015,28,81,48,218,39,67,40,291,36,75,19,048,30*62
$GLGSV,2,2,06,65,07,066,27,76,26,101,*67
$QZGSV,1,1,03,01,77,065,45,03,19,182,31,02,19,153,26*5E
$BDGSV,4,1,13,213,74,276,37,208,68,172,32,206,67,250,29,216,61,249,27*6B
$BDGSV,4,2,13,220,38,288,32,223,33,105,33,229,28,299,30,227,12,183,28*65
$BDGSV,4,3,13,203,44,206,,201,43,159,,230,39,234,,209,38,237,*69
$BDGSV,4,4,13,225,18,052,*61
$GAGSV,2,1,05,104,73,317,45,109,28,258,27,112,40,180,,119,33,054,*64
$GAGSV,2,2,05,136,21,319,*61
$GPGSA,A,3,02,05,13,15,21,24,29,30,,,,,2.1,1.2,1.7*38
$GNGSA,A,3,02,05,13,15,21,24,29,30,,,,,2.1,1.2,1.7*26
$GNGSA,A,3,65,66,67,75,81,,,,,,,,2.1,1.2,1.7*23
$QZGSA,A,3,01,02,03,,,,,,,,,,2.1,1.2,1.7*28
$IMGSA,A,3,,,,,,,,,,,,,2.1,1.2,1.7*27
$BDGSA,A,3,206,208,213,216,220,223,227,229,,,,,2.1,1.2,1.7*23
$GAGSA,A,3,104,109,,,,,,,,,,,2.1,1.2,1.7*28
$GPRMC,024304.00,A,3722.809822,N,12640.659764,E,015.6,217.8,231119,,,A*5B
$GPGGA,024305.00,3722.806406,N,12640.656445,E,1,26,0.6,20.7,M,17.8,M,,*5C
$PGLOR,9,STA,024305.00,0.002,0.000,-300,1,6,0,P,F,L,0,C,3,S,00180002,138,5,R,000833F4,TPEF,43,1001761,LC,,,*66
$GPGSV,3,1,09,13,78,031,46,15,62,257,39,05,54,071,33,29,27,249,40*72
$GPGSV,3,2,09,21,25,315,30,30,25,053,33,02,25,155,27,24,11,189,27*71
$GPGSV,3,3,09,07,02,032,*44
$GLGSV,2,1,06,66,52,015,27,81,48,218,38,67,40,291,36,75,19,048,30*6C
$GLGSV,2,2,06,65,07,066,27,76,26,101,*67
$QZGSV,1,1,03,01,77,065,45,03,19,182,31,02,19,153,25*5D
$BDGSV,4,1,13,213,74,276,37,208,68,172,32,206,67,250,29,216,61,249,26*6A
$BDGSV,4,2,13,220,38,288,32,223,33,105,33,229,28,299,30,227,12,183,27*6A
$BDGSV,4,3,13,203,44,206,,201,43,159,,230,39,234,,209,38,237,*69
$BDGSV,4,4,13,225,18,052,*61
$GAGSV,2,1,05,104,73,317,45,109,28,258,28,112,40,180,,119,33,054,*6B
$GAGSV,2,2,05,136,21,319,*61
$GPGSA,A,3,02,05,13,15,21,24,29,30,,,,,2.1,1.3,1.7*39
$GNGSA,A,3,02,05,13,15,21,24,29,30,,,,,2.1,1.3,1.7*27
$GNGSA,A,3,65,67,75,81,,,,,,,,,2.1,1.3,1.7*22
$QZGSA,A,3,01,02,03,,,,,,,,,,2.1,1.3,1.7*29
$IMGSA,A,3,,,,,,,,,,,,,2.1,1.3,1.7*26
$BDGSA,A,3,206,208,213,216,220,223,227,229,,,,,2.1,1.3,1.7*22
$GAGSA,A,3,104,109,,,,,,,,,,,2.1,1.3,1.7*29
$GPRMC,024305.00,A,3722.806406,N,12640.656445,E,015.7,217.7,231119,,,A*5E
$GPGGA,024306.00,3722.803006,N,12640.653150,E,1,27,0.6,20.6,M,17.8,M,,*5A
$PGLOR,9,STA,024306.00,0.002,0.000,-299,1,6,0,P,F,L,0,C,3,S,00180002,146,5,R,000833F4,TPEF,43,1002761,LC,,,*6E
$GPGSV,3,1,09,13,78,031,46,15,62,257,39,05,54,071,33,29,27,249,40*72
$GPGSV,3,2,09,21,25,315,31,30,25,053,34,02,25,155,27,24,11,189,27*77
$GPGSV,3,3,09,07,02,032,*44
$GLGSV,2,1,06,66,52,015,26,81,48,218,38,67,40,291,37,75,19,048,31*6D
$GLGSV,2,2,06,65,07,066,27,76,26,101,*67
$QZGSV,1,1,03,01,77,065,45,03,19,182,30,02,19,153,25*5C
$BDGSV,4,1,13,213,74,276,37,208,68,172,32,206,67,250,29,216,61,249,26*6A
$BDGSV,4,2,13,220,38,288,33,223,33,105,33,229,28,299,30,227,12,183,27*6B
$BDGSV,4,3,13,203,44,206,,201,43,159,,230,39,234,,209,38,237,*69
$BDGSV,4,4,13,225,18,052,*61
$GAGSV,2,1,05,104,73,317,45,109,28,258,28,112,40,180,,119,33,054,*6B
$GAGSV,2,2,05,136,21,319,*61
$GPGSA,A,3,02,05,13,15,21,24,29,30,,,,,2.1,1.3,1.6*38
$GNGSA,A,3,02,05,13,15,21,24,29,30,,,,,2.1,1.3,1.6*26
$GNGSA,A,3,65,66,67,75,81,,,,,,,,2.1,1.3,1.6*23
$QZGSA,A,3,01,02,03,,,,,,,,,,2.1,1.3,1.6*28
$IMGSA,A,3,,,,,,,,,,,,,2.1,1.3,1.6*27
$BDGSA,A,3,206,208,213,216,220,223,227,229,,,,,2.1,1.3,1.6*23
$GAGSA,A,3,104,109,,,,,,,,,,,2.1,1.3,1.6*28
$GPRMC,024306.00,A,3722.803006,N,12640.653150,E,015.6,217.8,231119,,,A*56
$GPGGA,024307.00,3722.799587,N,12640.649879,E,1,26,0.6,20.5,M,17.8,M,,*50
$PGLOR,9,STA,024307.00,0.002,0.000,-300,1,6,0,P,F,L,0,C,3,S,00180002,154,5,R,000833F4,TPEF,43,1003761,LC,,,*6C
$GPGSV,3,1,09,13,78,031,46,15,62,257,39,05,54,071,33,29,27,249,40*72
$GPGSV,3,2,09,21,25,315,31,30,25,053,34,02,25,155,27,24,11,189,27*77
$GPGSV,3,3,09,07,02,032,*44
$GLGSV,2,1,06,66,52,015,25,81,48,218,38,67,40,291,37,75,19,048,32*6D
$GLGSV,2,2,06,65,07,066,27,76,26,101,*67
$QZGSV,1,1,03,01,77,065,45,03,19,182,30,02,19,153,24*5D
$BDGSV,4,1,13,213,74,276,37,208,68,172,32,206,67,250,29,216,61,249,*6E
$BDGSV,4,2,13,220,38,288,33,223,33,105,33,229,28,299,30,227,12,183,27*6B
$BDGSV,4,3,13,203,44,206,,201,43,159,,230,39,234,,209,38,237,*69
$BDGSV,4,4,13,225,18,052,*61
$GAGSV,2,1,05,104,73,317,45,109,28,258,28,112,40,180,,119,33,054,*6B
$GAGSV,2,2,05,136,21,319,*61
$GPGSA,A,3,02,05,13,15,21,24,29,30,,,,,2.1,1.3,1.6*38
$GNGSA,A,3,02,05,13,15,21,24,29,30,,,,,2.1,1.3,1.6*26
$GNGSA,A,3,65,66,67,75,81,,,,,,,,2.1,1.3,1.6*23
$QZGSA,A,3,01,02,03,,,,,,,,,,2.1,1.3,1.6*28
$IMGSA,A,3,,,,,,,,,,,,,2.1,1.3,1.6*27
$BDGSA,A,3,206,208,213,220,223,227,229,,,,,,2.1,1.3,1.6*16
$GAGSA,A,3,104,109,,,,,,,,,,,2.1,1.3,1.6*28
$GPRMC,024307.00,A,3722.799587,N,12640.649879,E,015.6,217.9,231119,,,A*5F
$GPGGA,024308.00,3722.796220,N,12640.646531,E,1,27,0.6,20.5,M,17.8,M,,*55
$PGLOR,9,STA,024308.00,0.002,0.000,-300,1,6,0,P,F,L,0,C,3,S,00180002,162,5,R,000833F4,TPEF,43,1004761,LC,,,*61
$GPGSV,3,1,09,13,78,031,46,15,62,257,39,05,54,071,33,29,27,249,40*72
$GPGSV,3,2,09,21,25,315,31,30,25,053,35,02,25,155,27,24,11,189,27*76
$GPGSV,3,3,09,07,02,032,*44
$GLGSV,2,1,06,66,52,015,25,81,48,218,38,67,40,291,37,75,19,048,32*6D
$GLGSV,2,2,06,65,07,066,27,76,26,101,*67
$QZGSV,1,1,03,01,77,065,45,03,19,182,30,02,19,153,24*5D
$BDGSV,4,1,13,213,74,276,37,208,68,172,32,206,67,250,28,216,61,249,27*6A
$BDGSV,4,2,13,220,38,288,33,223,33,105,33,229,28,299,30,227,12,183,28*64
$BDGSV,4,3,13,203,44,206,,201,43,159,,209,38,237,,230,38,234,*68
$BDGSV,4,4,13,225,18,052,*61
$GAGSV,2,1,05,104,73,317,45,109,28,258,27,112,40,180,,119,33,054,*64
$GAGSV,2,2,05,136,21,319,*61
$GPGSA,A,3,02,05,13,15,21,24,29,30,,,,,2.1,1.3,1.6*38
$GNGSA,A,3,02,05,13,15,21,24,29,30,,,,,2.1,1.3,1.6*26
$GNGSA,A,3,65,66,67,75,81,,,,,,,,2.1,1.3,1.6*23
$QZGSA,A,3,01,02,03,,,,,,,,,,2.1,1.3,1.6*28
$IMGSA,A,3,,,,,,,,,,,,,2.1,1.3,1.6*27
$BDGSA,A,3,206,208,213,216,220,223,227,229,,,,,2.1,1.3,1.6*23
$GAGSA,A,3,104,109,,,,,,,,,,,2.1,1.3,1.6*28
$GPRMC,024308.00,A,3722.796220,N,12640.646531,E,015.6,218.0,231119,,,A*5D
$GPGGA,024309.00,3722.792624,N,12640.642802,E,1,27,0.6,20.5,M,17.8,M,,*59
$PGLOR,9,STA,024309.00,0.002,0.000,-300,1,6,0,P,F,L,0,C,3,S,00180002,170,5,R,000833F4,TPEF,43,1005761,LC,,,*62
$GPGSV,3,1,09,13,78,031,46,15,62,257,38,05,54,071,32,29,27,249,40*72
$GPGSV,3,2,09,21,25,315,31,30,25,053,35,02,25,155,26,24,11,189,26*76
$GPGSV,3,3,09,07,02,032,*44
$GLGSV,2,1,06,66,52,015,25,81,48,218,37,67,40,291,38,75,19,048,32*6D
$GLGSV,2,2,06,65,07,066,26,76,26,101,*66
$QZGSV,1,1,03,01,77,065,45,03,19,182,29,02,19,153,23*52
$BDGSV,4,1,13,213,74,276,37,208,68,172,32,206,67,250,28,216,61,249,26*6B
$BDGSV,4,2,13,220,38,288,33,223,33,105,33,229,28,299,30,227,12,183,28*64
$BDGSV,4,3,13,203,44,206,,201,43,159,,209,38,237,,230,38,234,*68
$BDGSV,4,4,13,225,18,052,*61
$GAGSV,2,1,05,104,73,317,45,109,28,258,27,112,40,180,,119,33,054,*64
$GAGSV,2,2,05,136,21,319,*61
$GPGSA,A,3,02,05,13,15,21,24,29,30,,,,,1.6,1.0,1.3*3A
$GNGSA,A,3,02,05,13,15,21,24,29,30,,,,,1.6,1.0,1.3*24
$GNGSA,A,3,65,66,67,75,81,,,,,,,,1.6,1.0,1.3*21
$QZGSA,A,3,01,02,03,,,,,,,,,,1.6,1.0,1.3*2A
$IMGSA,A,3,,,,,,,,,,,,,1.6,1.0,1.3*25
$BDGSA,A,3,206,208,213,216,220,223,227,229,,,,,1.6,1.0,1.3*21
$GAGSA,A,3,104,109,,,,,,,,,,,1.6,1.0,1.3*2A
$GPRMC,024309.00,A,3722.792624,N,12640.642802,E,015.6,218.4,231119,,,A*55
$GPGGA,024310.00,3722.789230,N,12640.639443,E,1,27,0.6,20.4,M,17.8,M,,*5E
$PGLOR,9,STA,024310.00,0.002,0.000,-300,1,6,0,P,F,L,0,C,3,S,00180002,178,5,R,000833F4,TPEF,43,1006761,LC,,,*61
$GPGSV,3,1,09,13,78,031,46,15,62,257,38,05,54,071,32,29,27,249,40*72
$GPGSV,3,2,09,21,25,315,31,30,25,053,35,02,25,155,26,24,11,189,26*76
$GPGSV,3,3,09,07,02,032,*44
$GLGSV,2,1,06,66,52,015,26,81,48,218,37,67,40,291,39,75,19,048,32*6F
$GLGSV,2,2,06,65,07,066,26,76,26,101,*66
$QZGSV,1,1,03,01,77,065,45,03,19,182,29,02,19,153,23*52
$BDGSV,4,1,13,213,74,276,36,208,68,172,32,206,67,250,28,216,61,249,27*6B
$BDGSV,4,2,13,220,38,288,33,223,33,105,33,229,28,299,29,227,12,183,27*63
$BDGSV,4,3,13,203,44,206,,201,43,159,,209,38,237,,230,38,234,*68
$BDGSV,4,4,13,225,18,052,*61
$GAGSV,2,1,05,104,73,317,45,109,28,258,27,112,40,180,,119,33,054,*64
$GAGSV,2,2,05,136,21,319,*61
$GPGSA,A,3,02,05,13,15,21,24,29,30,,,,,2.1,1.3,1.7*39
$GNGSA,A,3,02,05,13,15,21,24,29,30,,,,,2.1,1.3,1.7*27
$GNGSA,A,3,65,66,67,75,81,,,,,,,,2.1,1.3,1.7*22
$QZGSA,A,3,01,02,03,,,,,,,,,,2.1,1.3,1.7*29
$IMGSA,A,3,,,,,,,,,,,,,2.1,1.3,1.7*26
$BDGSA,A,3,206,208,213,216,220,223,227,229,,,,,2.1,1.3,1.7*22
$GAGSA,A,3,104,109,,,,,,,,,,,2.1,1.3,1.7*29
$GPRMC,024310.00,A,3722.789230,N,12640.639443,E,015.6,218.4,231119,,,A*53
$GPGGA,024311.00,3722.785873,N,12640.636064,E,1,26,0.6,20.4,M,17.8,M,,*51
$PGLOR,9,STA,024311.00,0.002,0.000,-300,1,6,0,P,F,L,0,C,3,S,00180182,186,5,R,000833F4,TPEF,41,1007761,LC,,,*6B
$GPGSV,3,1,09,13,78,031,46,15,62,257,38,05,54,071,32,29,27,249,40*72
$GPGSV,3,2,09,21,25,315,31,30,25,053,36,02,25,155,26,24,12,189,26*76
$GPGSV,3,3,09,07,02,032,*44
$GLGSV,2,1,06,66,52,015,27,81,48,218,36,67,40,291,39,75,19,048,32*6F
$GLGSV,2,2,06,65,07,066,26,76,26,101,*66
$QZGSV,1,1,03,01,77,065,45,03,19,182,29,02,19,153,23*52
$BDGSV,4,1,13,213,74,276,36,208,68,172,32,206,67,250,29,216,61,249,27*6A
$BDGSV,4,2,13,220,38,288,33,223,33,105,33,229,28,299,29,227,12,183,27*63
$BDGSV,4,3,13,203,44,206,,201,43,159,,209,38,237,,230,38,234,*68
$BDGSV,4,4,13,225,18,052,*61
$GAGSV,2,1,05,104,73,317,45,109,28,258,27,136,21,319,,121,13,074,*6C
$GAGSV,2,2,05,101,10,123,*6C
$GPGSA,A,3,02,05,13,15,21,24,29,30,,,,,2.1,1.3,1.7*39
$GNGSA,A,3,02,05,13,15,21,24,29,30,,,,,2.1,1.3,1.7*27
$GNGSA,A,3,65,66,67,75,81,,,,,,,,2.1,1.3,1.7*22
$QZGSA,A,3,01,02,03,,,,,,,,,,2.1,1.3,1.7*29
$IMGSA,A,3,,,,,,,,,,,,,2.1,1.3,1.7*26
$BDGSA,A,3,206,208,213,216,220,223,227,229,,,,,2.1,1.3,1.7*22
$GAGSA,A,3,104,109,,,,,,,,,,,2.1,1.3,1.7*29
$GPRMC,024311.00,A,3722.785873,N,12640.636064,E,015.6,218.3,231119,,,A*5A
$GPGGA,024312.00,3722.782476,N,12640.632753,E,1,25,0.4,20.3,M,17.8,M,,*5D
$PGLOR,9,STA,024312.00,0.002,0.000,-300,1,4,0,P,F,L,0,C,3,S,00180182,194,5,R,000833F4,TPEF,40,1008761,LC,,,*67
$GPGSV,3,1,09,13,78,031,46,15,62,257,38,05,54,071,31,29,27,249,40*71
$GPGSV,3,2,09,21,25,315,31,30,25,053,36,02,25,155,26,24,12,189,26*76
$GPGSV,3,3,09,07,02,032,*44
$GLGSV,2,1,06,66,52,015,27,81,48,218,36,67,40,291,39,75,19,048,31*6C
$GLGSV,2,2,06,65,07,066,25,76,26,101,*65
$QZGSV,1,1,03,01,77,065,45,03,19,182,29,02,19,153,22*53
$BDGSV,4,1,14,213,74,276,36,208,68,172,32,206,67,250,30,216,61,249,26*64
$BDGSV,4,2,14,220,38,288,33,223,33,105,32,229,28,299,29,227,12,183,*60
$BDGSV,4,3,14,203,44,206,,201,43,159,,209,38,237,,230,38,234,*6F
$BDGSV,4,4,14,225,18,052,,205,10,258,*6F
$GAGSV,1,1,04,104,73,317,45,109,28,258,27,136,21,319,,101,10,123,*6C
$GPGSA,A,3,02,05,13,15,21,24,29,30,,,,,2.1,1.3,1.7*39
$GNGSA,A,3,02,05,13,15,21,24,29,30,,,,,2.1,1.3,1.7*27
$GNGSA,A,3,65,66,67,75,81,,,,,,,,2.1,1.3,1.7*22
$QZGSA,A,3,01,02,03,,,,,,,,,,2.1,1.3,1.7*29
$IMGSA,A,3,,,,,,,,,,,,,2.1,1.3,1.7*26
$BDGSA,A,3,206,208,213,216,220,223,229,,,,,,2.1,1.3,1.7*15
$GAGSA,A,3,104,109,,,,,,,,,,,2.1,1.3,1.7*29
$GPRMC,024312.00,A,3722.782476,N,12640.632753,E,015.6,218.2,231119,,,A*51
$GPGGA,024313.00,3722.779135,N,12640.629254,E,1,26,0.4,20.2,M,17.8,M,,*50
$PGLOR,9,STA,024313.00,0.002,0.000,-300,1,4,0,P,F,L,0,C,3,S,00180182,202,5,R,000833F4,TPEF,39,1009761,LC,,,*65
$GPGSV,3,1,09,13,78,031,46,15,62,257,37,05,54,071,31,29,27,249,40*7E
$GPGSV,3,2,09,21,25,315,31,30,25,053,35,02,25,155,26,24,12,189,27*74
$GPGSV,3,3,09,07,02,032,*44
$GLGSV,2,1,06,66,52,015,27,81,48,218,36,67,40,291,39,75,19,048,31*6C
$GLGSV,2,2,06,65,07,066,25,76,26,101,*65
$QZGSV,1,1,03,01,77,065,45,03,19,182,29,02,19,153,22*53
$BDGSV,4,1,14,213,74,276,36,208,68,172,32,206,67,250,30,216,61,249,25*67
$BDGSV,4,2,14,220,38,288,33,223,33,105,32,229,28,299,29,227,12,183,*60
$BDGSV,4,3,14,203,44,206,,201,43,159,,209,38,237,,230,38,234,*6F
$BDGSV,4,4,14,225,18,052,,205,10,258,*6F
$GAGSV,1,1,04,104,73,317,45,109,28,258,29,136,21,319,,101,10,123,*62
$GPGSA,A,3,02,05,13,15,21,24,29,30,,,,,2.1,1.3,1.7*39
$GNGSA,A,3,02,05,13,15,21,24,29,30,,,,,2.1,1.3,1.7*27
$GNGSA,A,3,65,66,67,75,81,,,,,,,,2.1,1.3,1.7*22
$QZGSA,A,3,01,02,03,,,,,,,,,,2.1,1.3,1.7*29
$IMGSA,A,3,,,,,,,,,,,,,2.1,1.3,1.7*26
$BDGSA,A,3,206,208,213,216,220,223,229,,,,,,2.1,1.3,1.7*15
$GAGSA,A,3,104,109,,,,,,,,,,,2.1,1.3,1.7*29
$GPRMC,024313.00,A,3722.779135,N,12640.629254,E,015.7,218.2,231119,,,A*5F
$GPGGA,024314.00,3722.775840,N,12640.625774,E,1,26,0.4,20.2,M,17.8,M,,*5B
$PGLOR,9,STA,024314.00,0.002,0.000,-300,1,4,0,P,F,L,0,C,3,S,00180182,210,5,R,000833F4,TPEF,39,1010761,LC,,,*69
$GPGSV,3,1,09,13,78,031,46,15,62,257,37,05,54,071,31,29,27,249,40*7E
$GPGSV,3,2,09,21,25,315,31,30,25,053,35,02,25,155,26,24,12,189,27*74
$GPGSV,3,3,09,07,02,032,*44
$GLGSV,2,1,06,66,52,015,27,81,48,218,36,67,40,291,39,75,19,048,31*6C
$GLGSV,2,2,06,65,07,066,25,76,26,101,*65
$QZGSV,1,1,03,01,77,065,45,03,19,182,29,02,19,153,23*52
$BDGSV,4,1,14,213,74,276,36,208,68,172,32,206,67,250,30,216,61,249,25*67
$BDGSV,4,2,14,220,38,288,33,223,33,105,32,229,28,299,29,227,12,183,24*66
$BDGSV,4,3,14,203,44,206,,201,43,159,,209,38,237,,230,38,234,*6F
$BDGSV,4,4,14,225,18,052,,205,10,258,*6F
$GAGSV,1,1,04,104,73,318,45,109,28,258,29,112,39,180,,101,10,123,*60
$GPGSA,A,3,02,05,13,15,21,24,29,30,,,,,1.4,0.9,1.1*32
$GNGSA,A,3,02,05,13,15,21,24,29,30,,,,,1.4,0.9,1.1*2C
$GNGSA,A,3,65,66,67,75,81,,,,,,,,1.4,0.9,1.1*29
$QZGSA,A,3,01,02,03,,,,,,,,,,1.4,0.9,1.1*22
$IMGSA,A,3,,,,,,,,,,,,,1.4,0.9,1.1*2D
$BDGSA,A,3,206,208,213,216,220,223,227,229,,,,,1.4,0.9,1.1*29
$GAGSA,A,3,104,109,,,,,,,,,,,1.4,0.9,1.1*22
$GPRMC,024314.00,A,3722.775840,N,12640.625774,E,015.7,218.4,231119,,,A*52
$GPGGA,024315.00,3722.772492,N,12640.622353,E,1,27,0.4,20.1,M,17.8,M,,*5A
$PGLOR,9,STA,024315.00,0.002,0.000,-300,1,4,0,P,F,L,0,C,3,S,00180182,218,5,R,000833F4,TPEF,39,1011761,LC,,,*61
$GPGSV,3,1,09,13,78,031,46,15,62,257,37,05,54,071,31,29,27,249,39*70
$GPGSV,3,2,09,21,25,315,31,30,25,053,35,02,25,155,28,24,12,189,27*7A
$GPGSV,3,3,09,07,02,032,*44
$GLGSV,2,1,06,66,52,015,26,81,48,218,35,67,40,291,39,75,19,048,31*6E
$GLGSV,2,2,06,65,07,066,25,76,26,101,*65
$QZGSV,1,1,03,01,77,065,46,03,19,182,29,02,19,153,22*50
$BDGSV,4,1,14,213,74,276,36,208,68,172,32,206,67,250,30,216,61,249,25*67
$BDGSV,4,2,14,220,38,288,33,223,33,105,32,229,28,299,28,227,12,183,30*62
$BDGSV,4,3,14,203,44,206,,201,43,159,,209,38,237,,230,38,234,*6F
$BDGSV,4,4,14,225,18,052,,205,10,258,*6F
$GAGSV,1,1,04,104,73,318,45,109,28,258,29,112,39,180,,101,10,123,*60
$GPGSA,A,3,02,05,13,15,21,24,29,30,,,,,1.5,0.9,1.2*30
$GNGSA,A,3,02,05,13,15,21,24,29,30,,,,,1.5,0.9,1.2*2E
$GNGSA,A,3,65,66,67,75,81,,,,,,,,1.5,0.9,1.2*2B
$QZGSA,A,3,01,02,03,,,,,,,,,,1.5,0.9,1.2*20
$IMGSA,A,3,,,,,,,,,,,,,1.5,0.9,1.2*2F
$BDGSA,A,3,206,208,213,216,220,223,227,229,,,,,1.5,0.9,1.2*2B
$GAGSA,A,3,104,109,,,,,,,,,,,1.5,0.9,1.2*20
$GPRMC,024315.00,A,3722.772492,N,12640.622353,E,015.7,218.2,231119,,,A*57
$GPGGA,024316.00,3722.769064,N,12640.618919,E,1,26,0.4,20.1,M,17.8,M,,*52
$PGLOR,9,STA,024316.00,0.002,0.000,-300,1,4,0,P,F,L,0,C,3,S,00180182,226,5,R,000833F4,TPEF,40,1012761,LC,,,*62
$GPGSV,3,1,09,13,78,031,46,15,62,257,37,05,54,071,31,29,27,249,39*70
$GPGSV,3,2,09,21,25,315,30,30,25,053,35,02,25,155,28,24,12,189,26*7A
$GPGSV,3,3,09,07,02,032,*44
$GLGSV,2,1,06,66,52,015,26,81,48,218,35,67,40,291,39,75,19,048,30*6F
$GLGSV,2,2,06,65,07,066,24,76,26,101,*64
$QZGSV,1,1,03,01,77,065,46,03,19,182,29,02,19,153,22*50
$BDGSV,4,1,14,213,74,276,36,208,68,172,32,206,67,250,30,216,61,249,26*64
$BDGSV,4,2,14,220,38,288,33,223,33,105,33,229,28,299,28,227,12,183,30*63
$BDGSV,4,3,14,203,44,206,,201,43,159,,209,38,237,,230,38,234,*6F
$BDGSV,4,4,14,225,18,052,,205,10,258,*6F
$GAGSV,1,1,04,104,73,318,45,109,28,258,28,112,39,180,,119,33,054,*68
$GPGSA,A,3,02,05,13,15,21,24,29,30,,,,,2.1,1.3,1.7*39
$GNGSA,A,3,02,05,13,15,21,24,29,30,,,,,2.1,1.3,1.7*27
$GNGSA,A,3,65,66,67,75,81,,,,,,,,2.1,1.3,1.7*22
$QZGSA,A,3,01,02,03,,,,,,,,,,2.1,1.3,1.7*29
$IMGSA,A,3,,,,,,,,,,,,,2.1,1.3,1.7*26
$BDGSA,A,3,206,208,213,216,220,223,227,229,,,,,2.1,1.3,1.7*22
$GAGSA,A,3,104,109,,,,,,,,,,,2.1,1.3,1.7*29
$GPRMC,024316.00,A,3722.769064,N,12640.618919,E,015.8,217.5,231119,,,A*59
$GPGGA,024317.00,3722.765579,N,12640.615444,E,1,25,0.4,20.1,M,17.8,M,,*5D
$PGLOR,9,STA,024317.00,0.002,0.000,-300,1,4,0,P,F,L,0,C,3,S,00180182,235,5,R,000833F4,TPEF,41,1013761,LC,,,*61
$GPGSV,3,1,09,13,78,031,46,15,62,257,37,05,54,071,30,29,27,249,39*71
$GPGSV,3,2,09,21,25,315,31,02,25,155,27,30,24,053,35,24,12,189,26*75
$GPGSV,3,3,09,07,02,032,*44
$GLGSV,2,1,06,66,52,015,26,81,48,218,34,67,40,291,39,75,19,048,30*6E
$GLGSV,2,2,06,65,07,066,24,76,26,101,*64
$QZGSV,1,1,03,01,77,065,46,03,19,182,28,02,19,153,21*52
$BDGSV,4,1,13,213,74,276,35,208,68,172,32,206,67,250,30,216,61,249,25*63
$BDGSV,4,2,13,220,38,288,33,223,33,105,33,229,28,299,28,227,12,183,29*6C
$BDGSV,4,3,13,203,44,206,,201,43,159,,209,38,237,,230,38,234,*68
$BDGSV,4,4,13,225,18,052,*61
$GAGSV,2,1,05,104,73,318,45,109,28,258,28,112,39,180,,119,33,054,*6A
$GAGSV,2,2,05,121,13,074,*6E
$GPGSA,A,3,02,05,13,15,21,24,29,30,,,,,2.2,1.3,1.7*3A
$GNGSA,A,3,02,05,13,15,21,24,29,30,,,,,2.2,1.3,1.7*24
$GNGSA,A,3,65,66,67,75,81,,,,,,,,2.2,1.3,1.7*21
$QZGSA,A,3,01,02,03,,,,,,,,,,2.2,1.3,1.7*2A
$IMGSA,A,3,,,,,,,,,,,,,2.2,1.3,1.7*25
$BDGSA,A,3,206,208,213,220,223,227,229,,,,,,2.2,1.3,1.7*14
$GAGSA,A,3,104,109,,,,,,,,,,,2.2,1.3,1.7*2A
$GPRMC,024317.00,A,3722.765579,N,12640.615444,E,015.9,217.4,231119,,,A*55
$GPGGA,024318.00,3722.762072,N,12640.612027,E,1,27,0.4,20.1,M,17.8,M,,*5F
$PGLOR,9,STA,024318.00,0.002,0.000,-300,1,4,0,P,F,L,0,C,3,S,00180182,243,5,R,000833F4,TPEF,42,1014761,LC,,,*6B
$GPGSV,3,1,09,13,78,031,46,15,62,257,37,05,54,071,30,29,27,249,39*71
$GPGSV,3,2,09,21,25,315,32,02,25,155,27,30,24,053,35,24,12,189,26*76
$GPGSV,3,3,09,07,02,032,*44
$GLGSV,2,1,06,66,52,015,25,81,48,218,34,67,40,291,38,75,19,048,30*6C
$GLGSV,2,2,06,65,07,066,24,76,26,101,*64
$QZGSV,1,1,03,01,77,065,46,03,19,182,28,02,19,153,21*52
$BDGSV,4,1,13,213,74,276,35,208,68,172,32,206,67,250,30,216,61,249,25*63
$BDGSV,4,2,13,220,38,288,33,223,33,105,33,229,28,299,28,227,12,183,29*6C
$BDGSV,4,3,13,203,44,206,,201,43,159,,209,38,237,,230,38,234,*68
$BDGSV,4,4,13,225,18,052,*61
$GAGSV,2,1,05,104,73,318,45,109,28,258,28,112,39,180,,119,33,054,*6A
$GAGSV,2,2,05,121,13,074,*6E
$GPGSA,A,3,02,05,13,15,21,24,29,30,,,,,2.2,1.3,1.7*3A
$GNGSA,A,3,02,05,13,15,21,24,29,30,,,,,2.2,1.3,1.7*24
$GNGSA,A,3,65,66,67,75,81,,,,,,,,2.2,1.3,1.7*21
$QZGSA,A,3,01,02,03,,,,,,,,,,2.2,1.3,1.7*2A
$IMGSA,A,3,,,,,,,,,,,,,2.2,1.3,1.7*25
$BDGSA,A,3,206,208,213,216,220,223,227,229,,,,,2.2,1.3,1.7*21
$GAGSA,A,3,104,109,,,,,,,,,,,2.2,1.3,1.7*2A
$GPRMC,024318.00,A,3722.762072,N,12640.612027,E,015.9,217.5,231119,,,A*54
$GPGGA,024319.00,3722.758554,N,12640.608737,E,1,27,0.4,20.0,M,17.8,M,,*5A
$PGLOR,9,STA,024319.00,0.002,0.000,-300,1,4,0,P,F,L,0,C,3,S,00180182,251,5,R,000833F4,TPEF,43,1015761,LC,,,*69
$GPGSV,3,1,09,13,78,031,46,15,62,257,37,05,54,071,29,29,27,248,39*78
$GPGSV,3,2,09,21,25,315,32,02,25,155,27,30,24,053,35,24,12,189,26*76
$GPGSV,3,3,09,07,02,032,*44
$GLGSV,2,1,06,66,52,015,25,81,48,218,34,67,40,291,38,75,19,048,30*6C
$GLGSV,2,2,06,65,07,066,24,76,26,101,*64
$QZGSV,1,1,03,01,77,065,46,03,19,182,28,02,19,153,21*52
$BDGSV,4,1,13,213,74,276,35,208,68,172,33,206,67,250,30,216,61,249,27*60
$BDGSV,4,2,13,220,38,288,33,223,33,105,32,229,28,299,27,227,12,183,29*62
$BDGSV,4,3,13,203,44,206,,201,43,159,,209,38,237,,230,38,234,*68
$BDGSV,4,4,13,225,18,052,*61
$GAGSV,2,1,05,104,73,318,45,109,28,258,28,112,39,180,,119,33,054,*6A
$GAGSV,2,2,05,136,21,319,*61
$GPGSA,A,3,02,05,13,15,21,24,29,30,,,,,2.1,1.3,1.7*39
$GNGSA,A,3,02,05,13,15,21,24,29,30,,,,,2.1,1.3,1.7*27
$GNGSA,A,3,65,66,67,75,81,,,,,,,,2.1,1.3,1.7*22
$QZGSA,A,3,01,02,03,,,,,,,,,,2.1,1.3,1.7*29
$IMGSA,A,3,,,,,,,,,,,,,2.1,1.3,1.7*26
$BDGSA,A,3,206,208,213,216,220,223,227,229,,,,,2.1,1.3,1.7*22
$GAGSA,A,3,104,109,,,,,,,,,,,2.1,1.3,1.7*29
$GPRMC,024319.00,A,3722.758554,N,12640.608737,E,015.9,217.5,231119,,,A*50
$GPGGA,024320.00,3722.755015,N,12640.605494,E,1,26,0.6,20.0,M,17.8,M,,*59
$PGLOR,9,STA,024320.00,0.002,0.000,-300,1,6,0,P,F,L,0,C,3,S,00180182,259,5,R,000833F4,TPEF,42,1016761,LC,,,*6B
$GPGSV,3,1,09,13,78,031,46,15,62,257,37,05,54,071,28,29,27,248,39*79
$GPGSV,3,2,09,21,25,315,32,02,25,155,27,30,24,053,35,24,12,189,26*76
$GPGSV,3,3,09,07,02,032,*44
$GLGSV,2,1,06,66,52,015,25,81,48,218,34,67,40,291,39,75,19,048,31*6C
$GLGSV,2,2,06,65,07,066,26,76,26,101,*66
$QZGSV,1,1,03,01,77,065,46,03,19,182,28,02,19,153,*51
$BDGSV,4,1,13,213,74,276,35,208,68,172,33,206,67,250,30,216,61,249,27*60
$BDGSV,4,2,13,220,38,288,33,223,33,105,32,229,28,299,27,227,12,183,28*63
$BDGSV,4,3,13,203,44,206,,201,43,159,,230,38,234,,209,38,237,*68
$BDGSV,4,4,13,225,18,052,*61
$GAGSV,2,1,05,104,73,318,45,109,28,258,27,112,39,180,,119,33,054,*65
$GAGSV,2,2,05,136,21,319,*61
$GPGSA,A,3,02,05,13,15,21,24,29,30,,,,,2.1,1.3,1.7*39
$GNGSA,A,3,02,05,13,15,21,24,29,30,,,,,2.1,1.3,1.7*27
$GNGSA,A,3,65,66,67,75,81,,,,,,,,2.1,1.3,1.7*22
$QZGSA,A,3,01,03,,,,,,,,,,,2.1,1.3,1.7*2B
$IMGSA,A,3,,,,,,,,,,,,,2.1,1.3,1.7*26
$BDGSA,A,3,206,208,213,216,220,223,227,229,,,,,2.1,1.3,1.7*22
$GAGSA,A,3,104,109,,,,,,,,,,,2.1,1.3,1.7*29
$GPRMC,024320.00,A,3722.755015,N,12640.605494,E,015.9,217.5,231119,,,A*50
$GPGGA,024321.00,3722.751415,N,12640.602449,E,1,26,0.6,19.9,M,17.8,M,,*5C
$PGLOR,9,STA,024321.00,0.002,0.000,-299,1,6,0,P,F,L,0,C,3,S,00180182,267,5,R,000833F4,TPEF,42,1017761,LC,,,*67
$GPGSV,3,1,09,13,78,031,46,15,62,257,37,05,54,071,27,29,27,248,39*76
$GPGSV,3,2,09,21,25,315,32,02,25,155,26,30,24,053,35,24,12,189,26*77
$GPGSV,3,3,09,07,02,032,*44
$GLGSV,2,1,06,66,52,015,25,81,48,218,34,67,40,291,39,75,19,048,31*6C
$GLGSV,2,2,06,65,07,066,26,76,26,101,*66
$QZGSV,1,1,03,01,77,065,46,03,19,182,28,02,19,153,20*53
$BDGSV,4,1,13,213,74,276,35,208,68,172,33,206,67,250,30,216,61,249,27*60
$BDGSV,4,2,13,220,38,288,33,223,33,105,32,229,28,299,27,227,12,183,28*63
$BDGSV,4,3,13,203,44,206,,201,43,159,,230,38,234,,209,38,237,*68
$BDGSV,4,4,13,225,18,052,*61
$GAGSV,2,1,05,104,73,318,45,109,28,258,27,112,39,180,,119,33,054,*65
$GAGSV,2,2,05,136,21,319,*61
$GPGSA,A,3,02,05,13,15,21,24,29,30,,,,,2.1,1.3,1.6*38
$GNGSA,A,3,02,05,13,15,21,24,29,30,,,,,2.1,1.3,1.6*26
$GNGSA,A,3,65,66,67,75,81,,,,,,,,2.1,1.3,1.6*23
$QZGSA,A,3,01,03,,,,,,,,,,,2.1,1.3,1.6*2A
$IMGSA,A,3,,,,,,,,,,,,,2.1,1.3,1.6*27
$BDGSA,A,3,206,208,213,216,220,223,227,229,,,,,2.1,1.3,1.6*23
$GAGSA,A,3,104,109,,,,,,,,,,,2.1,1.3,1.6*28
$GPRMC,024321.00,A,3722.751415,N,12640.602449,E,015.9,217.4,231119,,,A*57
$GPGGA,024322.00,3722.747871,N,12640.599249,E,1,26,0.6,19.8,M,17.8,M,,*50
$PGLOR,9,STA,024322.00,0.002,0.000,-300,1,6,0,P,F,L,0,C,3,S,00180182,275,5,R,000833F4,TPEF,42,1018761,LC,,,*69
$GPGSV,3,1,09,13,78,031,46,15,62,257,38,05,54,071,26,29,27,248,40*76
$GPGSV,3,2,09,21,25,315,32,02,25,155,26,30,24,053,35,24,12,189,26*77
$GPGSV,3,3,09,07,02,032,*44
$GLGSV,2,1,06,66,52,015,25,81,48,218,33,67,40,291,39,75,19,048,31*6B
$GLGSV,2,2,06,65,07,066,25,76,26,101,*65
$QZGSV,1,1,03,01,77,065,46,03,19,182,28,02,19,153,19*59
$BDGSV,4,1,13,213,74,276,35,208,68,172,33,206,67,250,30,216,61,249,27*60
$BDGSV,4,2,13,220,38,288,33,223,33,105,32,229,28,299,27,227,12,183,28*63
$BDGSV,4,3,13,203,44,206,,201,43,159,,230,38,234,,209,38,237,*68
$BDGSV,4,4,13,225,18,052,*61
$GAGSV,2,1,05,104,73,318,45,109,28,258,29,112,39,180,,119,33,054,*6B
$GAGSV,2,2,05,136,21,319,*61
$GPGSA,A,3,02,05,13,15,21,24,29,30,,,,,2.1,1.3,1.7*39
$GNGSA,A,3,02,05,13,15,21,24,29,30,,,,,2.1,1.3,1.7*27
$GNGSA,A,3,65,66,67,75,81,,,,,,,,2.1,1.3,1.7*22
$QZGSA,A,3,01,03,,,,,,,,,,,2.1,1.3,1.7*2B
$IMGSA,A,3,,,,,,,,,,,,,2.1,1.3,1.7*26
$BDGSA,A,3,206,208,213,216,220,223,227,229,,,,,2.1,1.3,1.7*22
$GAGSA,A,3,104,109,,,,,,,,,,,2.1,1.3,1.7*29
$GPRMC,024322.00,A,3722.747871,N,12640.599249,E,015.9,217.7,231119,,,A*59
$GPGGA,024323.00,3722.744428,N,12640.595882,E,1,25,0.6,19.7,M,17.8,M,,*5F
$PGLOR,9,STA,024323.00,0.002,0.000,-300,1,6,0,P,F,L,0,C,3,S,00180182,283,5,R,000833F4,TPEF,42,1019761,LC,,,*60
$GPGSV,3,1,09,13,78,031,46,15,62,257,38,05,54,071,26,29,27,248,41*77
$GPGSV,3,2,09,21,25,315,37,02,25,155,26,30,24,053,35,24,12,189,26*72
$GPGSV,3,3,09,07,02,032,*44
$GLGSV,2,1,06,66,52,015,27,81,48,218,33,67,40,291,39,75,19,048,31*69
$GLGSV,2,2,06,65,07,066,25,76,26,101,*65
$QZGSV,1,1,03,01,77,065,46,03,19,182,28,02,19,153,*51
$BDGSV,4,1,13,213,74,276,35,208,68,172,33,206,67,250,30,216,61,249,26*61
$BDGSV,4,2,13,220,38,288,33,223,33,105,31,229,28,299,30,227,12,183,26*68
$BDGSV,4,3,13,203,44,206,,201,43,159,,230,38,234,,209,38,237,*68
$BDGSV,4,4,13,225,18,052,*61
$GAGSV,2,1,05,104,73,318,45,109,28,258,29,112,39,180,,119,33,054,*6B
$GAGSV,2,2,05,136,21,319,*61
$GPGSA,A,3,02,05,13,15,21,24,29,30,,,,,2.2,1.3,1.7*3A
$GNGSA,A,3,02,05,13,15,21,24,29,30,,,,,2.2,1.3,1.7*24
$GNGSA,A,3,65,66,67,75,81,,,,,,,,2.2,1.3,1.7*21
$QZGSA,A,3,01,03,,,,,,,,,,,2.2,1.3,1.7*28
$IMGSA,A,3,,,,,,,,,,,,,2.2,1.3,1.7*25
$BDGSA,A,3,206,208,213,216,220,223,229,,,,,,2.2,1.3,1.7*16
$GAGSA,A,3,104,109,,,,,,,,,,,2.2,1.3,1.7*2A
$GPRMC,024323.00,A,3722.744428,N,12640.595882,E,015.8,217.8,231119,,,A*54
$GPGGA,024324.00,3722.741056,N,12640.592455,E,1,25,0.6,19.6,M,17.8,M,,*50
$PGLOR,9,STA,024324.00,0.002,0.000,-300,1,6,0,P,F,L,0,C,3,S,00180182,291,5,R,000833F4,TPEF,42,1020761,LC,,,*6E
$GPGSV,3,1,09,13,78,031,46,15,62,257,38,05,54,071,26,29,27,248,41*77
$GPGSV,3,2,09,21,25,315,37,02,25,155,25,30,24,053,35,24,12,189,25*72
$GPGSV,3,3,09,07,02,032,*44
$GLGSV,2,1,06,66,52,015,28,81,48,218,33,67,40,291,38,75,19,048,31*67
$GLGSV,2,2,06,65,07,066,24,76,26,101,*64
$QZGSV,1,1,03,01,77,065,46,03,19,182,27,02,19,153,22*5E
$BDGSV,4,1,13,213,74,276,35,208,68,172,33,206,67,250,30,216,61,249,*65
$BDGSV,4,2,13,220,38,288,33,223,33,105,31,229,28,299,30,227,12,183,25*6B
$BDGSV,4,3,13,203,44,206,,201,43,159,,230,38,234,,209,38,237,*68
$BDGSV,4,4,13,225,18,052,*61
$GAGSV,2,1,05,104,73,318,45,109,28,258,28,112,39,180,,119,33,054,*6A
$GAGSV,2,2,05,136,21,319,*61
$GPGSA,A,3,02,05,13,15,21,24,29,30,,,,,2.2,1.3,1.7*3A
$GNGSA,A,3,02,05,13,15,21,24,29,30,,,,,2.2,1.3,1.7*24
$GNGSA,A,3,65,66,67,75,81,,,,,,,,2.2,1.3,1.7*21
$QZGSA,A,3,01,02,03,,,,,,,,,,2.2,1.3,1.7*2A
$IMGSA,A,3,,,,,,,,,,,,,2.2,1.3,1.7*25
$BDGSA,A,3,206,208,213,220,223,229,,,,,,,2.2,1.3,1.7*23
$GAGSA,A,3,104,109,,,,,,,,,,,2.2,1.3,1.7*2A
$GPRMC,024324.00,A,3722.741056,N,12640.592455,E,015.8,217.4,231119,,,A*56
$GPGGA,024325.00,3722.737760,N,12640.588772,E,1,26,0.6,19.4,M,17.8,M,,*5E
$PGLOR,9,STA,024325.00,0.002,0.000,-300,1,6,0,P,F,L,0,C,3,S,00180182,299,5,R,000833F4,TPEF,43,1021761,LC,,,*67
$GPGSV,3,1,09,13,78,031,46,15,62,257,38,05,54,071,27,29,27,248,41*76
$GPGSV,3,2,09,21,25,315,36,02,25,155,25,30,24,053,35,24,12,189,25*73
$GPGSV,3,3,09,07,02,032,*44
$GLGSV,2,1,06,66,52,015,28,81,48,218,33,67,40,291,38,75,19,048,32*64
$GLGSV,2,2,06,65,07,066,24,76,26,101,*64
$QZGSV,1,1,03,01,77,065,45,03,19,182,27,02,19,153,*5D
$BDGSV,4,1,13,213,74,276,35,208,68,172,33,206,67,250,30,216,61,249,26*61
$BDGSV,4,2,13,220,38,288,33,223,33,105,32,229,28,299,30,227,12,183,25*68
$BDGSV,4,3,13,203,44,206,,201,43,159,,209,38,237,,230,38,234,*68
$BDGSV,4,4,13,225,18,052,*61
$GAGSV,2,1,05,104,73,318,45,109,28,258,28,112,39,180,,119,33,054,*6A
$GAGSV,2,2,05,136,21,319,*61
$GPGSA,A,3,02,05,13,15,21,24,29,30,,,,,2.1,1.3,1.7*39
$GNGSA,A,3,02,05,13,15,21,24,29,30,,,,,2.1,1.3,1.7*27
$GNGSA,A,3,65,66,67,75,81,,,,,,,,2.1,1.3,1.7*22
$QZGSA,A,3,01,03,,,,,,,,,,,2.1,1.3,1.7*2B
$IMGSA,A,3,,,,,,,,,,,,,2.1,1.3,1.7*26
$BDGSA,A,3,206,208,213,216,220,223,227,229,,,,,2.1,1.3,1.7*22
$GAGSA,A,3,104,109,,,,,,,,,,,2.1,1.3,1.7*29
$GPRMC,024325.00,A,3722.737760,N,12640.588772,E,015.8,217.4,231119,,,A*59
$GPGGA,024326.00,3722.734378,N,12640.585311,E,1,25,0.6,19.4,M,17.8,M,,*5C
$PGLOR,9,STA,024326.00,0.002,0.000,-300,1,6,0,P,F,L,0,C,3,S,00180182,307,5,R,000833F4,TPEF,43,1022761,LC,,,*61
$GPGSV,3,1,09,13,78,031,46,15,62,257,37,05,54,071,27,29,27,248,41*79
$GPGSV,3,2,09,21,25,315,36,02,25,155,25,30,24,053,36,24,12,189,25*70
$GPGSV,3,3,09,07,02,032,*44
$GLGSV,2,1,06,66,52,015,28,81,48,218,34,67,40,291,38,75,19,048,33*62
