$GPGGA,025912.00,3722.863688,N,12640.711811,E,1,22,0.4,23.4,M,17.8,M,,*5F
$PGLOR,9,STA,025912.00,0.000,0.000,-310,1,4,0,P,F,L,0,C,3,S,00100002,10,4,R,000833F4,TPEF,41,25105,LC,,,*59
$GPGSV,2,1,08,13,70,033,41,15,67,271,39,05,50,081,32,21,30,313,31*72
$GPGSV,2,2,08,29,23,242,36,30,21,047,39,24,18,188,31,02,18,156,31*74
$GLGSV,2,1,06,81,39,212,41,76,31,092,34,75,18,040,38,66,48,027,*65
$GLGSV,2,2,06,67,44,302,,83,15,333,*6F
$QZGSV,1,1,03,01,77,068,39,03,16,182,31,02,22,152,*5A
$BDGSV,3,1,12,213,73,264,31,206,68,259,32,208,64,178,36,216,62,256,36*6C
$BDGSV,3,2,12,203,44,206,37,220,42,294,28,230,33,228,34,225,16,046,38*6D
$BDGSV,3,3,12,201,43,159,,209,39,242,,223,36,098,,229,29,292,*6B
$GAGSV,2,1,07,109,31,263,31,104,72,337,,112,33,180,,119,29,058,*60
$GAGSV,2,2,07,136,25,316,,101,15,119,,121,15,069,*6C
$GPGSA,A,3,02,05,13,15,21,24,29,30,,,,,1.5,0.9,1.3*31
$GNGSA,A,3,02,05,13,15,21,24,29,30,,,,,1.5,0.9,1.3*2F
$GNGSA,A,3,75,76,81,,,,,,,,,,1.5,0.9,1.3*29
$QZGSA,A,3,01,03,,,,,,,,,,,1.5,0.9,1.3*23
$IMGSA,A,3,,,,,,,,,,,,,1.5,0.9,1.3*2E
$BDGSA,A,3,203,206,208,213,216,220,225,230,,,,,1.5,0.9,1.3*22
$GAGSA,A,3,109,,,,,,,,,,,,1.5,0.9,1.3*14
$GPRMC,025912.00,A,3722.863688,N,12640.711811,E,000.0,,231119,,,A*75
$GPGGA,025913.00,3722.863574,N,12640.712146,E,1,22,0.4,23.7,M,17.8,M,,*55
$PGLOR,9,STA,025913.00,0.000,0.000,-310,1,4,0,P,F,L,0,C,3,S,00100002,10,4,R,000833F4,TPEF,41,26105,LC,,,*5B
$PGLOR,2,PFM,HAL,-,0,0,0,0,RF,-,-180,20.1,0,RTC,,P,STO,P,LTO,P,SW,P,,,OSC,PPP*16
$GPGSV,2,1,08,13,70,033,41,15,67,271,39,05,50,081,33,21,30,313,34*76
$GPGSV,2,2,08,29,23,242,36,30,21,047,39,24,18,188,31,02,18,156,32*77
$GLGSV,2,1,06,81,39,212,41,76,31,092,34,75,18,040,39,66,48,027,*64
$GLGSV,2,2,06,67,44,302,,83,15,333,*6F
$QZGSV,1,1,03,01,77,068,39,03,16,182,31,02,22,152,*5A
$BDGSV,3,1,12,213,73,264,31,206,68,259,32,208,64,178,36,216,62,256,36*6C
$BDGSV,3,2,12,203,44,206,37,220,42,294,28,230,33,228,34,225,16,046,38*6D
$BDGSV,3,3,12,201,43,159,,209,39,242,,223,36,098,,229,29,292,*6B
$GAGSV,2,1,07,109,31,263,30,104,72,337,,112,33,180,,119,29,058,*61
$GAGSV,2,2,07,136,25,316,,101,15,119,,121,15,069,*6C
$GPGSA,A,3,02,05,13,15,21,24,29,30,,,,,1.5,0.9,1.2*30
$GNGSA,A,3,02,05,13,15,21,24,29,30,,,,,1.5,0.9,1.2*2E
$GNGSA,A,3,75,76,81,,,,,,,,,,1.5,0.9,1.2*28
$QZGSA,A,3,01,03,,,,,,,,,,,1.5,0.9,1.2*22
$IMGSA,A,3,,,,,,,,,,,,,1.5,0.9,1.2*2F
$BDGSA,A,3,203,206,208,213,216,220,225,230,,,,,1.5,0.9,1.2*23
$GAGSA,A,3,109,,,,,,,,,,,,1.5,0.9,1.2*15
$GPRMC,025913.00,A,3722.863574,N,12640.712146,E,000.0,,231119,,,A*7C
$GPGGA,025914.00,3722.863601,N,12640.712382,E,1,23,0.4,24.0,M,17.8,M,,*58
$PGLOR,9,STA,025914.00,0.000,0.000,-310,1,4,0,P,F,L,0,C,3,S,00100002,10,4,R,000833F4,TPEF,41,27105,LC,,,*5D
$GPGSV,2,1,08,13,70,033,41,15,67,271,40,05,50,081,33,21,30,313,35*79
$GPGSV,2,2,08,29,23,242,36,30,21,047,38,24,18,188,31,02,18,156,32*76
$GLGSV,2,1,06,67,44,302,33,81,39,212,41,76,31,092,34,75,18,040,39*6D
$GLGSV,2,2,06,66,48,027,,83,15,333,*66
$QZGSV,1,1,03,01,77,068,39,03,16,182,30,02,22,152,*5B
$BDGSV,3,1,12,213,73,264,31,206,68,259,31,208,64,178,35,216,62,256,35*6F
$BDGSV,3,2,12,203,44,206,36,220,42,294,27,230,33,228,34,225,16,046,38*63
$BDGSV,3,3,12,201,43,159,,209,39,242,,223,36,098,,229,29,292,*6B
$GAGSV,2,1,07,109,31,263,29,104,72,337,,112,33,180,,119,29,058,*69
$GAGSV,2,2,07,136,25,316,,101,15,119,,121,15,069,*6C
$GPGSA,A,3,02,05,13,15,21,24,29,30,,,,,1.6,0.9,1.3*32
$GNGSA,A,3,02,05,13,15,21,24,29,30,,,,,1.6,0.9,1.3*2C
$GNGSA,A,3,67,75,76,81,,,,,,,,,1.6,0.9,1.3*2B
$QZGSA,A,3,01,03,,,,,,,,,,,1.6,0.9,1.3*20
$IMGSA,A,3,,,,,,,,,,,,,1.6,0.9,1.3*2D
$BDGSA,A,3,203,206,208,213,216,220,225,230,,,,,1.6,0.9,1.3*21
$GAGSA,A,3,109,,,,,,,,,,,,1.6,0.9,1.3*17
$GPRMC,025914.00,A,3722.863601,N,12640.712382,E,000.0,,231119,,,A*70
$GPGGA,025915.00,3722.863432,N,12640.712254,E,1,23,0.4,24.4,M,17.8,M,,*55
$PGLOR,9,STA,025915.00,0.000,0.000,-310,1,4,0,P,F,L,0,C,3,S,00100002,10,4,R,000833F4,TPEF,41,28105,LC,,,*53
$GPGSV,2,1,08,13,70,033,40,15,67,271,40,05,50,081,33,21,30,313,35*78
$GPGSV,2,2,08,29,23,242,35,30,21,047,38,24,18,188,30,02,18,156,31*77
$GLGSV,2,1,06,67,44,302,32,81,39,212,40,76,31,092,33,75,18,040,38*6B
$GLGSV,2,2,06,66,48,027,,83,15,333,*66
$QZGSV,1,1,03,01,77,068,38,03,16,182,30,02,22,152,*5A
$BDGSV,3,1,12,213,73,264,31,206,68,259,31,208,64,178,35,216,62,256,35*6F
$BDGSV,3,2,12,203,44,206,35,220,42,294,27,230,33,228,34,225,16,046,37*6F
$BDGSV,3,3,12,201,43,159,,209,39,242,,223,36,098,,229,29,292,*6B
$GAGSV,2,1,07,109,31,263,28,104,72,337,,112,33,180,,119,29,058,*68
$GAGSV,2,2,07,136,25,316,,101,15,119,,121,15,069,*6C
$GPGSA,A,3,02,05,13,15,21,24,29,30,,,,,1.5,0.8,1.2*31
$GNGSA,A,3,02,05,13,15,21,24,29,30,,,,,1.5,0.8,1.2*2F
$GNGSA,A,3,67,75,76,81,,,,,,,,,1.5,0.8,1.2*28
$QZGSA,A,3,01,03,,,,,,,,,,,1.5,0.8,1.2*23
$IMGSA,A,3,,,,,,,,,,,,,1.5,0.8,1.2*2E
$BDGSA,A,3,203,206,208,213,216,220,225,230,,,,,1.5,0.8,1.2*22
$GAGSA,A,3,109,,,,,,,,,,,,1.5,0.8,1.2*14
$GPRMC,025915.00,A,3722.863432,N,12640.712254,E,000.0,,231119,,,A*79
$GPGGA,025916.00,3722.862717,N,12640.712122,E,1,23,0.4,24.4,M,17.8,M,,*51
$PGLOR,9,STA,025916.00,0.000,0.000,-310,1,4,0,P,F,L,0,C,3,S,00100002,10,4,R,000833F4,TPEF,41,29105,LC,,,*51
$GPGSV,2,1,08,13,70,033,40,15,67,271,40,05,50,081,32,21,30,313,34*78
$GPGSV,2,2,08,29,23,242,35,30,21,047,37,24,18,188,30,02,18,156,30*79
$GLGSV,2,1,06,67,44,302,32,81,39,212,39,76,31,092,32,75,18,040,37*6B
$GLGSV,2,2,06,66,48,027,,83,15,333,*66
$QZGSV,1,1,03,01,77,068,38,03,16,182,30,02,22,152,*5A
$BDGSV,3,1,12,213,73,264,30,206,68,259,31,208,64,178,35,216,62,256,35*6E
$BDGSV,3,2,12,203,44,206,35,220,42,294,27,230,33,228,33,225,16,046,36*69
$BDGSV,3,3,12,201,43,159,,209,39,242,,223,36,098,,229,29,291,*68
$GAGSV,2,1,07,109,31,263,29,104,72,337,,112,33,180,,119,29,058,*69
$GAGSV,2,2,07,136,25,316,,101,15,119,,121,15,069,*6C
$GPGSA,A,3,02,05,13,15,21,24,29,30,,,,,1.4,0.8,1.1*33
$GNGSA,A,3,02,05,13,15,21,24,29,30,,,,,1.4,0.8,1.1*2D
$GNGSA,A,3,67,75,76,81,,,,,,,,,1.4,0.8,1.1*2A
$QZGSA,A,3,01,03,,,,,,,,,,,1.4,0.8,1.1*21
$IMGSA,A,3,,,,,,,,,,,,,1.4,0.8,1.1*2C
$BDGSA,A,3,203,206,208,213,216,220,225,230,,,,,1.4,0.8,1.1*20
$GAGSA,A,3,109,,,,,,,,,,,,1.4,0.8,1.1*16
$GPRMC,025916.00,A,3722.862717,N,12640.712122,E,000.0,,231119,,,A*7D
$GPGGA,025917.00,3722.861993,N,12640.711807,E,1,23,0.4,24.8,M,17.8,M,,*50
$PGLOR,9,STA,025917.00,0.000,0.000,-309,2,4,0,P,F,L,0,C,3,S,00100002,14,4,R,000833F4,TPEF,41,30105,LC,,,*57
$GPGSV,2,1,08,13,70,033,39,15,67,271,40,05,50,081,35,21,30,313,34*71
$GPGSV,2,2,08,29,23,242,34,30,21,047,37,24,18,188,29,02,18,156,30*70
$GLGSV,2,1,06,67,44,302,32,81,39,212,39,76,31,092,32,75,18,040,37*6B
$GLGSV,2,2,06,66,48,027,,83,15,333,*66
$QZGSV,1,1,03,01,77,068,37,03,16,182,29,02,22,152,*5D
$BDGSV,3,1,12,213,73,264,29,206,68,259,30,208,64,178,35,216,62,256,34*66
$BDGSV,3,2,12,203,44,206,34,220,42,294,27,230,33,228,33,225,16,046,35*6B
$BDGSV,3,3,12,201,43,159,,209,39,242,,223,36,098,,229,29,291,*68
$GAGSV,2,1,07,109,31,263,29,104,72,337,,112,33,180,,119,29,058,*69
$GAGSV,2,2,07,136,25,316,,101,15,119,,121,15,069,*6C
$GPGSA,A,3,02,05,13,15,21,24,29,30,,,,,1.5,1.0,1.2*38
$GNGSA,A,3,02,05,13,15,21,24,29,30,,,,,1.5,1.0,1.2*26
$GNGSA,A,3,67,75,76,81,,,,,,,,,1.5,1.0,1.2*21
$QZGSA,A,3,01,03,,,,,,,,,,,1.5,1.0,1.2*2A
$IMGSA,A,3,,,,,,,,,,,,,1.5,1.0,1.2*27
$BDGSA,A,3,203,206,208,213,216,220,225,230,,,,,1.5,1.0,1.2*2B
$GAGSA,A,3,109,,,,,,,,,,,,1.5,1.0,1.2*1D
$GPRMC,025917.00,A,3722.861993,N,12640.711807,E,001.0,188.0,231119,,,A*5E
$GPGGA,025918.00,3722.860710,N,12640.711393,E,1,23,0.4,25.1,M,17.8,M,,*55
$PGLOR,9,STA,025918.00,0.000,0.000,-307,2,4,0,P,F,L,0,C,3,S,00100002,17,4,R,000833F4,TPEF,41,31105,LC,,,*54
$GPGSV,2,1,08,13,70,033,38,15,67,271,39,05,50,081,37,21,30,313,33*7B
$GPGSV,2,2,08,29,23,242,33,30,21,047,36,24,18,188,28,02,18,156,30*77
$GLGSV,2,1,06,67,44,302,31,81,39,212,38,76,31,092,33,75,18,040,36*69
$GLGSV,2,2,06,66,48,027,,83,15,333,*66
$QZGSV,1,1,03,01,77,068,36,03,16,182,28,02,22,152,*5D
$BDGSV,3,1,12,213,73,264,29,206,68,259,30,208,64,178,35,216,62,256,34*66
$BDGSV,3,2,12,203,44,206,34,220,42,294,26,230,33,228,32,225,16,046,33*6D
$BDGSV,3,3,12,201,43,159,,209,39,242,,223,36,098,,229,29,291,*68
$GAGSV,2,1,07,109,31,263,28,104,72,337,,112,33,180,,119,29,058,*68
$GAGSV,2,2,07,136,25,316,,101,15,119,,121,15,069,*6C
$GPGSA,A,3,02,05,13,15,21,24,29,30,,,,,1.5,0.9,1.2*30
$GNGSA,A,3,02,05,13,15,21,24,29,30,,,,,1.5,0.9,1.2*2E
$GNGSA,A,3,67,75,76,81,,,,,,,,,1.5,0.9,1.2*29
$QZGSA,A,3,01,03,,,,,,,,,,,1.5,0.9,1.2*22
$IMGSA,A,3,,,,,,,,,,,,,1.5,0.9,1.2*2F
$BDGSA,A,3,203,206,208,213,216,220,225,230,,,,,1.5,0.9,1.2*23
$GAGSA,A,3,109,,,,,,,,,,,,1.5,0.9,1.2*15
$GPRMC,025918.00,A,3722.860710,N,12640.711393,E,002.9,206.0,231119,,,A*5C
$GPGGA,025919.00,3722.856342,N,12640.709945,E,1,21,0.8,23.7,M,17.8,M,,*54
$PGLOR,9,STA,025919.00,0.000,0.000,-309,2,8,0,P,F,L,0,C,3,S,00100002,25,4,R,000833F4,TPEF,41,32105,LC,,,*55
$GPGSV,2,1,08,13,70,033,38,15,67,271,39,05,50,081,37,21,30,313,32*7A
$GPGSV,2,2,08,29,23,242,33,30,21,047,36,24,18,188,27,02,18,156,29*70
$GLGSV,2,1,06,67,44,302,31,81,39,212,38,76,31,092,33,75,18,040,36*69
$GLGSV,2,2,06,66,48,027,,83,15,333,*66
$QZGSV,1,1,03,01,77,068,35,03,16,182,27,02,22,152,*51
$BDGSV,3,1,12,213,73,264,29,206,68,259,30,208,64,178,34,216,62,256,35*66
$BDGSV,3,2,12,203,44,206,33,220,42,294,26,230,33,228,31,225,16,046,32*68
$BDGSV,3,3,12,201,43,159,,209,39,242,,223,36,098,,229,29,291,*68
$GAGSV,2,1,07,109,31,263,28,104,72,337,,112,33,180,,119,29,058,*68
$GAGSV,2,2,07,136,25,316,,101,15,119,,121,15,069,*6C
$GPGSA,A,3,02,05,13,15,21,29,30,,,,,,2.4,1.5,1.8*33
$GNGSA,A,3,02,05,13,15,21,29,30,,,,,,2.4,1.5,1.8*2D
$GNGSA,A,3,67,75,76,81,,,,,,,,,2.4,1.5,1.8*2C
$QZGSA,A,3,01,03,,,,,,,,,,,2.4,1.5,1.8*27
$IMGSA,A,3,,,,,,,,,,,,,2.4,1.5,1.8*2A
$BDGSA,A,3,203,206,208,213,216,220,230,,,,,,2.4,1.5,1.8*13
$GAGSA,A,3,109,,,,,,,,,,,,2.4,1.5,1.8*10
$GPRMC,025919.00,A,3722.856342,N,12640.709945,E,014.9,211.4,231119,,,A*56
$GPGGA,025920.00,3722.849196,N,12640.704225,E,1,21,0.6,23.1,M,17.8,M,,*53
$PGLOR,9,STA,025920.00,0.000,0.000,-311,1,6,0,P,F,L,0,C,3,S,00100002,40,4,R,000833F4,TPEF,41,33105,LC,,,*59
$GPGSV,2,1,08,13,70,033,37,15,67,271,38,05,50,081,37,21,30,313,32*74
$GPGSV,2,2,08,29,23,242,32,30,21,047,36,24,18,188,26,02,18,156,29*70
$GLGSV,2,1,06,67,44,302,30,81,39,212,38,76,31,092,33,75,18,040,36*68
$GLGSV,2,2,06,66,48,027,,83,15,333,*66
$QZGSV,1,1,03,01,77,068,35,03,16,182,26,02,22,152,*50
$BDGSV,3,1,12,213,73,264,29,206,68,259,30,208,64,178,34,216,62,256,35*66
$BDGSV,3,2,12,203,44,206,33,220,42,294,29,230,33,228,31,225,16,046,30*65
$BDGSV,3,3,12,201,43,159,,209,39,242,,223,36,098,,229,29,291,*68
$GAGSV,2,1,07,109,31,263,27,104,72,338,,112,33,180,,119,29,058,*68
$GAGSV,2,2,07,136,25,316,,101,15,119,,121,15,069,*6C
$GPGSA,A,3,02,05,13,15,21,29,30,,,,,,1.7,1.1,1.3*3C
$GNGSA,A,3,02,05,13,15,21,29,30,,,,,,1.7,1.1,1.3*22
$GNGSA,A,3,67,75,76,81,,,,,,,,,1.7,1.1,1.3*23
$QZGSA,A,3,01,,,,,,,,,,,,1.7,1.1,1.3*2B
$IMGSA,A,3,,,,,,,,,,,,,1.7,1.1,1.3*25
$BDGSA,A,3,203,206,208,213,216,220,225,230,,,,,1.7,1.1,1.3*29
$GAGSA,A,3,109,,,,,,,,,,,,1.7,1.1,1.3*1F
$GPRMC,025920.00,A,3722.849196,N,12640.704225,E,022.8,211.2,231119,,,A*5B
$GPGGA,025921.00,3722.841067,N,12640.698190,E,1,23,0.6,22.6,M,17.8,M,,*58
$PGLOR,9,STA,025921.00,0.000,0.000,-310,1,6,0,P,F,L,0,C,3,S,00100002,58,4,R,000833F4,TPEF,41,34105,LC,,,*57
$GPGSV,2,1,08,13,70,033,37,15,67,271,38,05,50,081,37,21,30,313,32*74
$GPGSV,2,2,08,29,23,242,32,30,21,047,36,24,18,188,25,02,18,156,29*73
$GLGSV,2,1,06,66,48,027,23,67,44,302,30,81,39,212,38,76,31,092,34*6D
$GLGSV,2,2,06,75,18,040,35,83,15,333,*66
$QZGSV,1,1,03,01,77,068,34,03,16,182,25,02,22,152,*52
$BDGSV,3,1,12,213,73,264,29,206,68,259,29,208,64,178,34,216,62,256,35*6E
$BDGSV,3,2,12,203,44,206,33,220,42,294,28,230,33,228,30,225,16,046,*66
$BDGSV,3,3,12,201,43,159,,209,39,242,,223,36,098,,229,29,291,*68
$GAGSV,2,1,07,104,72,338,31,109,31,263,26,112,33,180,,119,29,058,*6B
$GAGSV,2,2,07,136,25,316,,121,15,069,,101,15,119,*6C
$GPGSA,A,3,02,05,13,15,21,24,29,30,,,,,1.9,1.2,1.5*31
$GNGSA,A,3,02,05,13,15,21,24,29,30,,,,,1.9,1.2,1.5*2F
$GNGSA,A,3,66,67,75,76,81,,,,,,,,1.9,1.2,1.5*28
$QZGSA,A,3,01,,,,,,,,,,,,1.9,1.2,1.5*20
$IMGSA,A,3,,,,,,,,,,,,,1.9,1.2,1.5*2E
$BDGSA,A,3,203,206,208,213,216,220,230,,,,,,1.9,1.2,1.5*17
$GAGSA,A,3,104,109,,,,,,,,,,,1.9,1.2,1.5*21
$GPRMC,025921.00,A,3722.841067,N,12640.698190,E,028.3,212.1,231119,,,A*55
$GPGGA,025922.00,3722.832500,N,12640.691641,E,1,24,0.6,22.5,M,17.8,M,,*5D
$PGLOR,9,STA,025922.00,0.000,0.000,-309,1,6,0,P,F,L,0,C,3,S,00100002,76,4,R,000833F4,TPEF,41,35105,LC,,,*51
$GPGSV,2,1,08,13,70,033,36,15,67,271,37,05,50,081,37,21,30,313,31*79
$GPGSV,2,2,08,29,23,242,32,30,21,047,35,24,18,188,24,02,18,156,31*78
$GLGSV,2,1,06,66,48,027,25,67,44,302,29,81,39,212,39,76,31,092,34*62
$GLGSV,2,2,06,75,18,040,35,83,15,333,*66
$QZGSV,1,1,03,01,77,068,33,03,16,182,24,02,22,152,*54
$BDGSV,3,1,12,213,73,264,29,206,68,259,29,208,64,178,34,216,62,256,35*6E
$BDGSV,3,2,12,203,44,206,33,220,42,294,28,230,33,228,29,225,16,046,*6E
$BDGSV,3,3,12,201,43,159,,209,39,242,,223,36,098,,229,29,291,*68
$GAGSV,2,1,07,104,72,338,31,109,31,263,26,121,15,069,16,112,33,180,*6A
$GAGSV,2,2,07,119,29,058,,136,25,316,,101,15,119,*6A
$GPGSA,A,3,02,05,13,15,21,24,29,30,,,,,2.0,1.4,1.4*3C
$GNGSA,A,3,02,05,13,15,21,24,29,30,,,,,2.0,1.4,1.4*22
$GNGSA,A,3,66,67,75,76,81,,,,,,,,2.0,1.4,1.4*25
$QZGSA,A,3,01,03,,,,,,,,,,,2.0,1.4,1.4*2E
$IMGSA,A,3,,,,,,,,,,,,,2.0,1.4,1.4*23
$BDGSA,A,3,203,206,208,213,216,220,230,,,,,,2.0,1.4,1.4*1A
$GAGSA,A,3,104,109,,,,,,,,,,,2.0,1.4,1.4*2C
$GPRMC,025922.00,A,3722.832500,N,12640.691641,E,032.1,214.9,231119,,,A*53
$GPGGA,025923.00,3722.823705,N,12640.684037,E,1,24,0.6,22.3,M,17.8,M,,*5E
$PGLOR,9,STA,025923.00,0.000,0.000,-309,1,6,0,P,F,L,0,C,3,S,00100002,96,4,R,000833F4,TPEF,41,36105,LC,,,*5D
$GPGSV,2,1,08,13,70,033,35,15,67,271,37,05,50,081,38,21,30,313,30*74
$GPGSV,2,2,08,29,23,242,32,30,21,047,34,24,18,188,24,02,18,156,31*79
$GLGSV,2,1,06,66,48,027,25,67,44,302,29,81,39,212,40,76,31,092,34*6C
$GLGSV,2,2,06,75,18,040,34,83,15,333,*67
$QZGSV,1,1,03,01,77,068,33,03,16,182,24,02,22,152,*54
$BDGSV,3,1,12,213,73,264,28,206,68,259,29,208,64,178,34,216,62,256,35*6F
$BDGSV,3,2,12,203,44,206,32,220,42,294,28,230,33,228,28,225,16,046,*6E
$BDGSV,3,3,12,201,43,159,,209,39,242,,223,36,098,,229,29,291,*68
$GAGSV,2,1,07,104,72,338,31,109,31,263,25,121,15,069,,112,33,180,*6E
$GAGSV,2,2,07,119,29,058,,136,25,316,,101,15,119,*6A
$GPGSA,A,3,02,05,13,15,21,24,29,30,,,,,1.9,1.3,1.4*31
$GNGSA,A,3,02,05,13,15,21,24,29,30,,,,,1.9,1.3,1.4*2F
$GNGSA,A,3,66,67,75,76,81,,,,,,,,1.9,1.3,1.4*28
$QZGSA,A,3,01,03,,,,,,,,,,,1.9,1.3,1.4*23
$IMGSA,A,3,,,,,,,,,,,,,1.9,1.3,1.4*2E
$BDGSA,A,3,203,206,208,213,216,220,230,,,,,,1.9,1.3,1.4*17
$GAGSA,A,3,104,109,,,,,,,,,,,1.9,1.3,1.4*21
$GPRMC,025923.00,A,3722.823705,N,12640.684037,E,034.7,216.8,231119,,,A*55
$GPGGA,025924.00,3722.815217,N,12640.676076,E,1,25,0.6,21.6,M,17.8,M,,*55
$PGLOR,9,STA,025924.00,0.000,0.000,-308,1,6,0,P,F,L,0,C,3,S,00100002,116,4,R,000833F4,TPEF,41,37105,LC,,,*63
$GPGSV,2,1,08,13,70,033,35,15,67,271,37,05,50,081,38,21,30,313,30*74
$GPGSV,2,2,08,29,22,242,32,30,21,047,34,24,18,188,23,02,18,156,31*7F
$GLGSV,2,1,06,66,48,027,26,67,44,302,31,81,39,212,41,76,31,092,34*67
$GLGSV,2,2,06,75,18,040,34,83,15,333,*67
$QZGSV,1,1,03,01,77,068,32,03,16,182,24,02,22,152,*55
$BDGSV,3,1,12,213,73,264,28,206,68,259,28,208,64,178,34,216,62,256,35*6E
$BDGSV,3,2,12,203,44,206,32,220,42,294,27,230,33,228,28,225,16,046,24*67
$BDGSV,3,3,12,201,43,159,,209,39,242,,223,36,098,,229,29,291,*68
$GAGSV,2,1,07,104,72,338,31,109,31,263,24,121,15,069,20,112,33,180,*6D
$GAGSV,2,2,07,119,29,058,,136,25,316,,101,15,119,*6A
$GPGSA,A,3,02,05,13,15,21,24,29,30,,,,,2.0,1.3,1.4*3B
$GNGSA,A,3,02,05,13,15,21,24,29,30,,,,,2.0,1.3,1.4*25
$GNGSA,A,3,66,67,75,76,81,,,,,,,,2.0,1.3,1.4*22
$QZGSA,A,3,01,03,,,,,,,,,,,2.0,1.3,1.4*29
$IMGSA,A,3,,,,,,,,,,,,,2.0,1.3,1.4*24
$BDGSA,A,3,203,206,208,213,216,220,230,,,,,,2.0,1.3,1.4*1D
$GAGSA,A,3,104,109,121,,,,,,,,,,2.0,1.3,1.4*19
$GPRMC,025924.00,A,3722.815217,N,12640.676076,E,036.8,217.7,231119,,,A*5A
$GPGGA,025925.00,3722.807013,N,12640.668148,E,1,25,0.8,21.0,M,17.8,M,,*5A
$PGLOR,9,STA,025925.00,0.000,0.000,-310,1,8,0,P,F,L,0,C,3,S,00100002,135,4,R,000833F4,TPEF,41,38105,LC,,,*6B
$GPGSV,2,1,08,13,70,033,34,15,67,271,36,05,50,081,38,21,30,313,31*75
$GPGSV,2,2,08,29,22,242,33,30,21,047,33,24,18,188,23,02,18,156,30*78
$GLGSV,2,1,06,66,48,027,27,67,44,302,32,81,39,212,41,76,31,092,33*62
$GLGSV,2,2,06,75,18,040,33,83,15,333,*60
$QZGSV,1,1,03,01,77,068,32,03,16,182,24,02,22,152,*55
$BDGSV,3,1,12,213,73,264,27,206,68,259,28,208,64,178,34,216,62,256,34*60
$BDGSV,3,2,12,203,44,206,32,220,42,294,27,230,33,228,28,225,16,046,24*67
$BDGSV,3,3,12,201,43,159,,209,39,242,,223,36,098,,229,29,291,*68
$GAGSV,2,1,07,104,72,338,32,109,31,263,27,121,15,069,,112,33,180,*6F
$GAGSV,2,2,07,119,29,058,,136,25,316,,101,15,119,*6A
$GPGSA,A,3,02,05,13,15,21,24,29,30,,,,,2.1,1.5,1.4*3C
$GNGSA,A,3,02,05,13,15,21,24,29,30,,,,,2.1,1.5,1.4*22
$GNGSA,A,3,66,67,75,76,81,,,,,,,,2.1,1.5,1.4*25
$QZGSA,A,3,01,03,,,,,,,,,,,2.1,1.5,1.4*2E
$IMGSA,A,3,,,,,,,,,,,,,2.1,1.5,1.4*23
$BDGSA,A,3,203,206,208,213,216,220,225,230,,,,,2.1,1.5,1.4*2F
$GAGSA,A,3,104,109,,,,,,,,,,,2.1,1.5,1.4*2C
$GPRMC,025925.00,A,3722.807013,N,12640.668148,E,036.6,217.7,231119,,,A*53
$GPGGA,025926.00,3722.798939,N,12640.660147,E,1,25,0.4,20.5,M,17.8,M,,*5E
$PGLOR,9,STA,025926.00,0.000,0.000,-310,1,4,0,P,F,L,0,C,3,S,00100002,154,4,R,000833F4,TPEF,41,39105,LC,,,*62
$GPGSV,2,1,08,13,70,033,34,15,67,271,36,05,50,081,38,21,30,313,31*75
$GPGSV,2,2,08,29,22,242,32,30,20,047,33,24,18,188,22,02,18,156,30*79
$GLGSV,2,1,07,66,48,027,27,67,44,302,32,81,39,212,41,76,31,092,33*63
$GLGSV,2,2,07,75,18,040,32,83,15,333,,65,02,072,*54
$QZGSV,1,1,03,01,77,068,31,03,16,182,24,02,22,152,*56
$BDGSV,3,1,12,213,73,264,27,206,68,259,28,208,64,178,34,216,62,256,34*60
$BDGSV,3,2,12,203,44,206,33,220,42,294,27,230,33,228,27,225,16,046,24*69
$BDGSV,3,3,12,201,43,159,,209,39,242,,223,36,098,,229,29,291,*68
$GAGSV,2,1,06,104,72,338,31,109,31,263,26,121,15,069,,112,33,180,*6C
$GAGSV,2,2,06,119,29,058,,136,25,316,*66
$GPGSA,A,3,02,05,13,15,21,24,29,30,,,,,1.6,1.0,1.3*3A
$GNGSA,A,3,02,05,13,15,21,24,29,30,,,,,1.6,1.0,1.3*24
$GNGSA,A,3,66,67,75,76,81,,,,,,,,1.6,1.0,1.3*23
$QZGSA,A,3,01,03,,,,,,,,,,,1.6,1.0,1.3*28
$IMGSA,A,3,,,,,,,,,,,,,1.6,1.0,1.3*25
$BDGSA,A,3,203,206,208,213,216,220,225,230,,,,,1.6,1.0,1.3*29
$GAGSA,A,3,104,109,,,,,,,,,,,1.6,1.0,1.3*2A
$GPRMC,025926.00,A,3722.798939,N,12640.660147,E,036.6,217.6,231119,,,A*5E
$GPGGA,025927.00,3722.790759,N,12640.652086,E,1,25,0.4,20.1,M,17.8,M,,*56
$PGLOR,9,STA,025927.00,0.000,0.000,-310,1,4,0,P,F,L,0,C,3,S,00100002,173,4,R,000833F4,TPEF,41,40105,LC,,,*68
$GPGSV,2,1,08,13,70,033,34,15,67,271,36,05,50,081,38,21,30,313,30*74
$GPGSV,2,2,08,29,22,242,32,30,20,047,33,24,18,188,22,02,18,156,30*79
$GLGSV,2,1,07,66,48,027,30,67,44,302,32,81,39,212,41,76,31,092,33*65
$GLGSV,2,2,07,75,18,040,31,83,15,333,14,65,02,072,*52
$QZGSV,1,1,03,01,77,068,31,03,16,182,24,02,22,152,*56
$BDGSV,3,1,12,213,73,264,26,206,68,259,28,208,64,178,34,216,62,256,34*61
$BDGSV,3,2,12,203,44,206,33,220,42,294,27,230,33,228,27,225,16,046,24*69
$BDGSV,3,3,12,201,43,159,,209,39,242,,223,36,098,,229,29,291,*68
$GAGSV,2,1,06,104,72,338,31,109,31,263,26,121,15,069,,112,33,180,*6C
$GAGSV,2,2,06,119,29,058,,136,25,316,*66
$GPGSA,A,3,02,05,13,15,21,24,29,30,,,,,1.6,1.0,1.2*3B
$GNGSA,A,3,02,05,13,15,21,24,29,30,,,,,1.6,1.0,1.2*25
$GNGSA,A,3,66,67,75,76,81,,,,,,,,1.6,1.0,1.2*22
$QZGSA,A,3,01,03,,,,,,,,,,,1.6,1.0,1.2*29
$IMGSA,A,3,,,,,,,,,,,,,1.6,1.0,1.2*24
$BDGSA,A,3,203,206,208,213,216,220,225,230,,,,,1.6,1.0,1.2*28
$GAGSA,A,3,104,109,,,,,,,,,,,1.6,1.0,1.2*2B
$GPRMC,025927.00,A,3722.790759,N,12640.652086,E,036.7,215.8,231119,,,A*5F
$GPGGA,025928.00,3722.782261,N,12640.644770,E,1,23,0.6,19.7,M,17.8,M,,*55
$PGLOR,9,STA,025928.00,0.000,0.000,-310,1,6,0,P,F,L,0,C,3,S,00100002,192,4,R,000833F4,TPEF,41,41105,LC,,,*6B
$GPGSV,2,1,08,13,70,033,34,15,67,271,35,05,50,081,38,21,30,313,30*77
$GPGSV,2,2,08,29,22,242,32,30,20,047,33,24,18,188,21,02,18,156,31*7B
$GLGSV,2,1,07,66,48,027,30,67,44,302,31,81,39,212,40,76,31,092,32*66
$GLGSV,2,2,07,75,18,040,31,83,15,333,,65,02,072,*57
$QZGSV,1,1,03,01,77,068,31,03,16,182,23,02,22,152,*51
$BDGSV,3,1,12,213,73,264,26,206,68,259,27,208,64,178,34,216,62,256,34*6E
$BDGSV,3,2,12,203,44,206,33,220,42,294,27,230,33,228,27,225,16,046,24*69
$BDGSV,3,3,12,201,43,159,,209,39,242,,223,36,098,,229,29,291,*68
$GAGSV,2,1,06,104,72,338,31,109,31,263,24,121,15,069,,112,33,180,*6E
$GAGSV,2,2,06,119,29,058,,136,25,316,*66
$GPGSA,A,3,02,05,13,15,21,29,30,,,,,,1.8,1.2,1.4*37
$GNGSA,A,3,02,05,13,15,21,29,30,,,,,,1.8,1.2,1.4*29
$GNGSA,A,3,66,67,75,76,81,,,,,,,,1.8,1.2,1.4*28
$QZGSA,A,3,01,03,,,,,,,,,,,1.8,1.2,1.4*23
$IMGSA,A,3,,,,,,,,,,,,,1.8,1.2,1.4*2E
$BDGSA,A,3,203,206,208,213,216,220,225,230,,,,,1.8,1.2,1.4*22
$GAGSA,A,3,104,,,,,,,,,,,,1.8,1.2,1.4*19
$GPRMC,025928.00,A,3722.782261,N,12640.644770,E,036.8,215.3,231119,,,A*50
$GPGGA,025929.00,3722.773902,N,12640.637309,E,1,24,0.6,19.3,M,17.8,M,,*59
$PGLOR,9,STA,025929.00,0.000,0.000,-309,1,6,0,P,F,L,0,C,3,S,00100002,211,4,R,000833F4,TPEF,41,42105,LC,,,*69
$GPGSV,2,1,08,13,70,033,33,15,67,271,35,05,50,081,38,21,30,313,29*78
$GPGSV,2,2,08,29,22,242,32,30,20,047,32,24,18,188,21,02,18,156,31*7A
$GLGSV,2,1,07,66,48,027,30,67,44,302,30,81,39,212,40,76,31,092,32*67
$GLGSV,2,2,07,75,18,040,31,83,15,333,,65,02,072,*57
$QZGSV,1,1,03,01,77,068,30,03,16,182,23,02,22,152,*50
$BDGSV,3,1,12,213,73,264,25,206,68,259,27,208,64,178,34,216,62,256,34*6D
$BDGSV,3,2,12,203,44,206,33,220,42,294,27,230,33,228,26,225,16,046,23*6F
$BDGSV,3,3,12,201,43,159,,209,39,242,,223,36,098,,229,29,291,*68
$GAGSV,2,1,06,104,72,338,31,109,31,263,24,112,33,180,,119,29,058,*68
$GAGSV,2,2,06,136,25,316,,101,15,119,*64
$GPGSA,A,3,02,05,13,15,21,29,30,,,,,,1.6,0.9,1.2*35
$GNGSA,A,3,02,05,13,15,21,29,30,,,,,,1.6,0.9,1.2*2B
$GNGSA,A,3,66,67,75,76,81,,,,,,,,1.6,0.9,1.2*2A
$QZGSA,A,3,01,03,,,,,,,,,,,1.6,0.9,1.2*21
$IMGSA,A,3,,,,,,,,,,,,,1.6,0.9,1.2*2C
$BDGSA,A,3,203,206,208,213,216,220,225,230,,,,,1.6,0.9,1.2*20
$GAGSA,A,3,104,109,,,,,,,,,,,1.6,0.9,1.2*23
$GPRMC,025929.00,A,3722.773902,N,12640.637309,E,036.8,216.1,231119,,,A*5E
$GPGGA,025930.00,3722.765706,N,12640.629574,E,1,24,0.6,19.0,M,17.8,M,,*5C
$PGLOR,9,STA,025930.00,0.000,0.000,-309,1,6,0,P,F,L,0,C,3,S,00100002,230,4,R,000833F4,TPEF,41,43105,LC,,,*63
$GPGSV,2,1,08,13,70,033,33,15,67,271,35,05,50,081,38,21,30,313,29*78
$GPGSV,2,2,08,29,22,242,32,30,20,047,32,24,18,188,20,02,18,156,30*7A
$GLGSV,2,1,07,66,48,027,30,67,44,302,30,81,39,212,40,76,31,092,32*67
$GLGSV,2,2,07,75,18,040,30,83,15,333,,65,02,072,*56
$QZGSV,1,1,03,01,77,068,30,03,16,182,23,02,22,152,*50
$BDGSV,3,1,12,213,73,264,25,206,68,259,27,208,64,178,34,216,62,256,34*6D
$BDGSV,3,2,12,203,44,206,32,220,42,294,27,230,33,228,26,225,16,046,23*6E
$BDGSV,3,3,12,201,43,159,,209,39,242,,223,36,098,,229,29,291,*68
$GAGSV,2,1,06,104,72,338,31,109,31,263,24,112,33,180,,119,29,058,*68
$GAGSV,2,2,06,136,25,316,,101,15,119,*64
$GPGSA,A,3,02,05,13,15,21,29,30,,,,,,2.0,1.4,1.4*3A
$GNGSA,A,3,02,05,13,15,21,29,30,,,,,,2.0,1.4,1.4*24
$GNGSA,A,3,66,67,75,76,81,,,,,,,,2.0,1.4,1.4*25
$QZGSA,A,3,01,03,,,,,,,,,,,2.0,1.4,1.4*2E
$IMGSA,A,3,,,,,,,,,,,,,2.0,1.4,1.4*23
$BDGSA,A,3,203,206,208,213,216,220,225,230,,,,,2.0,1.4,1.4*2F
$GAGSA,A,3,104,,,,,,,,,,,,2.0,1.4,1.4*14
$GPRMC,025930.00,A,3722.765706,N,12640.629574,E,036.8,216.4,231119,,,A*5D
$GPGGA,025931.00,3722.757458,N,12640.621844,E,1,23,0.6,18.8,M,17.8,M,,*5C
$PGLOR,9,STA,025931.00,0.000,0.000,-310,1,6,0,P,F,L,0,C,3,S,00100002,249,4,R,000833F4,TPEF,41,44105,LC,,,*63
$GPGSV,2,1,08,13,70,033,32,15,67,271,35,05,49,081,38,21,30,313,29*71
$GPGSV,2,2,08,29,22,242,32,30,20,047,31,24,18,188,,02,18,156,30*7B
$GLGSV,2,1,08,66,48,027,29,67,44,302,30,81,39,212,40,76,31,092,32*60
$GLGSV,2,2,08,75,18,040,30,83,15,333,,77,13,146,15,65,02,072,*6C
$QZGSV,1,1,03,01,77,068,30,03,16,182,23,02,22,152,*50
$BDGSV,3,1,12,213,73,264,25,206,68,259,27,208,64,178,34,216,62,256,34*6D
$BDGSV,3,2,12,203,44,206,33,220,42,294,28,230,33,228,26,225,16,046,22*61
$BDGSV,3,3,12,201,43,159,,209,39,242,,223,36,098,,229,29,291,*68
$GAGSV,2,1,05,104,72,338,32,109,31,263,24,112,33,180,,119,29,058,*68
$GAGSV,2,2,05,136,25,316,*6A
$GPGSA,A,3,02,05,13,15,21,29,30,,,,,,2.0,1.4,1.4*3A
$GNGSA,A,3,02,05,13,15,21,29,30,,,,,,2.0,1.4,1.4*24
$GNGSA,A,3,66,67,75,76,81,,,,,,,,2.0,1.4,1.4*25
$QZGSA,A,3,01,03,,,,,,,,,,,2.0,1.4,1.4*2E
$IMGSA,A,3,,,,,,,,,,,,,2.0,1.4,1.4*23
$BDGSA,A,3,203,206,208,213,216,220,230,,,,,,2.0,1.4,1.4*1A
$GAGSA,A,3,104,109,,,,,,,,,,,2.0,1.4,1.4*2C
$GPRMC,025931.00,A,3722.757458,N,12640.621844,E,036.8,216.9,231119,,,A*5E
$GPGGA,025932.00,3722.749134,N,12640.614179,E,1,22,0.6,18.6,M,17.8,M,,*51
$PGLOR,9,STA,025932.00,0.000,0.000,-309,1,6,0,P,F,L,0,C,3,S,00100002,268,4,R,000833F4,TPEF,41,45105,LC,,,*6A
$GPGSV,2,1,08,13,70,033,31,15,67,271,34,05,49,081,38,21,30,313,29*73
$GPGSV,2,2,08,29,22,242,33,30,20,047,30,24,18,188,19,02,18,156,30*73
$GLGSV,2,1,08,66,48,027,29,67,44,302,30,81,39,212,40,76,31,092,32*60
$GLGSV,2,2,08,75,18,040,30,83,15,333,,77,13,146,15,65,02,072,*6C
$QZGSV,1,1,03,01,77,068,29,03,16,182,23,02,22,152,*58
$BDGSV,3,1,12,213,73,264,25,206,68,259,27,208,64,178,34,216,62,256,34*6D
$BDGSV,3,2,12,203,44,206,33,220,42,294,28,230,33,228,26,225,16,046,22*61
$BDGSV,3,3,12,201,43,159,,209,39,242,,223,36,098,,229,29,291,*68
$GAGSV,2,1,05,104,72,338,32,109,31,263,,112,33,180,,119,29,058,*6E
$GAGSV,2,2,05,136,25,316,*6A
$GPGSA,A,3,02,05,13,15,21,29,30,,,,,,1.8,1.1,1.4*34
$GNGSA,A,3,02,05,13,15,21,29,30,,,,,,1.8,1.1,1.4*2A
$GNGSA,A,3,66,67,75,76,81,,,,,,,,1.8,1.1,1.4*2B
$QZGSA,A,3,01,03,,,,,,,,,,,1.8,1.1,1.4*20
$IMGSA,A,3,,,,,,,,,,,,,1.8,1.1,1.4*2D
$BDGSA,A,3,203,206,208,213,216,220,230,,,,,,1.8,1.1,1.4*14
$GAGSA,A,3,104,,,,,,,,,,,,1.8,1.1,1.4*1A
$GPRMC,025932.00,A,3722.749134,N,12640.614179,E,036.8,217.1,231119,,,A*55
$GPGGA,025933.00,3722.740992,N,12640.606430,E,1,23,0.6,18.3,M,17.8,M,,*52
$PGLOR,9,STA,025933.00,0.000,0.000,-309,1,6,0,P,F,L,0,C,3,S,00100002,287,4,R,000833F4,TPEF,41,46105,LC,,,*69
$GPGSV,2,1,08,13,70,033,31,15,68,271,34,05,49,081,39,21,30,313,30*75
$GPGSV,2,2,08,29,22,242,33,30,20,047,30,24,18,188,,02,18,156,30*7B
$GLGSV,2,1,08,66,48,027,28,67,44,302,32,81,39,212,40,76,31,092,31*60
$GLGSV,2,2,08,75,18,040,29,83,15,333,,77,13,146,21,65,02,072,*63
$QZGSV,1,1,03,01,77,068,29,03,16,182,24,02,22,152,*5F
$BDGSV,3,1,12,213,73,264,24,206,68,259,26,208,64,178,34,216,62,256,34*6D
$BDGSV,3,2,12,203,44,206,33,220,42,294,29,230,33,228,26,225,16,046,21*63
$BDGSV,3,3,12,201,43,159,,209,39,242,,223,36,098,,229,29,291,*68
$GAGSV,2,1,05,104,72,338,32,109,31,263,,112,33,180,,119,29,058,*6E
$GAGSV,2,2,05,136,25,316,*6A
$GPGSA,A,3,02,05,13,15,21,29,30,,,,,,1.9,1.2,1.4*36
$GNGSA,A,3,02,05,13,15,21,29,30,,,,,,1.9,1.2,1.4*28
$GNGSA,A,3,66,67,75,76,77,81,,,,,,,1.9,1.2,1.4*29
$QZGSA,A,3,01,03,,,,,,,,,,,1.9,1.2,1.4*22
$IMGSA,A,3,,,,,,,,,,,,,1.9,1.2,1.4*2F
$BDGSA,A,3,203,206,208,213,216,220,230,,,,,,1.9,1.2,1.4*16
$GAGSA,A,3,104,,,,,,,,,,,,1.9,1.2,1.4*18
$GPRMC,025933.00,A,3722.740992,N,12640.606430,E,036.7,217.1,231119,,,A*5D
$GPGGA,025934.00,3722.733050,N,12640.598581,E,1,25,0.8,18.1,M,17.8,M,,*53
$PGLOR,9,STA,025934.00,0.000,0.000,-310,1,8,0,P,F,L,0,C,3,S,00100002,306,4,R,000833F4,TPEF,41,47105,LC,,,*61
$GPGSV,2,1,08,13,70,033,30,15,68,271,34,05,49,081,38,21,30,313,30*75
$GPGSV,2,2,08,29,22,242,32,30,20,047,30,24,18,188,,02,18,156,30*7A
$GLGSV,2,1,08,66,48,027,29,67,44,302,32,81,39,212,40,76,31,092,31*61
$GLGSV,2,2,08,75,18,040,29,83,15,333,,77,13,146,21,65,02,072,*63
$QZGSV,1,1,03,01,77,068,29,03,16,182,24,02,22,152,*5F
$BDGSV,3,1,12,213,73,264,24,206,68,259,26,208,64,178,33,216,62,256,34*6A
$BDGSV,3,2,12,203,44,206,33,220,42,294,30,230,33,228,25,225,16,046,21*68
$BDGSV,3,3,12,201,43,159,,209,39,242,,223,36,098,,229,29,291,*68
$GAGSV,2,1,05,104,72,338,32,109,31,263,24,112,33,180,,119,29,058,*68
$GAGSV,2,2,05,136,25,316,*6A
$GPGSA,A,3,02,05,13,15,21,29,30,,,,,,2.5,1.8,1.6*31
$GNGSA,A,3,02,05,13,15,21,29,30,,,,,,2.5,1.8,1.6*2F
$GNGSA,A,3,66,67,75,76,77,81,,,,,,,2.5,1.8,1.6*2E
$QZGSA,A,3,01,03,,,,,,,,,,,2.5,1.8,1.6*25
$IMGSA,A,3,,,,,,,,,,,,,2.5,1.8,1.6*28
$BDGSA,A,3,203,206,208,213,216,220,225,230,,,,,2.5,1.8,1.6*24
$GAGSA,A,3,104,109,,,,,,,,,,,2.5,1.8,1.6*27
$GPRMC,025934.00,A,3722.733050,N,12640.598581,E,036.5,216.9,231119,,,A*5D
$GPGGA,025935.00,3722.725017,N,12640.590153,E,1,26,0.6,17.9,M,17.8,M,,*5F
$PGLOR,9,STA,025935.00,0.000,0.000,-310,1,6,0,P,F,L,0,C,3,S,00100002,325,4,R,000833F4,TPEF,41,48105,LC,,,*60
$GPGSV,2,1,08,13,70,033,30,15,68,271,33,05,49,081,38,21,30,313,29*7A
$GPGSV,2,2,08,29,22,242,32,30,20,047,32,24,18,188,19,02,18,156,30*70
$GLGSV,2,1,08,66,48,027,32,67,44,302,32,81,39,212,40,76,31,092,31*6B
$GLGSV,2,2,08,75,18,040,29,83,15,333,,77,13,146,23,65,02,072,*61
$QZGSV,1,1,03,01,77,068,29,03,16,182,24,02,22,152,*5F
$BDGSV,3,1,12,213,73,264,24,206,68,259,26,208,64,178,33,216,62,256,34*6A
$BDGSV,3,2,12,203,44,206,33,220,42,294,30,230,33,228,25,225,16,046,21*68
$BDGSV,3,3,12,201,43,159,,209,39,242,,223,36,098,,229,29,291,*68
$GAGSV,2,1,05,104,72,338,32,109,31,263,24,112,33,180,,119,29,058,*68
$GAGSV,2,2,05,136,25,316,*6A
$GPGSA,A,3,02,05,13,15,21,24,29,30,,,,,1.9,1.2,1.4*30
$GNGSA,A,3,02,05,13,15,21,24,29,30,,,,,1.9,1.2,1.4*2E
$GNGSA,A,3,66,67,75,76,77,81,,,,,,,1.9,1.2,1.4*29
$QZGSA,A,3,01,03,,,,,,,,,,,1.9,1.2,1.4*22
$IMGSA,A,3,,,,,,,,,,,,,1.9,1.2,1.4*2F
$BDGSA,A,3,203,206,208,213,216,220,225,230,,,,,1.9,1.2,1.4*23
$GAGSA,A,3,104,109,,,,,,,,,,,1.9,1.2,1.4*20
$GPRMC,025935.00,A,3722.725017,N,12640.590153,E,036.7,215.1,231119,,,A*52
$GPGGA,025936.00,3722.716826,N,12640.582190,E,1,24,0.6,17.7,M,17.8,M,,*56
$PGLOR,9,STA,025936.00,0.000,0.000,-309,1,6,0,P,F,L,0,C,2,S,00100002,345,5,R,000833F4,TPEF,40,49105,LC,,,*6D
$GPGSV,2,1,08,13,70,033,30,15,68,271,33,05,49,081,37,21,30,313,29*75
$GPGSV,2,2,08,29,22,242,32,30,20,047,32,24,18,188,,02,18,156,30*78
$GLGSV,2,1,08,66,48,027,33,67,44,302,31,81,39,212,39,75,18,040,30*61
$GLGSV,2,2,08,83,15,333,15,77,13,146,25,65,02,072,,76,31,092,32*6E
$QZGSV,1,1,03,01,77,068,29,03,16,182,23,02,22,152,*58
$BDGSV,3,1,12,213,73,264,24,206,68,259,26,208,64,178,33,216,62,256,33*6D
$BDGSV,3,2,12,203,44,206,32,220,42,294,30,230,33,228,25,225,16,046,21*69
$BDGSV,3,3,12,201,43,159,,209,39,242,,223,36,098,,229,29,291,*68
$GAGSV,2,1,05,104,72,338,31,109,31,263,27,112,33,180,,119,29,058,*68
$GAGSV,2,2,05,136,25,316,*6A
$GPGSA,A,3,02,05,13,15,21,29,30,,,,,,1.9,1.3,1.4*37
$GNGSA,A,3,02,05,13,15,21,29,30,,,,,,1.9,1.3,1.4*29
$GNGSA,A,3,66,67,75,77,81,,,,,,,,1.9,1.3,1.4*29
$QZGSA,A,3,01,03,,,,,,,,,,,1.9,1.3,1.4*23
$IMGSA,A,3,,,,,,,,,,,,,1.9,1.3,1.4*2E
$BDGSA,A,3,203,206,208,213,216,220,225,230,,,,,1.9,1.3,1.4*22
$GAGSA,A,3,104,109,,,,,,,,,,,1.9,1.3,1.4*21
$GPRMC,025936.00,A,3722.716826,N,12640.582190,E,037.4,215.5,231119,,,A*51
$GPGGA,025937.00,3722.708627,N,12640.574120,E,1,23,0.6,17.5,M,17.8,M,,*50
$PGLOR,9,STA,025937.00,0.000,0.000,-309,1,6,0,P,F,L,0,C,2,S,00100002,364,5,R,000833F4,TPEF,40,50105,LC,,,*67
$GPGSV,2,1,08,13,70,033,30,15,68,271,33,05,49,081,37,21,30,313,29*75
$GPGSV,2,2,08,29,22,242,32,30,20,047,32,24,18,188,,02,18,156,29*70
$GLGSV,2,1,08,66,48,027,32,67,44,302,30,81,39,212,39,75,18,040,30*61
$GLGSV,2,2,08,83,15,333,,77,13,146,25,65,02,072,,76,31,092,32*6A
$QZGSV,1,1,03,01,77,068,29,03,16,182,23,02,22,152,*58
$BDGSV,3,1,12,213,73,264,25,206,68,259,26,208,64,178,33,216,62,256,33*6C
$BDGSV,3,2,12,203,44,206,32,220,42,294,30,230,33,228,25,225,16,046,20*68
$BDGSV,3,3,12,201,43,159,,209,39,242,,223,36,098,,229,29,291,*68
$GAGSV,2,1,05,104,72,338,31,109,31,263,27,112,33,180,,119,29,058,*68
$GAGSV,2,2,05,136,25,316,*6A
$GPGSA,A,3,02,05,13,15,21,29,30,,,,,,1.9,1.2,1.4*36
$GNGSA,A,3,02,05,13,15,21,29,30,,,,,,1.9,1.2,1.4*28
$GNGSA,A,3,66,67,75,77,81,,,,,,,,1.9,1.2,1.4*28
$QZGSA,A,3,01,03,,,,,,,,,,,1.9,1.2,1.4*22
$IMGSA,A,3,,,,,,,,,,,,,1.9,1.2,1.4*2F
$BDGSA,A,3,203,206,208,213,216,220,230,,,,,,1.9,1.2,1.4*16
$GAGSA,A,3,104,109,,,,,,,,,,,1.9,1.2,1.4*20
$GPRMC,025937.00,A,3722.708627,N,12640.574120,E,036.7,216.0,231119,,,A*56
$GPGGA,025938.00,3722.700511,N,12640.566191,E,1,23,0.4,17.4,M,17.8,M,,*5B
$PGLOR,9,STA,025938.00,0.000,0.000,-309,1,4,0,P,F,L,0,C,3,S,00100002,383,5,R,000833F4,TPEF,40,51105,LC,,,*63
$GPGSV,2,1,08,13,70,033,30,15,68,271,33,05,49,081,37,21,30,312,28*75
$GPGSV,2,2,08,29,22,242,32,30,20,047,31,24,18,188,,02,18,156,29*73
$GLGSV,2,1,08,66,48,027,32,67,44,302,30,81,39,212,39,75,18,040,29*69
$GLGSV,2,2,08,83,15,333,14,77,13,146,25,65,02,072,,76,31,092,31*6C
$QZGSV,1,1,03,01,77,068,29,03,16,182,24,02,22,152,*5F
$BDGSV,3,1,12,213,73,264,25,206,68,259,26,208,64,178,33,216,62,256,33*6C
$BDGSV,3,2,12,203,44,206,32,220,42,294,30,230,33,228,25,225,16,046,20*68
$BDGSV,3,3,12,201,43,159,,209,39,242,,223,36,098,,229,29,291,*68
$GAGSV,2,1,05,104,72,338,31,109,31,263,26,112,33,180,,119,29,058,*69
$GAGSV,2,2,05,136,25,316,*6A
$GPGSA,A,3,02,05,13,15,21,29,30,,,,,,1.5,0.9,1.2*36
$GNGSA,A,3,02,05,13,15,21,29,30,,,,,,1.5,0.9,1.2*28
$GNGSA,A,3,66,67,75,77,81,,,,,,,,1.5,0.9,1.2*28
$QZGSA,A,3,01,03,,,,,,,,,,,1.5,0.9,1.2*22
$IMGSA,A,3,,,,,,,,,,,,,1.5,0.9,1.2*2F
$BDGSA,A,3,203,206,208,213,216,220,230,,,,,,1.5,0.9,1.2*16
$GAGSA,A,3,104,109,,,,,,,,,,,1.5,0.9,1.2*20
$GPRMC,025938.00,A,3722.700511,N,12640.566191,E,037.0,216.3,231119,,,A*5B
$GPGGA,025939.00,3722.692488,N,12640.558172,E,1,23,0.4,17.2,M,17.8,M,,*57
$PGLOR,9,STA,025939.00,0.000,0.000,-309,1,4,0,P,F,L,0,C,3,S,00100002,402,5,R,000833F4,TPEF,40,52105,LC,,,*6F
$GPGSV,2,1,08,13,70,033,29,15,68,271,33,05,49,081,37,21,30,312,28*7D
$GPGSV,2,2,08,29,22,242,32,30,20,047,31,24,18,188,17,02,18,156,29*75
$GLGSV,2,1,08,66,48,027,31,67,44,302,30,81,39,212,39,75,18,040,29*6A
$GLGSV,2,2,08,83,15,333,,77,13,146,25,65,02,072,,76,31,092,31*69
$QZGSV,1,1,03,01,77,068,29,03,16,182,24,02,22,152,*5F
$BDGSV,3,1,12,213,73,264,26,206,68,259,26,208,64,178,32,216,62,256,33*6E
$BDGSV,3,2,12,203,44,206,32,220,42,294,30,230,33,228,25,225,16,046,*6A
$BDGSV,3,3,12,201,43,159,,209,39,242,,223,36,098,,229,29,291,*68
$GAGSV,2,1,05,104,72,338,31,109,31,263,27,112,33,180,,119,29,058,*68
$GAGSV,2,2,05,136,25,316,*6A
$GPGSA,A,3,02,05,13,15,21,29,30,,,,,,1.5,0.9,1.2*36
$GNGSA,A,3,02,05,13,15,21,29,30,,,,,,1.5,0.9,1.2*28
$GNGSA,A,3,66,67,75,77,81,,,,,,,,1.5,0.9,1.2*28
$QZGSA,A,3,01,03,,,,,,,,,,,1.5,0.9,1.2*22
$IMGSA,A,3,,,,,,,,,,,,,1.5,0.9,1.2*2F
$BDGSA,A,3,203,206,208,213,216,220,230,,,,,,1.5,0.9,1.2*16
$GAGSA,A,3,104,109,,,,,,,,,,,1.5,0.9,1.2*20
$GPRMC,025939.00,A,3722.692488,N,12640.558172,E,037.0,216.6,231119,,,A*54
$GPGGA,025940.00,3722.684509,N,12640.550277,E,1,22,0.4,17.1,M,17.8,M,,*5A
$PGLOR,9,STA,025940.00,0.000,0.000,-309,1,4,0,P,F,L,0,C,3,S,00100002,421,5,R,000833F4,TPEF,40,53105,LC,,,*61
$GPGSV,2,1,08,13,70,033,29,15,68,271,33,05,49,081,36,21,30,312,28*7C
$GPGSV,2,2,08,29,22,242,32,30,20,047,30,24,18,188,,02,18,156,28*73
$GLGSV,2,1,08,66,48,027,31,67,44,302,31,81,39,212,39,75,18,040,28*6A
$GLGSV,2,2,08,83,15,333,,77,13,146,25,65,02,072,,76,31,092,30*68
$QZGSV,1,1,03,01,77,068,29,03,16,182,25,02,22,152,*5E
$BDGSV,3,1,12,213,73,264,26,206,68,259,26,208,64,178,32,216,62,256,33*6E
$BDGSV,3,2,12,203,44,206,32,220,42,294,30,230,33,228,25,225,16,046,18*63
$BDGSV,3,3,12,201,43,159,,209,39,242,,223,36,098,,229,29,291,*68
$GAGSV,2,1,05,104,72,338,31,109,31,263,,112,33,180,,119,29,058,*6D
$GAGSV,2,2,05,136,25,316,*6A
$GPGSA,A,3,02,05,13,15,21,29,30,,,,,,1.5,0.9,1.2*36
$GNGSA,A,3,02,05,13,15,21,29,30,,,,,,1.5,0.9,1.2*28
$GNGSA,A,3,66,67,75,77,81,,,,,,,,1.5,0.9,1.2*28
$QZGSA,A,3,01,03,,,,,,,,,,,1.5,0.9,1.2*22
$IMGSA,A,3,,,,,,,,,,,,,1.5,0.9,1.2*2F
$BDGSA,A,3,203,206,208,213,216,220,230,,,,,,1.5,0.9,1.2*16
$GAGSA,A,3,104,,,,,,,,,,,,1.5,0.9,1.2*18
$GPRMC,025940.00,A,3722.684509,N,12640.550277,E,037.0,217.1,231119,,,A*5D
$GPGGA,025941.00,3722.676475,N,12640.542480,E,1,24,0.4,17.1,M,17.8,M,,*57
$PGLOR,9,STA,025941.00,0.000,0.000,-309,1,4,0,P,F,L,0,C,3,S,00100182,439,5,R,000833F4,TPEF,40,54105,LC,,,*67
$GPGSV,2,1,08,13,70,033,28,15,68,271,33,05,49,081,36,21,30,312,28*7D
$GPGSV,2,2,08,29,22,242,32,30,20,047,30,24,18,188,,02,18,156,28*73
$GLGSV,2,1,08,66,48,027,30,67,44,302,32,81,39,212,39,75,18,040,27*67
$GLGSV,2,2,08,83,15,333,,77,13,146,24,65,02,072,,76,31,092,30*69
$QZGSV,1,1,03,01,77,068,29,03,16,182,25,02,22,152,*5E
$BDGSV,3,1,12,213,73,264,26,206,68,259,26,208,64,178,32,216,62,256,33*6E
$BDGSV,3,2,12,203,44,206,32,220,42,294,30,230,33,228,25,225,16,046,19*62
$BDGSV,3,3,12,201,43,159,,209,39,242,,223,36,098,,229,29,291,*68
$GAGSV,2,1,05,104,72,338,30,109,31,263,25,112,33,180,,119,29,058,*6B
$GAGSV,2,2,05,136,25,316,*6A
$GPGSA,A,3,02,05,13,15,21,29,30,,,,,,1.8,1.2,1.3*30
$GNGSA,A,3,02,05,13,15,21,29,30,,,,,,1.8,1.2,1.3*2E
$GNGSA,A,3,66,67,75,77,81,,,,,,,,1.8,1.2,1.3*2E
$QZGSA,A,3,01,03,,,,,,,,,,,1.8,1.2,1.3*24
$IMGSA,A,3,,,,,,,,,,,,,1.8,1.2,1.3*29
$BDGSA,A,3,203,206,208,213,216,220,225,230,,,,,1.8,1.2,1.3*25
$GAGSA,A,3,104,109,,,,,,,,,,,1.8,1.2,1.3*26
$GPRMC,025941.00,A,3722.676475,N,12640.542480,E,037.1,217.6,231119,,,A*50
$GPGGA,025942.00,3722.668401,N,12640.534563,E,1,24,0.4,17.0,M,17.8,M,,*54
$PGLOR,9,STA,025942.00,0.000,0.000,-309,1,4,0,P,F,L,0,C,3,S,00100182,458,5,R,000833F4,TPEF,40,55105,LC,,,*62
$GPGSV,2,1,08,13,70,033,28,15,68,271,33,05,49,081,36,21,30,312,28*7D
$GPGSV,2,2,08,29,22,242,31,30,20,047,29,24,18,188,19,02,18,156,28*70
$GLGSV,2,1,08,66,48,027,30,67,44,302,33,81,39,212,39,75,18,040,27*66
$GLGSV,2,2,08,83,15,333,,77,13,146,24,65,02,072,,76,31,092,29*61
$QZGSV,1,1,03,01,77,068,29,03,16,182,25,02,22,152,*5E
$BDGSV,3,1,12,213,73,264,26,206,68,259,26,208,64,178,32,216,62,256,33*6E
$BDGSV,3,2,12,203,44,206,32,220,42,294,30,230,33,228,25,225,16,046,19*62
$BDGSV,3,3,12,201,43,159,,209,39,242,,223,36,098,,229,29,291,*68
$GAGSV,2,1,05,104,72,338,30,109,32,263,,112,33,180,,119,29,058,*6F
$GAGSV,2,2,05,136,25,316,*6A
$GPGSA,A,3,02,05,13,15,21,24,29,30,,,,,2.9,1.7,2.3*32
$GNGSA,A,3,02,05,13,15,21,24,29,30,,,,,2.9,1.7,2.3*2C
$GNGSA,A,3,66,67,75,77,81,,,,,,,,2.9,1.7,2.3*2A
$QZGSA,A,3,01,03,,,,,,,,,,,2.9,1.7,2.3*20
$IMGSA,A,3,,,,,,,,,,,,,2.9,1.7,2.3*2D
$BDGSA,A,3,203,206,208,213,216,220,225,230,,,,,2.9,1.7,2.3*21
$GAGSA,A,3,104,,,,,,,,,,,,2.9,1.7,2.3*1A
$GPRMC,025942.00,A,3722.668401,N,12640.534563,E,037.0,217.8,231119,,,A*5D
$GPGGA,025943.00,3722.660513,N,12640.526434,E,1,24,0.4,17.0,M,17.8,M,,*5F
$PGLOR,9,STA,025943.00,0.000,0.000,-309,1,4,0,P,F,L,0,C,3,S,00100182,477,5,R,000833F4,TPEF,40,56105,LC,,,*6D
$GPGSV,2,1,08,13,70,033,28,15,68,271,32,05,49,081,36,21,30,312,27*73
$GPGSV,2,2,08,29,22,242,31,30,20,047,29,24,18,188,,02,18,156,28*78
$GLGSV,2,1,08,66,48,027,30,67,44,302,33,81,39,212,39,75,18,040,27*66
$GLGSV,2,2,08,83,15,333,,77,13,146,24,65,02,072,,76,31,092,29*61
$QZGSV,1,1,03,01,77,068,28,03,16,182,25,02,22,152,*5F
$BDGSV,3,1,12,213,73,264,25,206,68,259,26,208,64,178,32,216,62,256,32*6C
$BDGSV,3,2,12,203,44,206,32,220,42,294,30,230,33,228,26,225,16,046,19*61
$BDGSV,3,3,12,201,43,159,,209,39,242,,223,36,098,,229,29,291,*68
$GAGSV,2,1,05,104,72,338,30,109,32,263,23,112,33,180,,119,29,058,*6E
$GAGSV,2,2,05,136,25,316,*6A
$GPGSA,A,3,02,05,13,15,21,29,30,,,,,,1.5,1.0,1.2*3E
$GNGSA,A,3,02,05,13,15,21,29,30,,,,,,1.5,1.0,1.2*20
$GNGSA,A,3,66,67,75,77,81,,,,,,,,1.5,1.0,1.2*20
$QZGSA,A,3,01,03,,,,,,,,,,,1.5,1.0,1.2*2A
$IMGSA,A,3,,,,,,,,,,,,,1.5,1.0,1.2*27
$BDGSA,A,3,203,206,208,213,216,220,225,230,,,,,1.5,1.0,1.2*2B
$GAGSA,A,3,104,109,,,,,,,,,,,1.5,1.0,1.2*28
$GPRMC,025943.00,A,3722.660513,N,12640.526434,E,037.1,217.9,231119,,,A*56
$GPGGA,025944.00,3722.652650,N,12640.518396,E,1,23,0.4,17.0,M,17.8,M,,*58
$PGLOR,9,STA,025944.00,0.000,0.000,-309,1,4,0,P,F,L,0,C,3,S,00100182,496,5,R,000833F4,TPEF,40,57105,LC,,,*64
$GPGSV,2,1,08,13,70,033,28,15,68,271,32,05,49,081,36,21,30,312,27*73
$GPGSV,2,2,08,29,22,242,31,30,20,047,31,24,18,188,,02,18,156,27*7E
$GLGSV,2,1,08,66,48,027,30,67,44,302,32,81,39,212,39,75,18,040,28*68
$GLGSV,2,2,08,83,15,333,,77,13,146,24,65,02,072,,76,31,092,29*61
$QZGSV,1,1,03,01,77,068,29,03,16,182,24,02,22,152,*5F
$BDGSV,3,1,12,213,73,263,25,206,68,259,26,208,64,178,32,216,62,256,32*6B
$BDGSV,3,2,12,203,44,206,32,220,42,294,30,230,33,228,26,225,16,046,22*69
$BDGSV,3,3,12,201,43,159,,209,39,242,,223,36,098,,229,29,291,*68
$GAGSV,2,1,05,104,72,338,30,109,32,263,23,112,33,180,,119,29,058,*6E
$GAGSV,2,2,05,136,25,316,*6A
$GPGSA,A,3,02,05,13,15,21,29,30,,,,,,1.6,1.0,1.2*3D
$GNGSA,A,3,02,05,13,15,21,29,30,,,,,,1.6,1.0,1.2*23
$GNGSA,A,3,66,67,75,77,81,,,,,,,,1.6,1.0,1.2*23
$QZGSA,A,3,01,03,,,,,,,,,,,1.6,1.0,1.2*29
$IMGSA,A,3,,,,,,,,,,,,,1.6,1.0,1.2*24
$BDGSA,A,3,203,206,208,213,216,220,225,230,,,,,1.6,1.0,1.2*28
$GAGSA,A,3,104,,,,,,,,,,,,1.6,1.0,1.2*13
$GPRMC,025944.00,A,3722.652650,N,12640.518396,E,037.3,217.8,231119,,,A*55
$GPGGA,025945.00,3722.644683,N,12640.510507,E,1,24,0.4,16.9,M,17.8,M,,*59
$PGLOR,9,STA,025945.00,0.000,0.000,-309,1,4,0,P,F,L,0,C,3,S,00100182,515,5,R,000833F4,TPEF,40,58105,LC,,,*60
$GPGSV,2,1,08,13,70,033,28,15,68,271,32,05,49,081,36,21,30,312,27*73
$GPGSV,2,2,08,29,22,242,31,30,20,047,30,24,18,188,,02,18,156,27*7F
$GLGSV,2,1,08,66,48,027,30,67,44,302,32,81,39,212,39,75,18,040,28*68
$GLGSV,2,2,08,83,15,333,17,77,13,146,24,65,02,072,,76,31,092,28*66
$QZGSV,1,1,03,01,77,068,29,03,16,182,24,02,22,152,*5F
$BDGSV,3,1,12,213,73,263,26,206,68,259,26,208,64,178,32,216,62,256,32*68
$BDGSV,3,2,12,203,44,206,32,220,42,294,30,230,33,228,26,225,16,046,22*69
$BDGSV,3,3,12,201,43,159,,209,39,242,,223,36,098,,229,29,291,*68
$GAGSV,2,1,05,104,72,338,30,109,32,263,22,112,33,180,,119,29,058,*6F
$GAGSV,2,2,05,136,25,316,*6A
$GPGSA,A,3,02,05,13,15,21,29,30,,,,,,2.2,1.4,1.7*3B
$GNGSA,A,3,02,05,13,15,21,29,30,,,,,,2.2,1.4,1.7*25
$GNGSA,A,3,66,67,75,77,81,,,,,,,,2.2,1.4,1.7*25
$QZGSA,A,3,01,03,,,,,,,,,,,2.2,1.4,1.7*2F
$IMGSA,A,3,,,,,,,,,,,,,2.2,1.4,1.7*22
$BDGSA,A,3,203,206,208,213,216,220,225,230,,,,,2.2,1.4,1.7*2E
$GAGSA,A,3,104,109,,,,,,,,,,,2.2,1.4,1.7*2D
$GPRMC,025945.00,A,3722.644683,N,12640.510507,E,037.0,217.3,231119,,,A*53
$GPGGA,025946.00,3722.636484,N,12640.502909,E,1,24,0.4,16.8,M,17.8,M,,*5A
$PGLOR,9,STA,025946.00,0.000,0.000,-309,1,4,0,P,F,L,0,C,3,S,00100182,534,5,R,000833F4,TPEF,40,59105,LC,,,*61
$GPGSV,2,1,08,13,70,033,28,15,68,271,32,05,49,081,36,21,30,312,27*73
$GPGSV,2,2,08,29,22,242,31,30,20,047,30,24,18,188,21,02,18,156,27*7C
$GLGSV,2,1,08,66,48,027,29,67,44,302,32,81,39,212,39,75,18,040,27*6F
$GLGSV,2,2,08,83,15,333,17,77,13,146,23,65,02,072,,76,31,092,28*61
$QZGSV,1,1,03,01,77,068,29,03,16,182,24,02,22,152,*5F
$BDGSV,3,1,12,213,73,263,26,206,68,259,27,208,64,178,31,216,62,256,32*6A
$BDGSV,3,2,12,203,44,206,32,220,42,294,30,230,33,228,25,225,16,046,22*6A
$BDGSV,3,3,12,201,43,159,,209,39,242,,223,36,098,,229,29,291,*68
$GAGSV,2,1,05,104,72,338,30,109,32,263,22,112,33,180,,119,29,058,*6F
$GAGSV,2,2,05,136,25,316,*6A
$GPGSA,A,3,02,05,13,15,21,24,29,30,,,,,1.8,1.2,1.3*36
$GNGSA,A,3,02,05,13,15,21,24,29,30,,,,,1.8,1.2,1.3*28
$GNGSA,A,3,66,67,75,77,81,,,,,,,,1.8,1.2,1.3*2E
$QZGSA,A,3,01,03,,,,,,,,,,,1.8,1.2,1.3*24
$IMGSA,A,3,,,,,,,,,,,,,1.8,1.2,1.3*29
$BDGSA,A,3,203,206,208,213,216,220,230,,,,,,1.8,1.2,1.3*10
$GAGSA,A,3,104,109,,,,,,,,,,,1.8,1.2,1.3*26
$GPRMC,025946.00,A,3722.636484,N,12640.502909,E,036.8,217.3,231119,,,A*58
$GPGGA,025947.00,3722.628264,N,12640.495343,E,1,24,0.4,16.6,M,17.8,M,,*59
$PGLOR,9,STA,025947.00,0.000,0.000,-309,1,4,0,P,F,L,0,C,3,S,00100182,553,5,R,000833F4,TPEF,40,60105,LC,,,*6B
$PGLOR,2,PFM,HAL,P,0,0,100,0,RF,P,37,26.6,1,RTC,,P,STO,P,LTO,P,SW,P,,,OSC,PPP*07
$GPGSV,2,1,08,13,70,033,27,15,68,271,33,05,49,081,36,21,30,312,27*7D
$GPGSV,2,2,08,29,22,242,31,30,20,047,29,24,19,188,22,02,18,156,26*77
$GLGSV,2,1,08,66,48,027,29,67,44,302,32,81,39,212,39,75,18,040,27*6F
$GLGSV,2,2,08,83,15,333,,77,13,146,23,65,02,072,,76,31,092,28*67
$QZGSV,1,1,03,01,77,068,28,03,16,182,24,02,22,152,*5E
$BDGSV,3,1,12,213,73,263,26,206,68,259,27,208,64,178,31,216,62,256,32*6A
$BDGSV,3,2,12,203,44,206,32,220,42,294,29,230,33,228,25,225,16,046,21*61
$BDGSV,3,3,12,201,43,159,,209,39,242,,223,36,098,,229,29,291,*68
$GAGSV,2,1,05,104,72,338,30,109,32,263,,112,33,180,,119,29,058,*6F
$GAGSV,2,2,05,136,25,316,*6A
$GPGSA,A,3,02,05,13,15,21,24,29,30,,,,,1.7,1.2,1.3*39
$GNGSA,A,3,02,05,13,15,21,24,29,30,,,,,1.7,1.2,1.3*27
$GNGSA,A,3,66,67,75,77,81,,,,,,,,1.7,1.2,1.3*21
$QZGSA,A,3,01,03,,,,,,,,,,,1.7,1.2,1.3*2B
$IMGSA,A,3,,,,,,,,,,,,,1.7,1.2,1.3*26
$BDGSA,A,3,203,206,208,213,216,220,225,230,,,,,1.7,1.2,1.3*2A
$GAGSA,A,3,104,,,,,,,,,,,,1.7,1.2,1.3*11
$GPRMC,025947.00,A,3722.628264,N,12640.495343,E,036.9,217.3,231119,,,A*54
$GPGGA,025948.00,3722.620099,N,12640.487702,E,1,23,0.4,16.5,M,17.8,M,,*58
$PGLOR,9,STA,025948.00,0.000,0.000,-309,1,4,0,P,F,L,0,C,3,S,00100182,571,5,R,000833F4,TPEF,40,61105,LC,,,*65
$GPGSV,2,1,08,13,70,033,27,15,68,271,33,05,49,081,36,21,30,312,26*7C
$GPGSV,2,2,08,29,22,242,31,30,20,047,29,24,19,188,21,02,18,156,25*77
$GLGSV,2,1,08,66,48,027,29,67,44,302,31,81,39,212,39,75,18,040,27*6C
$GLGSV,2,2,08,83,15,333,,77,13,146,23,65,02,072,,76,31,092,28*67
$QZGSV,1,1,03,01,77,068,28,03,16,182,24,02,22,152,*5E
$BDGSV,3,1,12,213,73,263,25,206,68,259,27,208,64,178,31,216,62,256,32*69
$BDGSV,3,2,12,203,44,206,32,220,42,294,29,230,33,228,25,225,16,046,21*61
$BDGSV,3,3,12,201,43,159,,209,39,242,,223,36,098,,229,29,291,*68
$GAGSV,2,1,05,104,72,338,30,109,32,263,21,112,33,180,,119,29,058,*6C
$GAGSV,2,2,05,136,25,316,*6A
$GPGSA,A,3,02,05,13,15,21,29,30,,,,,,1.8,1.2,1.3*30
$GNGSA,A,3,02,05,13,15,21,29,30,,,,,,1.8,1.2,1.3*2E
$GNGSA,A,3,66,67,75,77,81,,,,,,,,1.8,1.2,1.3*2E
$QZGSA,A,3,01,03,,,,,,,,,,,1.8,1.2,1.3*24
$IMGSA,A,3,,,,,,,,,,,,,1.8,1.2,1.3*29
$BDGSA,A,3,203,206,208,213,216,220,230,,,,,,1.8,1.2,1.3*10
$GAGSA,A,3,104,109,,,,,,,,,,,1.8,1.2,1.3*26
$GPRMC,025948.00,A,3722.620099,N,12640.487702,E,037.1,217.3,231119,,,A*58
$GPGGA,025949.00,3722.611880,N,12640.480175,E,1,24,0.4,16.4,M,17.8,M,,*5C
$PGLOR,9,STA,025949.00,0.000,0.000,-309,1,4,0,P,F,L,0,C,3,S,00100182,590,5,R,000833F4,TPEF,40,62105,LC,,,*68
$GPGSV,2,1,08,13,70,033,26,15,68,271,32,05,49,081,36,21,30,312,26*7C
$GPGSV,2,2,08,29,22,242,31,30,20,047,28,24,19,188,22,02,18,156,25*75
$GLGSV,2,1,08,66,48,027,29,67,44,302,31,81,39,212,39,75,18,040,26*6D
$GLGSV,2,2,08,83,15,333,17,77,13,146,23,65,02,072,,76,31,092,28*61
$QZGSV,1,1,03,01,77,068,27,03,16,182,24,02,22,152,*51
$BDGSV,3,1,12,213,73,263,25,206,68,259,27,208,64,178,31,216,62,256,32*69
$BDGSV,3,2,12,203,44,206,32,220,42,294,29,230,33,228,25,225,16,046,*62
$BDGSV,3,3,12,201,43,159,,209,39,242,,223,36,098,,229,29,291,*68
$GAGSV,2,1,05,104,72,338,30,109,32,263,21,112,33,180,,119,29,058,*6C
$GAGSV,2,2,05,136,25,316,*6A
$GPGSA,A,3,02,05,13,15,21,24,29,30,,,,,2.2,1.4,1.7*3D
$GNGSA,A,3,02,05,13,15,21,24,29,30,,,,,2.2,1.4,1.7*23
$GNGSA,A,3,66,67,75,77,81,,,,,,,,2.2,1.4,1.7*25
$QZGSA,A,3,01,03,,,,,,,,,,,2.2,1.4,1.7*2F
$IMGSA,A,3,,,,,,,,,,,,,2.2,1.4,1.7*22
$BDGSA,A,3,203,206,208,213,216,220,230,,,,,,2.2,1.4,1.7*1B
$GAGSA,A,3,104,109,,,,,,,,,,,2.2,1.4,1.7*2D
$GPRMC,025949.00,A,3722.611880,N,12640.480175,E,037.0,217.3,231119,,,A*5B
$GPGGA,025950.00,3722.603746,N,12640.471339,E,1,22,0.4,16.2,M,17.8,M,,*56
$PGLOR,9,STA,025950.00,0.000,0.000,-310,1,4,0,P,F,L,0,C,3,S,00100182,610,5,R,000833F4,TPEF,40,63105,LC,,,*62
$GPGSV,2,1,08,13,70,033,25,15,68,272,32,05,49,081,36,21,30,312,26*7C
$GPGSV,2,2,08,29,22,242,31,30,20,047,27,24,19,188,21,02,18,156,24*78
$GLGSV,2,1,08,66,48,027,28,67,44,302,31,81,39,212,39,75,18,040,26*6C
$GLGSV,2,2,08,83,15,333,,77,13,146,23,65,02,072,,76,31,092,28*67
$QZGSV,1,1,03,01,77,068,27,03,16,182,23,02,22,152,*56
$BDGSV,3,1,12,213,73,263,25,206,68,259,27,208,64,178,31,216,62,256,32*69
$BDGSV,3,2,12,203,44,206,32,220,42,294,29,230,33,228,25,225,16,046,19*6A
$BDGSV,3,3,12,201,43,159,,209,39,242,,223,36,098,,229,29,291,*68
$GAGSV,2,1,05,104,72,338,30,109,32,263,,112,33,180,,119,29,058,*6F
$GAGSV,2,2,05,136,25,316,*6A
$GPGSA,A,3,02,05,13,15,21,29,30,,,,,,1.7,1.1,1.3*3C
$GNGSA,A,3,02,05,13,15,21,29,30,,,,,,1.7,1.1,1.3*22
$GNGSA,A,3,66,67,75,77,81,,,,,,,,1.7,1.1,1.3*22
$QZGSA,A,3,01,03,,,,,,,,,,,1.7,1.1,1.3*28
$IMGSA,A,3,,,,,,,,,,,,,1.7,1.1,1.3*25
$BDGSA,A,3,203,206,208,213,216,220,230,,,,,,1.7,1.1,1.3*1C
$GAGSA,A,3,104,,,,,,,,,,,,1.7,1.1,1.3*12
$GPRMC,025950.00,A,3722.603746,N,12640.471339,E,036.9,217.3,231119,,,A*59
$GPGGA,025951.00,3722.595532,N,12640.463770,E,1,22,0.4,16.1,M,17.8,M,,*53
$PGLOR,9,STA,025951.00,0.000,0.000,-310,1,4,0,P,F,L,0,C,3,S,00100182,629,5,R,000833F4,TPEF,40,64105,LC,,,*6E
$GPGSV,2,1,08,13,70,033,24,15,68,272,32,05,49,081,36,21,31,312,26*7C
$GPGSV,2,2,08,29,22,242,31,30,20,047,27,24,19,188,20,02,18,156,24*79
$GLGSV,2,1,08,66,48,027,28,67,44,302,31,81,39,212,39,75,18,040,25*6F
$GLGSV,2,2,08,83,15,333,,77,13,146,23,65,02,072,,76,31,092,28*67
$QZGSV,1,1,03,01,77,068,27,03,16,182,23,02,22,152,*56
$BDGSV,3,1,12,213,73,263,25,206,68,259,27,208,64,178,31,216,62,256,31*6A
$BDGSV,3,2,12,203,44,206,32,220,42,294,29,230,33,228,24,225,16,046,*63
$BDGSV,3,3,12,201,43,159,,209,39,242,,223,36,098,,229,29,291,*68
$GAGSV,2,1,05,104,72,338,30,109,32,263,,112,33,180,,119,29,058,*6F
$GAGSV,2,2,05,136,25,316,*6A
$GPGSA,A,3,02,05,15,21,29,30,,,,,,,1.5,0.9,1.1*37
$GNGSA,A,3,02,05,15,21,29,30,,,,,,,1.5,0.9,1.1*29
$GNGSA,A,3,66,67,75,77,81,,,,,,,,1.5,0.9,1.1*2B
$QZGSA,A,3,01,03,,,,,,,,,,,1.5,0.9,1.1*21
$IMGSA,A,3,,,,,,,,,,,,,1.5,0.9,1.1*2C
$BDGSA,A,3,203,206,208,213,216,220,230,,,,,,1.5,0.9,1.1*15
$GAGSA,A,3,104,,,,,,,,,,,,1.5,0.9,1.1*1B
$GPRMC,025951.00,A,3722.595532,N,12640.463770,E,037.1,217.3,231119,,,A*56
$GPGGA,025952.00,3722.587447,N,12640.455237,E,1,21,0.4,16.1,M,17.8,M,,*50
$PGLOR,9,STA,025952.00,0.000,0.000,-310,1,4,0,P,F,L,0,C,3,S,00100182,649,5,R,000833F4,TPEF,40,65105,LC,,,*6A
$GPGSV,2,1,08,13,70,033,24,15,68,272,32,05,49,081,36,21,31,312,26*7C
$GPGSV,2,2,08,29,22,242,31,30,20,047,27,24,19,188,,02,18,156,23*7C
$GLGSV,2,1,08,66,48,027,28,67,44,302,31,81,39,212,39,75,18,040,24*6E
$GLGSV,2,2,08,83,15,333,,77,13,146,23,65,02,072,,76,31,092,28*67
$QZGSV,1,1,03,01,77,068,27,03,16,182,23,02,22,152,*56
$BDGSV,3,1,12,213,73,263,26,206,68,259,26,208,64,178,31,216,62,256,31*68
$BDGSV,3,2,12,203,44,206,32,220,42,294,29,230,33,228,24,225,16,046,*63
$BDGSV,3,3,12,201,43,159,,209,39,242,,223,36,098,,229,29,291,*68
$GAGSV,2,1,05,104,72,338,30,109,32,263,19,112,33,180,,119,29,058,*67
$GAGSV,2,2,05,136,25,316,*6A
$GPGSA,A,3,02,05,15,21,29,30,,,,,,,2.3,1.4,1.8*37
$GNGSA,A,3,02,05,15,21,29,30,,,,,,,2.3,1.4,1.8*29
$GNGSA,A,3,66,67,77,81,,,,,,,,,2.3,1.4,1.8*29
$QZGSA,A,3,01,03,,,,,,,,,,,2.3,1.4,1.8*21
$IMGSA,A,3,,,,,,,,,,,,,2.3,1.4,1.8*2C
$BDGSA,A,3,203,206,208,213,216,220,230,,,,,,2.3,1.4,1.8*15
$GAGSA,A,3,104,109,,,,,,,,,,,2.3,1.4,1.8*23
$GPRMC,025952.00,A,3722.587447,N,12640.455237,E,036.8,217.2,231119,,,A*5F
$GPGGA,025953.00,3722.579234,N,12640.447083,E,1,21,0.4,16.1,M,17.8,M,,*5C
$PGLOR,9,STA,025953.00,0.000,0.000,-310,1,4,0,P,F,L,0,C,3,S,00100182,668,5,R,000833F4,TPEF,40,66105,LC,,,*6B
$GPGSV,2,1,08,13,70,033,23,15,68,272,32,05,49,081,36,21,31,312,26*7B
$GPGSV,2,2,08,29,22,242,31,30,20,047,26,24,19,188,19,02,18,156,23*75
$GLGSV,2,1,08,66,48,027,28,67,44,302,32,81,39,212,39,75,18,040,24*6D
$GLGSV,2,2,08,83,15,333,,77,13,146,23,65,02,072,,76,31,092,29*66
$QZGSV,1,1,03,01,77,068,26,03,16,182,22,02,22,152,*56
$BDGSV,3,1,12,213,73,263,26,206,68,259,26,208,64,178,31,216,62,256,31*68
$BDGSV,3,2,12,203,44,206,32,220,42,294,29,230,33,228,24,225,16,046,18*6A
$BDGSV,3,3,12,201,43,159,,209,39,242,,223,36,098,,229,29,291,*68
$GAGSV,2,1,05,104,72,338,30,109,32,263,24,112,33,180,,119,29,058,*69
$GAGSV,2,2,05,136,25,316,*6A
$GPGSA,A,3,02,05,15,21,29,30,,,,,,,2.1,1.2,1.8*33
$GNGSA,A,3,02,05,15,21,29,30,,,,,,,2.1,1.2,1.8*2D
$GNGSA,A,3,66,67,77,81,,,,,,,,,2.1,1.2,1.8*2D
$QZGSA,A,3,01,03,,,,,,,,,,,2.1,1.2,1.8*25
$IMGSA,A,3,,,,,,,,,,,,,2.1,1.2,1.8*28
$BDGSA,A,3,203,206,208,213,216,220,230,,,,,,2.1,1.2,1.8*11
$GAGSA,A,3,104,109,,,,,,,,,,,2.1,1.2,1.8*27
$GPRMC,025953.00,A,3722.579234,N,12640.447083,E,036.6,217.3,231119,,,A*5C
$GPGGA,025954.00,3722.570919,N,12640.438964,E,1,24,0.4,16.3,M,17.8,M,,*59
$PGLOR,9,STA,025954.00,0.000,0.000,-310,1,4,0,P,F,L,0,C,3,S,00100182,687,5,R,000833F4,TPEF,40,67105,LC,,,*6C
$GPGSV,2,1,08,13,70,033,22,15,68,272,32,05,49,081,36,21,31,312,27*7B
$GPGSV,2,2,08,29,22,242,31,30,20,047,26,24,19,188,22,02,18,156,23*7D
$GLGSV,2,1,08,66,48,027,28,67,44,302,32,81,39,212,39,75,18,040,23*6A
$GLGSV,2,2,08,83,15,333,,77,13,146,23,65,02,072,,76,31,092,28*67
$QZGSV,1,1,03,01,77,068,27,03,16,182,22,02,22,152,*57
$BDGSV,3,1,12,213,73,263,26,206,68,259,26,208,64,178,31,216,62,256,31*68
$BDGSV,3,2,12,203,44,206,32,220,42,294,29,230,33,228,24,225,16,046,17*65
$BDGSV,3,3,12,201,43,159,,209,39,242,,223,36,098,,229,29,291,*68
$GAGSV,2,1,05,104,72,338,30,109,32,263,23,112,33,180,,119,29,058,*6E
$GAGSV,2,2,05,136,25,316,*6A
$GPGSA,A,3,02,05,15,21,24,29,30,,,,,,2.2,1.2,1.8*36
$GNGSA,A,3,02,05,15,21,24,29,30,,,,,,2.2,1.2,1.8*28
$GNGSA,A,3,66,67,75,77,81,,,,,,,,2.2,1.2,1.8*2C
$QZGSA,A,3,01,03,,,,,,,,,,,2.2,1.2,1.8*26
$IMGSA,A,3,,,,,,,,,,,,,2.2,1.2,1.8*2B
$BDGSA,A,3,203,206,208,213,216,220,230,,,,,,2.2,1.2,1.8*12
$GAGSA,A,3,104,109,,,,,,,,,,,2.2,1.2,1.8*24
$GPRMC,025954.00,A,3722.570919,N,12640.438964,E,037.5,217.2,231119,,,A*5D
$GPGGA,025955.00,3722.562633,N,12640.430847,E,1,23,0.4,16.6,M,17.8,M,,*56
$PGLOR,9,STA,025955.00,0.000,0.000,-308,1,4,0,P,F,L,0,C,3,S,00100182,707,5,R,000833F4,TPEF,40,68105,LC,,,*62
$GPGSV,2,1,08,13,70,033,24,15,68,272,32,05,49,081,35,21,31,312,27*7E
$GPGSV,2,2,08,29,22,242,31,30,20,047,26,24,19,188,21,02,18,156,22*7F
$GLGSV,2,1,08,66,48,027,28,67,44,302,32,81,39,212,39,75,18,040,23*6A
$GLGSV,2,2,08,83,15,333,,77,13,146,23,65,02,072,,76,31,092,28*67
$QZGSV,1,1,03,01,77,068,29,03,16,182,22,02,22,152,*59
$BDGSV,3,1,12,213,73,263,27,206,68,259,26,208,64,178,31,216,62,256,31*69
$BDGSV,3,2,12,203,44,206,31,220,42,294,28,230,33,228,24,225,16,046,17*67
$BDGSV,3,3,12,201,43,159,,209,39,242,,223,36,098,,229,29,291,*68
$GAGSV,2,1,05,104,72,338,30,109,32,263,23,112,33,180,,119,29,058,*6E
$GAGSV,2,2,05,136,25,316,*6A
$GPGSA,A,3,02,05,13,15,21,29,30,,,,,,2.2,1.2,1.8*32
$GNGSA,A,3,02,05,13,15,21,29,30,,,,,,2.2,1.2,1.8*2C
$GNGSA,A,3,66,67,75,77,81,,,,,,,,2.2,1.2,1.8*2C
$QZGSA,A,3,01,03,,,,,,,,,,,2.2,1.2,1.8*26
$IMGSA,A,3,,,,,,,,,,,,,2.2,1.2,1.8*2B
$BDGSA,A,3,203,206,208,213,216,220,230,,,,,,2.2,1.2,1.8*12
$GAGSA,A,3,104,109,,,,,,,,,,,2.2,1.2,1.8*24
$GPRMC,025955.00,A,3722.562633,N,12640.430847,E,037.1,217.1,231119,,,A*57
$GPGGA,025956.00,3722.554544,N,12640.422749,E,1,27,0.4,16.8,M,17.8,M,,*5B
$PGLOR,9,STA,025956.00,0.000,0.000,-309,1,4,0,P,F,L,0,C,3,S,00100182,726,5,R,000833F4,TPEF,40,69105,LC,,,*62
$GPGSV,2,1,08,13,70,033,25,15,68,272,31,05,49,081,35,21,31,312,26*7D
$GPGSV,2,2,08,29,22,242,30,30,20,047,27,24,19,188,21,02,18,156,22*7F
$GLGSV,2,1,08,66,48,027,28,67,44,302,32,81,39,212,39,75,18,040,23*6A
$GLGSV,2,2,08,83,15,333,17,77,13,146,23,65,02,072,,76,31,092,28*61
$QZGSV,1,1,03,01,77,068,29,03,16,182,21,02,22,152,*5A
$BDGSV,3,1,12,213,73,263,27,206,68,259,26,208,64,178,31,216,62,256,31*69
$BDGSV,3,2,12,203,44,206,31,220,42,294,29,230,33,228,24,225,16,046,18*69
$BDGSV,3,3,12,201,43,159,,209,39,242,,223,36,098,,229,29,291,*68
$GAGSV,2,1,05,104,72,338,29,109,32,263,22,112,33,180,,119,29,058,*67
$GAGSV,2,2,05,136,25,316,*6A
$GPGSA,A,3,02,05,13,15,21,24,29,30,,,,,2.1,1.2,1.8*37
$GNGSA,A,3,02,05,13,15,21,24,29,30,,,,,2.1,1.2,1.8*29
$GNGSA,A,3,66,67,75,77,81,83,,,,,,,2.1,1.2,1.8*24
$QZGSA,A,3,01,03,,,,,,,,,,,2.1,1.2,1.8*25
$IMGSA,A,3,,,,,,,,,,,,,2.1,1.2,1.8*28
$BDGSA,A,3,203,206,208,213,216,220,225,230,,,,,2.1,1.2,1.8*24
$GAGSA,A,3,104,109,,,,,,,,,,,2.1,1.2,1.8*27
$GPRMC,025956.00,A,3722.554544,N,12640.422749,E,037.0,217.1,231119,,,A*51
$GPGGA,025957.00,3722.546555,N,12640.414599,E,1,24,0.4,17.0,M,17.8,M,,*59
$PGLOR,9,STA,025957.00,0.000,0.000,-309,1,4,0,P,F,L,0,C,2,S,00100182,745,5,R,000833F4,TPEF,40,70105,LC,,,*6F
$GPGSV,2,1,08,13,70,033,25,15,68,272,31,05,49,081,35,21,31,312,26*7D
$GPGSV,2,2,08,29,22,242,30,30,20,047,27,24,19,188,,02,18,156,22*7C
$GLGSV,2,1,08,66,48,027,28,67,44,302,32,81,39,212,39,75,18,040,23*6A
$GLGSV,2,2,08,83,15,333,17,77,13,146,23,65,02,072,,76,31,092,27*6E
$QZGSV,1,1,03,01,77,068,29,03,16,182,21,02,22,152,*5A
$BDGSV,3,1,12,213,73,263,26,206,68,259,25,208,64,178,30,216,62,257,30*6A
$BDGSV,3,2,12,203,44,206,31,220,42,294,29,230,33,228,23,225,16,046,19*6F
$BDGSV,3,3,12,201,43,159,,209,39,242,,223,36,098,,229,29,291,*68
$GAGSV,2,1,05,104,72,338,29,109,32,263,24,112,33,180,,119,29,058,*61
$GAGSV,2,2,05,136,25,316,*6A
$GPGSA,A,3,02,05,13,15,21,29,30,,,,,,1.8,1.2,1.3*30
$GNGSA,A,3,02,05,13,15,21,29,30,,,,,,1.8,1.2,1.3*2E
$GNGSA,A,3,66,67,75,77,81,,,,,,,,1.8,1.2,1.3*2E
$QZGSA,A,3,01,03,,,,,,,,,,,1.8,1.2,1.3*24
$IMGSA,A,3,,,,,,,,,,,,,1.8,1.2,1.3*29
$BDGSA,A,3,203,206,208,213,216,220,225,230,,,,,1.8,1.2,1.3*25
$GAGSA,A,3,104,109,,,,,,,,,,,1.8,1.2,1.3*26
$GPRMC,025957.00,A,3722.546555,N,12640.414599,E,036.9,217.1,231119,,,A*51
$GPGGA,025958.00,3722.538614,N,12640.406326,E,1,24,0.4,17.1,M,17.8,M,,*59
$PGLOR,9,STA,025958.00,0.000,0.000,-310,1,4,0,P,F,L,0,C,3,S,00100182,764,5,R,000833F4,TPEF,40,71105,LC,,,*6B
$GPGSV,2,1,08,13,70,033,25,15,68,272,30,05,49,081,35,21,31,312,26*7C
$GPGSV,2,2,08,29,22,242,30,30,20,047,27,24,19,188,,02,18,156,22*7C
$GLGSV,2,1,08,66,48,027,28,67,44,302,32,81,39,212,39,75,18,040,22*6B
$GLGSV,2,2,08,83,15,333,,77,13,146,23,65,02,072,,76,31,092,25*6A
$QZGSV,1,1,03,01,77,068,29,03,16,182,21,02,22,152,*5A
$BDGSV,3,1,12,213,73,263,27,206,68,259,25,208,64,178,30,216,62,257,30*6B
$BDGSV,3,2,12,203,44,206,31,220,42,294,29,230,33,228,24,225,16,046,19*68
$BDGSV,3,3,12,201,43,159,,209,39,242,,223,36,098,,229,29,291,*68
$GAGSV,2,1,05,104,72,338,29,109,32,264,25,112,33,180,,119,29,058,*67
$GAGSV,2,2,05,136,25,316,*6A
$GPGSA,A,3,02,05,13,15,21,29,30,,,,,,1.8,1.2,1.4*37
$GNGSA,A,3,02,05,13,15,21,29,30,,,,,,1.8,1.2,1.4*29
$GNGSA,A,3,66,67,75,77,81,,,,,,,,1.8,1.2,1.4*29
$QZGSA,A,3,01,03,,,,,,,,,,,1.8,1.2,1.4*23
$IMGSA,A,3,,,,,,,,,,,,,1.8,1.2,1.4*2E
$BDGSA,A,3,203,206,208,213,216,220,225,230,,,,,1.8,1.2,1.4*22
$GAGSA,A,3,104,109,,,,,,,,,,,1.8,1.2,1.4*21
$GPRMC,025958.00,A,3722.538614,N,12640.406326,E,036.8,217.5,231119,,,A*55
$GPGGA,025959.00,3722.530785,N,12640.398030,E,1,25,0.4,17.3,M,17.8,M,,*5E
$PGLOR,9,STA,025959.00,0.000,0.000,-310,1,4,0,P,F,L,0,C,3,S,00100182,783,5,R,000833F4,TPEF,40,72105,LC,,,*60
$GPGSV,2,1,08,13,70,033,25,15,68,272,30,05,49,081,35,21,31,312,25*7F
$GPGSV,2,2,08,29,22,242,30,30,20,047,27,24,19,188,20,02,18,156,22*7E
$GLGSV,2,1,08,66,48,027,27,67,44,302,32,81,39,212,38,75,18,040,22*65
$GLGSV,2,2,08,83,15,333,,77,13,146,22,65,02,072,,76,31,092,24*6A
$QZGSV,1,1,03,01,77,068,28,03,16,182,21,02,22,152,*5B
$BDGSV,3,1,12,213,73,263,28,206,68,259,24,208,64,178,30,216,62,257,30*65
$BDGSV,3,2,12,203,44,206,31,220,42,294,29,230,33,228,24,225,16,046,19*68
$BDGSV,3,3,12,201,43,159,,209,39,242,,223,36,098,,229,29,291,*68
$GAGSV,2,1,05,104,72,338,29,109,32,264,25,112,33,180,,119,29,058,*67
$GAGSV,2,2,05,136,25,316,*6A
$GPGSA,A,3,02,05,13,15,21,24,29,30,,,,,1.6,1.0,1.3*3A
$GNGSA,A,3,02,05,13,15,21,24,29,30,,,,,1.6,1.0,1.3*24
$GNGSA,A,3,66,67,75,77,81,,,,,,,,1.6,1.0,1.3*22
$QZGSA,A,3,01,03,,,,,,,,,,,1.6,1.0,1.3*28
$IMGSA,A,3,,,,,,,,,,,,,1.6,1.0,1.3*25
$BDGSA,A,3,203,206,208,213,216,220,230,,,,,,1.6,1.0,1.3*1C
$GAGSA,A,3,104,109,,,,,,,,,,,1.6,1.0,1.3*2A
$GPRMC,025959.00,A,3722.530785,N,12640.398030,E,036.8,217.5,231119,,,A*51
$GPGGA,030000.00,3722.522824,N,12640.389853,E,1,22,0.4,17.5,M,17.8,M,,*54
$PGLOR,9,STA,030000.00,0.000,0.000,-310,1,4,0,P,F,L,0,C,3,S,00100182,802,5,R,000833F4,TPEF,40,73105,LC,,,*66
$GPGSV,2,1,08,13,70,033,25,15,68,272,29,05,49,081,35,21,31,312,25*77
$GPGSV,2,2,08,29,22,242,29,30,20,047,27,24,19,188,,02,18,156,22*74
$GLGSV,2,1,08,66,48,027,27,67,44,302,32,81,39,212,38,75,18,040,21*66
$GLGSV,2,2,08,83,15,333,,77,13,146,22,65,02,072,,76,31,092,23*6D
$QZGSV,1,1,03,01,77,068,28,03,16,182,24,02,22,152,*5E
$BDGSV,3,1,12,213,73,263,28,206,68,260,24,208,64,178,30,216,62,257,30*6F
$BDGSV,3,2,12,203,44,206,30,220,42,294,29,230,33,228,24,225,16,046,19*69
$BDGSV,3,3,12,201,43,159,,209,39,242,,223,36,098,,229,29,291,*68
$GAGSV,2,1,05,104,72,338,29,109,32,264,24,112,33,180,,119,29,058,*66
$GAGSV,2,2,05,136,25,316,*6A
$GPGSA,A,3,02,05,13,15,21,29,30,,,,,,1.8,1.0,1.5*34
$GNGSA,A,3,02,05,13,15,21,29,30,,,,,,1.8,1.0,1.5*2A
$GNGSA,A,3,66,67,77,81,,,,,,,,,1.8,1.0,1.5*28
